~VERSION INFORMATION
VERS.           2.0   :CWLS Log ASCII Standard - VERSION 2.0
WRAP.           NO    :One Line per depth step
PROD.  Schlumberger   :LAS Producer
PROG.  DLIS to ASCII 11C0-305                          :LAS Program name and version
CREA.        2003/11/16 09:47                          :LAS Creation date {YYYY/MM/DD hh:mm}
SOURCE.     AIT_MainPB1_027PUP.DLIS                    :DLIS File Name
FILE-ID.     AIT_MainPB1_027PUP                        :File Identification Number
#--------------------------------------------------
~WELL INFORMATION
#MNEM.UNIT      DATA             DESCRIPTION
#---- ------ --------------   -----------------------------
STRT .M      4869.0276       :START DEPTH     
STOP .M      3996.2328       :STOP DEPTH     
STEP .M        -0.1524       :STEP     
NULL .          -999.25      :NULL VALUE
COMP .        INPEX Browse, Ltd.                       :COMPANY
WELL .        ICHTHYS DEEP-1                           :WELL
FLD  .        WA-285-P                                 :FIELD
LOC  .        Datum: GDA94 Spheroid GRS80              :LOCATION
CNTY .        Ocean Bounty                             :COUNTY
STAT .        1:200                                    :STATE
CTRY .        Australia                                :COUNTRY
API  .                                                 :API NUMBER
UWI  .                                                 :UNIQUE WELL ID
DATE .        16-Nov-2003                              :LOG DATE {DD-MMM-YYYY}
SRVC .        Schlumberger                             :SERVICE COMPANY
LATI .DEG     13 51' 47.081" S                         :LATITUDE
LONG .DEG     123 13'  56.110" E                       :LONGITUDE
GDAT .                                                 :GeoDetic Datum
#-----------------------------------------------------------------------------
~PARAMETER INFORMATION
#MNEM.UNIT    VALUE                      DESCRIPTION
#---- -----   --------------------       ------------------------
RUN  .          Suite 3 Run 1            :RUN NUMBER
PDAT .        LAT                        :Permanent Datum
EPD  .M           0.000000               :Elevation of Permanent Datum above Mean Sea Level
EPD  .M           0.000000               :Elevation of tool zero above Mean Sea Level
LMF  .          Drill Floor              :Logging Measured From (Name of Logging Elevation Reference)
APD  .M          25.000000               :Elevation of Depth Reference (LMF) above Permanent Datum
#-----------------------------------------------------------------------------
~CURVE INFORMATION
#MNEM.UNIT   API CODE                                  DESCRIPTION
#---- -----  --------                                  -----------------------
DEPT .M                                                :DEPTH (BOREHOLE) {F10.4}
TENS .LBF                                              :Cable Tension {F13.4}
APLU .V/V                                              :APS Near/Array Uncorrected Limestone Porosity {F13.4}
RHOM .G/C3                                             :LDS Corrected Bulk Density {F13.4}
DRH  .G/C3                                             :LDS Bulk Density Correction {F13.4}
PEFL .                                                 :LDS Long-Spaced Corrected Photoelectric Effect {F13.4}
LCAL .IN                                               :LDS Caliper {F13.4}
HSGR .GAPI                                             :HNGS Standard Gamma Ray {F13.4}
CDF  .N                                                :Calibrated Downhole Force {F13.4}
APLC .V/V                                              :APS Near/Array Corrected Limestone Porosity {F13.4}
ATD2 .IN                                               :Array Induction Two Foot Outer Diameter of Invasion (D2) {F13.4}
ATD1 .IN                                               :Array Induction Two Foot Inner Diameter of Invasion(D1) {F13.4}
AOD2 .IN                                               :Array Induction One Foot Outer Diameter of Invasion (D2) {F13.4}
AOD1 .IN                                               :Array Induction One Foot Inner Diameter of Invasion (D1) {F13.4}
AT90 .OHMM                                             :Array Induction Two Foot Resistivity A90 {F13.4}
AT60 .OHMM                                             :Array Induction Two Foot Resistivity A60 {F13.4}
AT30 .OHMM                                             :Array Induction Two Foot Resistivity A30 {F13.4}
AT20 .OHMM                                             :Array Induction Two Foot Resistivity A20 {F13.4}
AT10 .OHMM                                             :Array Induction Two Foot Resistivity A10 {F13.4}
AO90 .OHMM                                             :Array Induction One Foot Resistivity A90 {F13.4}
AO60 .OHMM                                             :Array Induction One Foot Resistivity A60 {F13.4}
AO30 .OHMM                                             :Array Induction One Foot Resistivity A30 {F13.4}
AO20 .OHMM                                             :Array Induction One Foot Resistivity A20 {F13.4}
AO10 .OHMM                                             :Array Induction One Foot Resistivity A10 {F13.4}
SIGF .CU                                               :APS Formation Capture Cross-Section {F13.4}
ANEC .HZ                                               :APS Near Detector Count Rate {F13.4}
AFEC .HZ                                               :APS Far Detector Count Rate {F13.4}
A1EP .HZ                                               :APS Array-1 Detector Count Rate {F13.4}
A2EP .HZ                                               :APS Array-2 Detector Count Rate {F13.4}
AFTC .HZ                                               :APS Thermal Detector Count Rate {F13.4}
#-----------------------------------------------------------------------------
# 
#     DEPT        TENS         APLU         RHOM         DRH          PEFL         LCAL         HSGR         CDF          APLC         ATD2         ATD1         AOD2         AOD1         AT90         AT60         AT30         AT20         AT10         AO90         AO60         AO30         AO20         AO10         SIGF         ANEC         AFEC         A1EP         A2EP         AFTC
#
~A  
# ...
 4520.1840    6069.0000       0.1091       2.8139      -0.0079    -999.2500       9.4954      96.5122    6423.4146       0.0719      49.2705      10.6303      50.7434      38.2203      17.0182      17.2243      18.1371      18.8865      21.1799      17.8773      17.5661      17.7488      18.2136      21.0413      20.6447    2980.0000    1166.6666    2384.0000    2394.0000    2940.6021
 4520.0316    6083.0000       0.0932       2.8139      -0.0079    -999.2500       9.4285     104.7899    6385.4624       0.0636      30.9660       9.3631      63.5072      58.6070      20.3353      20.6154      17.8755      18.8990      21.2135      16.1220      15.5273      16.7070      21.2707      18.8229      16.2564    2996.0000    1199.0000    2523.0000    2643.0000    2973.9016
 4519.8792    6071.0000       0.0753       2.8139      -0.0079    -999.2500       9.4288      91.9706    6344.3472       0.0527      35.4593      10.6444      75.0606      68.6741      21.7180      22.0653      21.0550      21.6312      22.7553      17.6119      17.3744      19.3191      26.1092      21.1066      14.2375    2913.0000    1273.0000    2879.0000    2840.0000    3265.9126
 4519.7268    6033.0000       0.0665       2.8139      -0.0079    -999.2500       9.2759      64.2022    6434.4839       0.0442      64.1140      10.5471      78.8864      60.5304      25.1412      25.8286      26.7776      27.6178      34.0747      23.1547      23.2916      29.7561      31.5895      36.5428      12.6608    3051.0000    1335.2000    2860.0000    2810.0000    3657.8223
 4519.5744    5959.0000       0.0780       2.8139      -0.0079    -999.2500       9.1602      43.2043    6363.3237       0.0597      92.6050      10.6881      75.8033      45.8562      30.3548      31.8577      39.0150      41.7295      49.6644      60.0528      62.8927      66.8583      46.4934      72.5773      12.9028    2964.0000    1548.0000    2793.0000    2769.0000    4277.7051
 4519.4220    5952.0000       0.0916       2.8139      -0.0079    -999.2500       9.1527      39.4752    6502.4819       0.0754      87.2892      12.4965      68.6908      43.9511      46.3573      50.6005      55.8446      59.4947      71.1980      64.0737      68.1451      68.6056      50.3406      96.8241      13.3737    2919.0000    1638.0000    2563.0000    2539.0000    4697.7910
 4519.2696    5988.0000       0.0896       2.8139      -0.0079    -999.2500       9.2123      45.6372    6309.5581       0.0775      60.1914      23.9765      68.3728      53.9469      56.1188      61.1457      59.2001      56.3598      69.7624      81.3303      95.7216      62.4835      56.7802      74.3130      14.4218    2973.0000    1516.0000    2677.0000    2572.0000    4582.5239
 4519.1172    5977.0000       0.0728       2.8139      -0.0079    -999.2500       9.2131      50.0666    6368.0674       0.0605      59.1615      48.6324      72.6830      59.6288      56.9128      66.0944      55.1814      50.8963      60.6919      62.0636      72.2447      53.0954      46.2262      47.9831      14.0290    3094.0000    1567.2000    2775.0000    2893.0000    4910.3955
 4518.9648    5901.0000       0.0627       2.8139      -0.0079    -999.2500       9.1956      53.7793    6421.8335       0.0522      75.1014      73.1149      73.7777      59.8182      60.7211      70.7824      60.5934      53.2844      62.9290      90.8844     114.4826      68.3013      54.6136      60.5165      14.4136    3066.0000    1903.0000    3023.0000    2993.0000    5327.9199
 4518.8124    5927.0000       0.0638       2.8139      -0.0079    -999.2500       9.1871      57.3677    6247.8857       0.0543      83.7223      82.3557      58.7968      50.6845      65.1004      76.7178      66.6746      57.9288      71.3521      94.3249     120.9709      99.4696      59.7620      85.5453      14.5107    3069.0000    1744.0000    3038.0000    2956.0000    4510.8018
 4518.6600    5907.0000       0.0736       2.8139      -0.0079    -999.2500       9.1836      59.0824    6311.1392       0.0643      68.6368      66.7425      36.5245      33.9318      54.5725      63.9328      57.8239      49.5526      59.4737      54.0640      60.6876      67.6510      47.2092      71.9356      13.8673    3074.0000    1622.0000    2756.0000    2742.0000    4659.3687
 4518.5076    5895.0000       0.0870       2.8139      -0.0079    -999.2500       9.1988      56.8618    6314.3022       0.0738      41.4470      40.1436      19.4235      19.0190      45.1858      51.2843      47.9870      42.0908      48.2010      43.9894      50.1638      57.0978      38.8052      61.8826      13.5807    2891.0000    1534.0000    2637.0000    2604.0000    4469.8174
 4518.3552    5896.0000       0.0884       2.8139      -0.0079    -999.2500       9.1960      64.0652    6315.8833       0.0733      23.1984      22.7556      14.1366      14.1297      39.3768      43.5050      39.5660      36.0881      40.6344      36.9541      39.3250      44.9471      35.8897      54.8103      13.8892    2884.0000    1485.0000    2629.0000    2648.0000    4687.5449
 4518.2028    5905.0000       0.0909       2.8139      -0.0079    -999.2500       9.1985      82.2837    6279.5122       0.0726      20.4386      20.3651      11.3270      11.3236      28.8489      31.4214      30.4834      28.1343      30.0937      25.7208      27.3389      30.1944      23.6820      29.6576      13.9929    2992.0000    1432.0000    2650.0000    2659.0000    4551.7856
 4518.0504    5920.0000       0.0990       2.8139      -0.0079    -999.2500       9.1978     103.1066    6341.1846       0.0774      22.1666      22.1661      10.8654      10.8654      24.9524      26.8101      23.3939      21.9721      23.1405      18.5872      19.2269      20.7521      18.5185      19.9577      15.0976    2951.0000    1434.0000    2500.0000    2471.0000    4170.1221
 4517.8980    5891.0000       0.1129       2.8139      -0.0079    -999.2500       9.3179     103.0377    6388.6255       0.0905      18.4667      18.4663      10.6183      10.6183      19.4983      20.5527      20.6981      19.3274      19.3839      17.0263      17.4968      18.9438      18.0737      18.9075      17.6645    2927.0000    1377.0000    2400.0000    2465.0000    4175.2451
 4517.7456    6007.0000       0.1117       2.8139      -0.0079    -999.2500      10.1472      86.5779    6333.2783       0.0820      13.6351      13.6350      13.5865      12.8557      19.3650      20.3905      20.4858      19.5223      19.5175      16.8765      17.3637      18.7103      18.3627      18.6403      18.7538    2804.0000    1243.0000    2381.0000    2380.0000    3539.9932
 4517.5932    6000.0000       0.1174       2.8139      -0.0079    -999.2500      10.5471      65.4718    6399.6943       0.0766      14.8421      14.8420      28.9712      25.5308      22.5567      23.8451      25.1957      24.4366      24.8955      24.5715      26.0401      26.9177      26.5592      24.5813      18.2541    2847.0000    1307.0000    2368.0000    2373.0000    2835.5806
 4517.4408    6003.0000       0.1210       2.8139      -0.0079    -999.2500      10.6881      53.7554    6301.6514       0.0693      16.4396      16.4396      53.5932      44.9694      30.1647      32.4709      35.9641      35.1805      34.4847      39.1167      39.9109      43.1230      45.9911      42.3736      16.1217    2727.0000    1317.3334    2292.0000    2254.0000    3037.9390
 4517.2884    6042.0000       0.1130       2.8139      -0.0079    -999.2500      10.8288      47.1371    6375.9746       0.0524      14.7298      14.7298      55.9879      44.4379      49.2494      54.8218      54.8395      50.8798      48.1128      75.8764      72.8490      72.8875      50.5800      53.3098      13.4943    2821.0000    1345.6000    2275.0000    2197.0000    4057.4160
 4517.1360    6021.0000       0.1123       2.8139      -0.0079    -999.2500      10.5613      45.8843    6290.5820       0.0347      11.8801      11.8801      45.6664      36.6187      53.0476      56.1216      55.6937      51.6259      50.8563      58.5112      59.6936      59.7626      45.5989      62.4159      10.9433    2761.0000    1412.0000    2562.0000    2337.0000    4216.2295
