~VERSION INFORMATION
VERS.           2.0   :CWLS Log ASCII Standard - VERSION 2.0
WRAP.           NO    :One Line per depth step
PROD.  Schlumberger   :LAS Producer
PROG.  DLIS to ASCII 11C0-305                          :LAS Program name and version
CREA.        2003/11/19 08:45                          :LAS Creation date {YYYY/MM/DD hh:mm}
SOURCE.     UBI_Mainpb1_036PUP.DLIS                    :DLIS File Name
FILE-ID.     UBI_Mainpb1_036PUP                        :File Identification Number
#--------------------------------------------------
~WELL INFORMATION
#MNEM.UNIT      DATA             DESCRIPTION
#---- ------ --------------   -----------------------------
STRT .M      4859.4264       :START DEPTH     
STOP .M      4016.0448       :STOP DEPTH     
STEP .M        -0.1524       :STEP     
NULL .          -999.25      :NULL VALUE
COMP .        INPEX Browse, Ltd.                       :COMPANY
WELL .        ICHTHYS DEEP-1                           :WELL
FLD  .        WA-285-P                                 :FIELD
LOC  .        Datum: GDA94 Spheroid GRS80              :LOCATION
CNTY .        Ocean Bounty                             :COUNTY
STAT .        1:200                                    :STATE
CTRY .        Australia                                :COUNTRY
API  .                                                 :API NUMBER
UWI  .                                                 :UNIQUE WELL ID
DATE .        16-Nov-2003                              :LOG DATE {DD-MMM-YYYY}
SRVC .        Schlumberger                             :SERVICE COMPANY
LATI .DEG     13 51' 47.081" S                         :LATITUDE
LONG .DEG     123 13'  56.110" E                       :LONGITUDE
GDAT .                                                 :GeoDetic Datum
#-----------------------------------------------------------------------------
~PARAMETER INFORMATION
#MNEM.UNIT    VALUE                      DESCRIPTION
#---- -----   --------------------       ------------------------
RUN  .          Suite 3 Run 1            :RUN NUMBER
PDAT .        LAT                        :Permanent Datum
EPD  .M           0.000000               :Elevation of Permanent Datum above Mean Sea Level
EPD  .M           0.000000               :Elevation of tool zero above Mean Sea Level
LMF  .          Drill Floor              :Logging Measured From (Name of Logging Elevation Reference)
APD  .M          25.000000               :Elevation of Depth Reference (LMF) above Permanent Datum
#-----------------------------------------------------------------------------
~CURVE INFORMATION
#MNEM.UNIT   API CODE                                  DESCRIPTION
#---- -----  --------                                  -----------------------
DEPT .M                                                :DEPTH (BOREHOLE) {F10.4}
LCAL .IN                                               :LDS Caliper {F13.4}
GR   .GAPI                                             :Gamma Ray {F13.4}
#-----------------------------------------------------------------------------
# 
#     DEPT        LCAL         GR
#
~A  
# ...
 4528.7184       9.6679      78.7941
 4528.5660       9.6144      84.2465
 4528.4136       9.7907      89.3187
 4528.2612      11.4337      85.9458
 4528.1088      12.0942      97.1403
 4527.9564      11.9711     107.2989
 4527.8040      11.9596     109.6977
 4527.6516      11.7094     101.3912
 4527.4992       9.7806      96.0414
 4527.3468       9.9730      94.4184
 4527.1944       9.7903      92.6973
 4527.0420       9.6378      83.1398
 4526.8896       9.2057      73.1276
 4526.7372       8.7841      76.2781
 4526.5848       9.0439      91.5320
 4526.4324       8.8050     102.2260
 4526.2800       9.0185     101.1225
 4526.1276       8.9426      91.9844
 4525.9752       9.2651      82.4062
 4525.8228      10.3389      72.1329
 4525.6704      10.3827      62.1457
 4525.5180      10.0282      59.9286
 4525.3656       9.7037      57.7700
 4525.2132       9.8792      62.8932
 4525.0608       9.8895      65.6203
 4524.9084       9.8596      70.1743
 4524.7560       9.8775      70.2910
 4524.6036      10.0082      78.5089
 4524.4512       9.8160      87.9394
 4524.2988       9.9918      91.5001
 4524.1464       9.6931      78.2797
 4523.9940       9.9873      56.9440
 4523.8416       9.9769      45.6821
 4523.6892      10.1630      51.4214
 4523.5368      10.0973      70.6944
 4523.3844      10.4146      86.3302
 4523.2320      10.3317      99.7856
 4523.0796       9.9861     104.3090
 4522.9272       9.5379     103.1422
 4522.7748       9.1901     102.5057
 4522.6224       8.8803     104.8467
 4522.4700       8.8754     112.4312
 4522.3176       8.8769     117.8051
 4522.1652       8.8843     115.4131
 4522.0128       9.0657     106.6034
 4521.8604       9.5907      85.2383
 4521.7080       9.6940      63.6573
 4521.5556      10.4471      49.9539
 4521.4032      10.4190      45.5563
 4521.2508      10.3663      47.1153
 4521.0984      10.6637      50.7820
 4520.9460       9.3518      66.1553
 4520.7936       8.9677      77.1780
 4520.6412       9.0776      82.1353
 4520.4888       9.1081      82.0433
 4520.3364       9.3492      87.8514
 4520.1840       9.4021     100.1070
 4520.0316       9.2651      86.8313
 4519.8792       9.0952      68.9025
 4519.7268       9.2114      47.8992
 4519.5744       9.1035      45.7246
 4519.4220       9.0552      48.8751
 4519.2696       9.0961      51.6099
 4519.1172       9.0827      57.8614
 4518.9648       9.0668      59.9564
 4518.8124       9.0551      62.5307
 4518.6600       9.0544      58.7456
 4518.5076       9.0564      61.0262
 4518.3552       9.0450      69.6559
 4518.2028       9.0122      91.7147
 4518.0504       9.1587     108.3688
 4517.8980       9.8006     107.4774
 4517.7456       9.8915      84.0945
 4517.5932      10.5785      57.6972
 4517.4408      10.7617      41.9076
 4517.2884      10.6123      47.7241
 4517.1360      10.4612      61.7713
 4516.9836      10.6113      78.0489
 4516.8312      10.7764      91.6480
 4516.6788      10.6742     102.7865
 4516.5264      10.3015     114.2004
 4516.3740      10.1233     115.6431
 4516.2216      10.0751     109.8217
 4516.0692      10.2795      99.0496
 4515.9168      10.1928      90.1921
 4515.7644      10.6897      90.7692
 4515.6120      10.7045      99.6779
 4515.4596      10.5359     109.9179
 4515.3072      10.0782     119.0675
 4515.1548       9.9940     119.9019
 4515.0024      10.2288     118.8181
 4514.8500      10.0340     118.8293
 4514.6976       9.9533     121.1206
 4514.5452       9.8705     124.4887
 4514.3928       9.7115     127.6498
 4514.2404       9.7772     129.2728
 4514.0880       9.9462     132.6991
 4513.9356       9.8682     131.1008
 4513.7832      10.3325     126.8365
 4513.6308      10.2644     120.1625
 4513.4784      10.2162     120.7739
 4513.3260      10.0535     128.4168
 4513.1736       9.6683     135.6129
 4513.0212       9.9249     138.1750
 4512.8688       9.8155     137.5615
 4512.7164       9.8409     137.2498
 4512.5640       9.7708     125.3603
 4512.4116       9.6656     103.9203
 4512.2592       9.8130      86.1259
 4512.1068      10.7832      92.4495
 4511.9544      10.5151     112.5193
 4511.8020      10.2073     127.2816
 4511.6496       9.3254     130.7471
 4511.4972       9.3995     128.3040
 4511.3448       9.5799     126.6175
 4511.1924       9.5326     120.0743
 4511.0400       9.6835     107.9901
 4510.8876      10.0730     100.1652
 4510.7352      10.2996      96.0176
 4510.5828      10.4145     101.0951
 4510.4304      10.3444     113.0677
 4510.2780      10.2395     125.6364
 4510.1256       9.8947     136.7743
 4509.9732       9.5810     142.3044
 4509.8208       9.5052     148.1934
 4509.6684       9.5093     152.3837
 4509.5160       9.5048     152.8176
 4509.3636       9.4388     152.7537
 4509.2112       9.1987     150.4094
 4509.0588       9.2023     149.4946
 4508.9064       9.4991     139.8882
 4508.7540       9.7311     132.3613
 4508.6016       9.7018     123.2959
 4508.4492       9.6354     125.5087
 4508.2968       9.3386     126.1760
 4508.1444       9.6371     130.2381
 4507.9920       9.2179     131.7339
 4507.8396       9.2214     127.2416
 4507.6872      10.2064     112.0725
 4507.5348      10.8293     101.5159
 4507.3824      10.3251     100.4438
 4507.2300      10.1944     106.1578
 4507.0776      10.0561     105.7211
 4506.9252      10.1070     109.0101
 4506.7728       9.6266     117.4151
 4506.6204       9.3191     134.8694
 4506.4680       9.2865     143.9708
 4506.3156       9.2575     147.8981
 4506.1632       9.3276     143.4276
 4506.0108       9.5586     139.6142
 4505.8584       9.7448     138.8118
 4505.7060       9.7025     130.7571
 4505.5536       9.9467     125.4072
 4505.4012      10.2384     120.5420
 4505.2488      10.1246     124.2759
 4505.0964       9.7270     128.9868
 4504.9440       9.2999     130.9021
 4504.7916       9.5534     131.1355
 4504.6392       9.3331     132.8458
 4504.4868       9.5778     135.7337
 4504.3344       9.1963     134.8659
 4504.1820       9.3588     129.5567
 4504.0296       9.5096     121.9430
 4503.8772       9.3350     117.3850
 4503.7248       9.2465     118.9019
 4503.5724       9.0086     122.3358
 4503.4200       8.9430     126.4781
 4503.2676       8.9413     124.3778
 4503.1152       8.9771     119.7552
 4502.9628       9.2069     120.4808
 4502.8104       9.4979     122.1763
 4502.6580       9.3192     125.9321
 4502.5056       9.3713     126.6102
 4502.3532       9.7098     131.1574
 4502.2008       9.5338     133.6661
 4502.0484       9.2846     134.3043
 4501.8960       8.9104     135.5879
 4501.7436       8.9348     139.1796
 4501.5912       8.9829     142.8843
 4501.4388       9.0687     145.8898
 4501.2864       9.5129     137.5213
 4501.1340       9.5271     125.0635
 4500.9816       9.5074     103.3035
 4500.8292       9.5413      90.0454
 4500.6768       9.8193      80.1289
 4500.5244       9.7773      71.4041
 4500.3720       9.6090      65.1526
 4500.2196       9.4971      56.2225
 4500.0672       9.8514      54.2477
 4499.9148      10.0800      51.6966
 4499.7624      10.0804      48.2580
 4499.6100       9.7556      44.1602
 4499.4576       9.8149      41.1881
 4499.3052       9.6426      43.3468
 4499.1528       9.5429      44.2269
 4499.0004       9.6231      46.4479
 4498.8480       9.8033      48.0602
 4498.6956      10.1264      54.4036
 4498.5432      10.0862      73.3227
 4498.3908       9.7644     105.3739
 4498.2384       9.5902     135.2028
 4498.0860       9.4057     153.0556
 4497.9336       9.1164     154.4257
 4497.7812       8.9453     152.0072
 4497.6288       8.9374     147.8735
 4497.4764       8.9371     146.7878
 4497.3240       8.9364     143.3502
 4497.1716       8.9452     134.7637
 4497.0192       9.1309     120.7689
 4496.8668       9.5873     106.8345
 4496.7144      10.0282      97.6865
 4496.5620      10.2206      92.6508
 4496.4096      10.3435      86.8647
 4496.2572      10.3150      88.7281
 4496.1048      10.2331      94.4311
 4495.9524      10.0669     100.1421
 4495.8000       9.9392      93.8511
