~VERSION INFORMATION
VERS.           2.0   :CWLS Log ASCII Standard - VERSION 2.0
WRAP.           NO    :One Line per depth step
PROD.  Schlumberger   :LAS Producer
PROG.  DLIS to ASCII 11C0-305                          :LAS Program name and version
CREA.        2003/11/16 09:47                          :LAS Creation date {YYYY/MM/DD hh:mm}
SOURCE.     AIT_MainPB1_027PUP.DLIS                    :DLIS File Name
FILE-ID.     AIT_MainPB1_027PUP                        :File Identification Number
#--------------------------------------------------
~WELL INFORMATION
#MNEM.UNIT      DATA             DESCRIPTION
#---- ------ --------------   -----------------------------
STRT .M      4869.0276       :START DEPTH     
STOP .M      3996.2328       :STOP DEPTH     
STEP .M        -0.1524       :STEP     
NULL .          -999.25      :NULL VALUE
COMP .        INPEX Browse, Ltd.                       :COMPANY
WELL .        ICHTHYS DEEP-1                           :WELL
FLD  .        WA-285-P                                 :FIELD
LOC  .        Datum: GDA94 Spheroid GRS80              :LOCATION
CNTY .        Ocean Bounty                             :COUNTY
STAT .        1:200                                    :STATE
CTRY .        Australia                                :COUNTRY
API  .                                                 :API NUMBER
UWI  .                                                 :UNIQUE WELL ID
DATE .        16-Nov-2003                              :LOG DATE {DD-MMM-YYYY}
SRVC .        Schlumberger                             :SERVICE COMPANY
LATI .DEG     13 51' 47.081" S                         :LATITUDE
LONG .DEG     123 13'  56.110" E                       :LONGITUDE
GDAT .                                                 :GeoDetic Datum
#-----------------------------------------------------------------------------
~PARAMETER INFORMATION
#MNEM.UNIT    VALUE                      DESCRIPTION
#---- -----   --------------------       ------------------------
RUN  .          Suite 3 Run 1            :RUN NUMBER
PDAT .        LAT                        :Permanent Datum
EPD  .M           0.000000               :Elevation of Permanent Datum above Mean Sea Level
EPD  .M           0.000000               :Elevation of tool zero above Mean Sea Level
LMF  .          Drill Floor              :Logging Measured From (Name of Logging Elevation Reference)
APD  .M          25.000000               :Elevation of Depth Reference (LMF) above Permanent Datum
#-----------------------------------------------------------------------------
~CURVE INFORMATION
#MNEM.UNIT   API CODE                                  DESCRIPTION
#---- -----  --------                                  -----------------------
DEPT .M                                                :DEPTH (BOREHOLE) {F10.4}
TENS .LBF                                              :Cable Tension {F13.4}
APLU .V/V                                              :APS Near/Array Uncorrected Limestone Porosity {F13.4}
RHOM .G/C3                                             :LDS Corrected Bulk Density {F13.4}
DRH  .G/C3                                             :LDS Bulk Density Correction {F13.4}
PEFL .                                                 :LDS Long-Spaced Corrected Photoelectric Effect {F13.4}
LCAL .IN                                               :LDS Caliper {F13.4}
HSGR .GAPI                                             :HNGS Standard Gamma Ray {F13.4}
CDF  .N                                                :Calibrated Downhole Force {F13.4}
APLC .V/V                                              :APS Near/Array Corrected Limestone Porosity {F13.4}
ATD2 .IN                                               :Array Induction Two Foot Outer Diameter of Invasion (D2) {F13.4}
ATD1 .IN                                               :Array Induction Two Foot Inner Diameter of Invasion(D1) {F13.4}
AOD2 .IN                                               :Array Induction One Foot Outer Diameter of Invasion (D2) {F13.4}
AOD1 .IN                                               :Array Induction One Foot Inner Diameter of Invasion (D1) {F13.4}
AT90 .OHMM                                             :Array Induction Two Foot Resistivity A90 {F13.4}
AT60 .OHMM                                             :Array Induction Two Foot Resistivity A60 {F13.4}
AT30 .OHMM                                             :Array Induction Two Foot Resistivity A30 {F13.4}
AT20 .OHMM                                             :Array Induction Two Foot Resistivity A20 {F13.4}
AT10 .OHMM                                             :Array Induction Two Foot Resistivity A10 {F13.4}
AO90 .OHMM                                             :Array Induction One Foot Resistivity A90 {F13.4}
AO60 .OHMM                                             :Array Induction One Foot Resistivity A60 {F13.4}
AO30 .OHMM                                             :Array Induction One Foot Resistivity A30 {F13.4}
AO20 .OHMM                                             :Array Induction One Foot Resistivity A20 {F13.4}
AO10 .OHMM                                             :Array Induction One Foot Resistivity A10 {F13.4}
SIGF .CU                                               :APS Formation Capture Cross-Section {F13.4}
ANEC .HZ                                               :APS Near Detector Count Rate {F13.4}
AFEC .HZ                                               :APS Far Detector Count Rate {F13.4}
A1EP .HZ                                               :APS Array-1 Detector Count Rate {F13.4}
A2EP .HZ                                               :APS Array-2 Detector Count Rate {F13.4}
AFTC .HZ                                               :APS Thermal Detector Count Rate {F13.4}
#-----------------------------------------------------------------------------
# 
#     DEPT        TENS         APLU         RHOM         DRH          PEFL         LCAL         HSGR         CDF          APLC         ATD2         ATD1         AOD2         AOD1         AT90         AT60         AT30         AT20         AT10         AO90         AO60         AO30         AO20         AO10         SIGF         ANEC         AFEC         A1EP         A2EP         AFTC
#
~A  
# ...
 4113.7332    5481.0000       0.0981       2.8139      -0.0079    -999.2500       9.4294      44.0329    5950.5933       0.0579      91.2901      27.4772      20.4592      16.5518      49.4226      51.2106      73.6898      74.2379      97.0679      59.9981      60.2223      71.2628      51.4943     115.6588      10.4940    2847.0000    1384.0000    2434.0000    2466.0000    4813.0586
 4113.5808    5509.0000       0.0876       2.8139      -0.0079    -999.2500       9.3575      63.9257    5877.8516       0.0557      66.9831      20.2200      18.7396      17.4120      33.2444      33.8795      37.6325      39.6930      61.5969      45.4614      44.7044      47.7655      25.9048      74.0198      11.7057    2941.0000    1459.0000    2566.0000    2638.0000    4600.4541
 4113.4284    5552.0000       0.1038       2.8139      -0.0079    -999.2500       9.2542      81.3883    5914.2222       0.0708      37.2574      18.3831      25.8340      23.3380      21.5584      21.8488      23.0607      23.8916      37.2044      17.6485      17.8147      19.6022      17.8066      25.6478      12.8573    2836.0000    1383.0000    2580.0000    2522.6667    4265.7515
 4113.2760    5516.0000       0.1373       2.8139      -0.0079    -999.2500       9.0485      79.6018    5914.2222       0.1107      25.8168      19.0858      37.5386      32.3815      29.7799      30.1831      26.4787      27.3822      38.6178      31.4412      31.4768      31.3305      34.6002      28.0917      12.8753    2807.0000    1319.0000    2220.0000    2192.0000    3901.1646
 4113.1236    5514.0000       0.1497       2.8139      -0.0079    -999.2500       9.0524      62.2198    5934.7798       0.1268      25.4889      22.3309      40.5894      33.9747      45.3897      46.1989      47.0957      50.7480      75.1843      48.9546      48.2931      57.8052      49.6797      80.1717      13.0171    2905.0000    1184.0000    2039.0000    2093.0000    2912.4255
 4112.9712    5483.0000       0.1242       2.8139      -0.0079    -999.2500       9.3048      40.4338    6130.8662       0.0981      30.1028      22.3722      32.2553      28.6267      62.1144      62.0995      65.6993      71.4363     105.8317      69.3833      69.5797      63.1528      63.0263     112.9631      11.9637    2872.0000    1121.0000    2338.0000    2433.0000    2774.1045
 4112.8188    5471.0000       0.0894       2.8139      -0.0079    -999.2500       9.3666      29.7646    6056.5430       0.0643      35.4616      17.6228      30.1614      25.7415      59.3680      59.6275      66.7995      72.0736     125.9453      60.0096      59.8993      68.1853      68.4674     201.3858      10.5494    2948.0000    1509.0000    2597.0000    2679.0000    4969.3101
 4112.6664    5577.0000       0.0812       2.8139      -0.0079    -999.2500       9.2952      27.5664    5979.0571       0.0612      40.3814      12.6114      34.1847      22.2020      55.7051      55.8032      65.5535      68.2746     139.7150      57.4955      57.5016      64.8225      61.6528     201.2381      10.0864    2973.0000    1696.0000    2799.0000    2800.0000    5471.3638
 4112.5140    5540.0000       0.0864       2.8139      -0.0079    -999.2500       9.0872      28.6812    6107.1460       0.0705      45.3756      10.4180      42.9669      18.0843      48.3850      48.3494      61.7580      65.6897     145.5520      46.1981      43.2941      64.1740      61.2519     191.5402      10.6185    2980.0000    1473.0000    2668.0000    2599.0000    5571.2627
 4112.3616    5553.0000       0.0922       2.8139      -0.0079    -999.2500       9.0736      28.8932    6039.1484       0.0759      49.9860      10.6018      50.1900      15.9657      47.1022      46.6947      57.1026      62.2595     133.8276      43.4879      41.6443      57.9686      59.3287     168.2272      10.8178    3019.0000    1410.0000    2532.0000    2524.0000    5043.5938
 4112.2092    5585.0000       0.0940       2.8139      -0.0079    -999.2500       9.2130      26.3851    6069.1938       0.0799      55.3742      11.2465      47.8618      20.3801      43.1536      42.7850      54.0578      59.2451     114.7952      38.5273      36.6394      49.7987      56.0226     132.2838      10.6893    2879.0000    1400.0000    2671.0000    2655.0000    5220.3369
 4112.0568    5535.0000       0.0951       2.8139      -0.0079    -999.2500       9.2243      27.8020    6039.1484       0.0811      58.1162      15.4850      42.0210      24.8515      42.4022      41.9655      53.1050      58.8991      96.2133      43.7841      41.2696      51.2065      62.0937     114.8257      10.7130    2925.0000    1386.0000    2501.0000    2628.0000    5174.2305
 4111.9044    5505.0000       0.0974       2.8139      -0.0079    -999.2500       9.0093      29.6977    6051.7988       0.0843      56.2144      18.0982      33.0808      22.6514      43.1969      42.4867      51.1852      56.8947      78.9452      48.2691      45.7554      57.6695      59.8246     103.2657      11.4784    2914.0000    1363.0000    2434.0000    2520.0000    5005.1709
 4111.7520    5551.0000       0.0941       2.8139      -0.0079    -999.2500       8.9848      37.4773    6061.2871       0.0818      50.5770      16.6029      25.1722      18.9623      40.4376      39.7502      43.8728      45.4410      58.8201      55.6097      53.5203      49.5529      41.4208      71.9876      12.2205    2928.0000    1340.0000    2646.0000    2553.0000    5386.8350
 4111.5996    5553.0000       0.0977       2.8139      -0.0079    -999.2500       9.0053      54.9115    6026.4976       0.0865      41.2614      17.4170      22.4026      15.5759      26.9748      26.6198      29.4845      30.8342      39.3783      28.0648      27.0164      28.1242      25.9787      39.5326      12.9258    2992.0000    1294.0000    2619.0000    2606.0000    5192.1606
 4111.4472    5508.0000       0.1226       2.8139      -0.0079    -999.2500       8.9620      78.4644    6165.6558       0.1094      33.9417      18.3772      28.7163      12.8903      20.0382      19.7949      20.2055      21.5235      26.4676      18.3692      17.3296      16.3854      16.3918      22.2465      14.4006    2844.0000    1274.0000    2407.0000    2350.0000    4515.9248
 4111.2948    5528.0000       0.1360       2.8139      -0.0079    -999.2500       8.9344      95.9956    6105.5649       0.1204      36.0250      17.2362      39.7567      10.8884      17.8197      17.6629      18.1319      18.9782      22.9419      17.2611      16.8353      19.2481      19.3151      23.1967      16.6423    2876.0000    1158.0000    2167.0000    2164.0000    3529.7471
 4111.1424    5552.0000       0.1326       2.8139      -0.0079    -999.2500       9.9043      91.2122    6040.7295       0.1089      44.1447      14.0205      46.1318      12.7490      17.4468      17.3682      19.0289      19.5895      23.3971      17.3675      16.9719      19.0345      19.1537      24.7875      17.6414    2937.0000    1074.0000    2300.0000    2425.0000    2963.6555
 4110.9900    5551.0000       0.1302       2.8139      -0.0079    -999.2500      10.5726      79.0032    6020.1724       0.0950      43.9596      13.5824      49.7418      16.0578      16.7205      16.7028      18.2302      18.5868      21.9246      16.3062      15.9562      18.7450      18.1928      22.2770      17.5151    2832.0000    1318.0000    2253.0000    2382.0000    3742.3516
 4110.8376    5537.0000       0.1318       2.8139      -0.0079    -999.2500      10.7739      67.3018    6001.1963       0.0897      32.4152      15.3968      50.3869      26.6612      15.9858      16.0125      16.5522      16.8188      19.5541      14.9281      14.7952      15.7501      16.3372      18.6143      17.0357    2756.0000    1232.0000    2204.0000    2314.0000    3486.2017
 4110.6852    5589.0000       0.1291       2.8139      -0.0079    -999.2500      10.2560      67.0368    5952.1743       0.0899      22.7031      17.0344      61.1043      41.3415      18.9964      19.1151      18.1017      18.5091      21.5978      19.0601      18.5578      17.8000      18.4368      19.9507      17.6610    2965.0000    1137.0000    2286.0000    2354.0000    3509.2551
