~VERSION INFORMATION
VERS.           2.0   :CWLS Log ASCII Standard - VERSION 2.0
WRAP.           NO    :One Line per depth step
PROD.  Schlumberger   :LAS Producer
PROG.  DLIS to ASCII 11C0-305                          :LAS Program name and version
CREA.        2003/11/19 08:45                          :LAS Creation date {YYYY/MM/DD hh:mm}
SOURCE.     UBI_Mainpb1_036PUP.DLIS                    :DLIS File Name
FILE-ID.     UBI_Mainpb1_036PUP                        :File Identification Number
#--------------------------------------------------
~WELL INFORMATION
#MNEM.UNIT      DATA             DESCRIPTION
#---- ------ --------------   -----------------------------
STRT .M      4859.4264       :START DEPTH     
STOP .M      4016.0448       :STOP DEPTH     
STEP .M        -0.1524       :STEP     
NULL .          -999.25      :NULL VALUE
COMP .        INPEX Browse, Ltd.                       :COMPANY
WELL .        ICHTHYS DEEP-1                           :WELL
FLD  .        WA-285-P                                 :FIELD
LOC  .        Datum: GDA94 Spheroid GRS80              :LOCATION
CNTY .        Ocean Bounty                             :COUNTY
STAT .        1:200                                    :STATE
CTRY .        Australia                                :COUNTRY
API  .                                                 :API NUMBER
UWI  .                                                 :UNIQUE WELL ID
DATE .        16-Nov-2003                              :LOG DATE {DD-MMM-YYYY}
SRVC .        Schlumberger                             :SERVICE COMPANY
LATI .DEG     13 51' 47.081" S                         :LATITUDE
LONG .DEG     123 13'  56.110" E                       :LONGITUDE
GDAT .                                                 :GeoDetic Datum
#-----------------------------------------------------------------------------
~PARAMETER INFORMATION
#MNEM.UNIT    VALUE                      DESCRIPTION
#---- -----   --------------------       ------------------------
RUN  .          Suite 3 Run 1            :RUN NUMBER
PDAT .        LAT                        :Permanent Datum
EPD  .M           0.000000               :Elevation of Permanent Datum above Mean Sea Level
EPD  .M           0.000000               :Elevation of tool zero above Mean Sea Level
LMF  .          Drill Floor              :Logging Measured From (Name of Logging Elevation Reference)
APD  .M          25.000000               :Elevation of Depth Reference (LMF) above Permanent Datum
#-----------------------------------------------------------------------------
~CURVE INFORMATION
#MNEM.UNIT   API CODE                                  DESCRIPTION
#---- -----  --------                                  -----------------------
DEPT .M                                                :DEPTH (BOREHOLE) {F10.4}
LCAL .IN                                               :LDS Caliper {F13.4}
GR   .GAPI                                             :Gamma Ray {F13.4}
#-----------------------------------------------------------------------------
# 
#     DEPT        LCAL         GR
#
~A  
# ...
 4198.0104       8.5064      25.6783
 4197.8580       8.5067      24.9499
 4197.7056       8.5062      25.0447
 4197.5532       8.5062      25.3788
 4197.4008       8.5075      27.2425
 4197.2484       8.5073      28.4093
 4197.0960       8.5075      28.2143
 4196.9436       8.5057      26.2873
 4196.7912       8.6092      25.0038
 4196.6388       8.8179      23.3619
 4196.4864       8.9417      24.0597
 4196.3340       9.1751      26.2944
 4196.1816       9.4098      29.7649
 4196.0292       9.3287      35.3731
 4195.8768       9.3051      39.8161
 4195.7244       9.0745      39.1210
 4195.5720       9.0603      35.2704
 4195.4196       9.4568      30.1696
 4195.2672       9.5917      30.3947
 4195.1148       9.5589      29.5779
 4194.9624       9.4395      29.8750
 4194.8100       9.5986      30.0059
 4194.6576       9.7571      30.4909
 4194.5052       9.6046      31.1839
 4194.3528       9.6919      34.2651
 4194.2004       9.6973      36.9023
 4194.0480       9.8212      38.3609
 4193.8956       9.7673      36.6239
 4193.7432       9.8307      34.7853
 4193.5908       9.8559      33.8359
 4193.4384       9.5699      36.2730
 4193.2860       9.4164      39.0698
 4193.1336       9.5692      42.7365
 4192.9812       8.9331      40.9279
 4192.8288       8.8214      38.2694
 4192.6764       8.7887      34.4069
 4192.5240       8.7398      33.6651
 4192.3716       8.7151      35.8605
 4192.2192       8.8028      42.4898
 4192.0668       8.7678      49.9092
 4191.9144       8.7568      53.3477
 4191.7620       9.4275      51.0618
 4191.6096       9.8103      44.2092
 4191.4572       9.7314      37.7252
 4191.3048       9.6913      32.8350
 4191.1524       9.7038      30.9647
 4191.0000       9.9230      31.3048
 4190.8476       9.8819      32.2276
 4190.6952       9.6619      35.7810
 4190.5428       9.4616      36.9039
 4190.3904       9.3788      37.1443
 4190.2380      10.0725      31.9607
 4190.0856      10.5410      29.7510
 4189.9332      10.8078      29.1911
 4189.7808      11.0311      29.9145
 4189.6284      11.5656      28.7910
 4189.4760      11.7894      25.9123
 4189.3236      11.5301      24.4021
 4189.1712      11.4663      24.1325
 4189.0188      11.3511      26.9475
 4188.8664      11.1675      31.0014
 4188.7140      10.8905      36.4852
 4188.5616      10.3935      44.1134
 4188.4092       9.8928      50.7511
 4188.2568       9.5149      50.9195
 4188.1044       9.5402      44.1553
 4187.9520       9.7522      37.4504
 4187.7996      10.3120      35.6531
 4187.6472      10.5533      37.8772
 4187.4948      10.7474      41.9117
 4187.3424      10.7089      43.4173
 4187.1900      10.3406      43.1733
 4187.0376       9.9458      42.2731
 4186.8852       9.8883      43.9651
 4186.7328       9.8739      39.8811
 4186.5804       9.8631      34.8777
 4186.4280       9.3596      28.6387
 4186.2756       9.4362      27.8329
 4186.1232       9.4673      27.6104
 4185.9708       9.4879      27.3151
 4185.8184       9.8478      26.9307
 4185.6660       9.7716      26.7557
 4185.5136       9.6362      25.8806
 4185.3612       9.4643      26.1691
 4185.2088       9.2576      27.1132
 4185.0564       9.0188      28.7796
 4184.9040       8.8034      28.5035
 4184.7516       8.5973      28.0226
 4184.5992       8.5894      27.1146
 4184.4468       8.9543      27.7673
 4184.2944       9.1210      28.6810
 4184.1420       9.1164      29.2861
 4183.9896       9.1875      31.0735
 4183.8372       9.1134      30.8812
 4183.6848       9.1063      32.1138
 4183.5324       8.7899      28.7439
 4183.3800       8.5646      28.6095
 4183.2276       8.5635      28.5220
 4183.0752       8.5497      30.6297
 4182.9228       8.5364      30.1629
 4182.7704       8.5373      29.5845
 4182.6180       8.5367      27.2508
 4182.4656       8.5336      27.0705
 4182.3132       8.5306      26.7446
 4182.1608       8.5307      28.2968
 4182.0084       8.5468      27.2994
 4181.8560       8.5768      26.7451
 4181.7036       8.5762      28.0516
 4181.5512       8.5756      29.7395
 4181.3988       8.5462      31.3731
 4181.2464       8.5372      36.9156
 4181.0940       8.5376      42.5315
 4180.9416       8.5377      44.1722
 4180.7892       8.5383      40.2084
 4180.6368       8.6198      33.7105
 4180.4844       9.0289      33.1695
 4180.3320       9.2318      31.6668
 4180.1796       9.2026      33.7390
 4180.0272       8.8754      33.8645
 4179.8748       8.7736      33.3201
 4179.7224       9.1153      30.4863
 4179.5700       9.1211      28.4372
 4179.4176       9.1780      27.4171
 4179.2652       9.2498      30.0534
 4179.1128       9.2167      30.6037
 4178.9604       9.1462      30.6374
 4178.8080       8.7715      30.4182
 4178.6556       8.8529      29.7582
 4178.5032       8.8088      32.4966
 4178.3508       8.6850      32.3216
 4178.1984       8.6288      35.2387
 4178.0460       8.6287      35.6404
 4177.8936       8.6174      35.5821
 4177.7412       8.6104      36.0488
 4177.5888       8.6087      38.4877
 4177.4364       8.5974      40.1030
 4177.2840       8.5970      39.2933
 4177.1316       8.5829      35.4609
 4176.9792       8.5713      33.4372
 4176.8268       8.5737      32.3799
 4176.6744       8.5984      30.3380
 4176.5220       8.5971      30.0462
 4176.3696       8.5978      28.2376
 4176.2172       8.5974      30.0827
 4176.0648       8.5983      29.2207
 4175.9124       8.5956      28.0539
 4175.7600       8.5781      27.4941
 4175.6076       8.5755      27.1892
 4175.4552       8.5648      28.3561
 4175.3028       8.5641      28.9761
 4175.1504       8.5644      30.7847
 4174.9980       8.5635      30.8253
 4174.8456       8.5646      29.5873
 4174.6932       8.5751      27.2518
 4174.5408       8.5942      27.6124
 4174.3884       8.6036      28.0536
 4174.2360       8.6043      28.5223
 4174.0836       8.6031      27.4208
 4173.9312       8.6042      26.5457
 4173.7788       8.6040      27.1875
 4173.6264       8.5905      26.6659
 4173.4740       8.5649      26.3560
 4173.3216       8.5644      26.0774
 4173.1692       8.5631      27.2796
 4173.0168       8.5635      28.3480
 4172.8644       8.5696      27.3430
 4172.7120       8.5899      28.2960
 4172.5596       8.6037      26.9424
 4172.4072       8.6050      27.8176
 4172.2548       8.6039      28.0668
 4172.1024       8.6048      28.8479
 4171.9500       8.6060      28.3119
 4171.7976       8.6073      26.2681
 4171.6452       8.6043      26.0521
 4171.4928       8.6240      27.2299
 4171.3404       8.6366      27.9959
 4171.1880       8.6382      27.2745
 4171.0356       8.6348      26.1077
 4170.8832       8.6326      24.9209
 4170.7308       8.6227      26.1062
 4170.5784       8.5995      27.0811
 4170.4260       8.5964      27.8024
 4170.2736       8.5978      28.6609
 4170.1212       8.5965      27.1609
 4169.9688       8.5979      26.4378
 4169.8164       8.6166      25.2621
 4169.6640       8.6378      25.8456
 4169.5116       8.6365      27.1698
 4169.3592       8.6377      25.8753
 4169.2068       8.6187      24.2963
 4169.0544       8.6043      23.6351
 4168.9020       8.6189      23.2959
 4168.7496       8.6323      24.6610
 4168.5972       8.6311      23.9981
 4168.4448       8.6312      24.8148
 4168.2924       8.6249      27.9406
 4168.1400       8.6340      40.0246
 4167.9876       8.6568      47.8534
 4167.8352       8.6637      46.4980
 4167.6828       8.7034      33.4878
 4167.5304       8.8251      24.4922
 4167.3780       8.8951      22.4814
 4167.2256       8.9616      25.2162
 4167.0732       8.7192      27.7744
 4166.9208       8.6296      27.2935
 4166.7684       8.6268      24.2244
 4166.6160       9.1689      23.1811
 4166.4636       9.9948      27.9524
 4166.3112      10.2002      35.7067
 4166.1588       9.9553      37.7116
 4166.0064       8.9706      34.7437
 4165.8540       8.6502      29.3001
 4165.7016       8.6286      26.1143
 4165.5492       8.6461      24.4312
 4165.3968       8.8125      24.3765
 4165.2444       8.9478      26.1973
 4165.0920       8.9469      27.5629
