~VERSION INFORMATION
VERS.           2.0   :CWLS Log ASCII Standard - VERSION 2.0
WRAP.           NO    :One Line per depth step
PROD.  Schlumberger   :LAS Producer
PROG.  DLIS to ASCII 11C0-305                          :LAS Program name and version
CREA.        2003/11/19 08:45                          :LAS Creation date {YYYY/MM/DD hh:mm}
SOURCE.     UBI_Mainpb1_036PUP.DLIS                    :DLIS File Name
FILE-ID.     UBI_Mainpb1_036PUP                        :File Identification Number
#--------------------------------------------------
~WELL INFORMATION
#MNEM.UNIT      DATA             DESCRIPTION
#---- ------ --------------   -----------------------------
STRT .M      4859.4264       :START DEPTH     
STOP .M      4016.0448       :STOP DEPTH     
STEP .M        -0.1524       :STEP     
NULL .          -999.25      :NULL VALUE
COMP .        INPEX Browse, Ltd.                       :COMPANY
WELL .        ICHTHYS DEEP-1                           :WELL
FLD  .        WA-285-P                                 :FIELD
LOC  .        Datum: GDA94 Spheroid GRS80              :LOCATION
CNTY .        Ocean Bounty                             :COUNTY
STAT .        1:200                                    :STATE
CTRY .        Australia                                :COUNTRY
API  .                                                 :API NUMBER
UWI  .                                                 :UNIQUE WELL ID
DATE .        16-Nov-2003                              :LOG DATE {DD-MMM-YYYY}
SRVC .        Schlumberger                             :SERVICE COMPANY
LATI .DEG     13 51' 47.081" S                         :LATITUDE
LONG .DEG     123 13'  56.110" E                       :LONGITUDE
GDAT .                                                 :GeoDetic Datum
#-----------------------------------------------------------------------------
~PARAMETER INFORMATION
#MNEM.UNIT    VALUE                      DESCRIPTION
#---- -----   --------------------       ------------------------
RUN  .          Suite 3 Run 1            :RUN NUMBER
PDAT .        LAT                        :Permanent Datum
EPD  .M           0.000000               :Elevation of Permanent Datum above Mean Sea Level
EPD  .M           0.000000               :Elevation of tool zero above Mean Sea Level
LMF  .          Drill Floor              :Logging Measured From (Name of Logging Elevation Reference)
APD  .M          25.000000               :Elevation of Depth Reference (LMF) above Permanent Datum
#-----------------------------------------------------------------------------
~CURVE INFORMATION
#MNEM.UNIT   API CODE                                  DESCRIPTION
#---- -----  --------                                  -----------------------
DEPT .M                                                :DEPTH (BOREHOLE) {F10.4}
LCAL .IN                                               :LDS Caliper {F13.4}
GR   .GAPI                                             :Gamma Ray {F13.4}
#-----------------------------------------------------------------------------
# 
#     DEPT        LCAL         GR
#
~A  
# ...
 4627.9308       8.5036      57.3560
 4627.7784       8.5001      59.4427
 4627.6260       8.4966      62.2531
 4627.4736       8.4972      60.3028
 4627.3212       8.4963      58.2058
 4627.1688       8.5060      54.4085
 4627.0164       8.8511      55.1012
 4626.8640       8.8842      54.9312
 4626.7116       8.6399      55.2713
 4626.5592       8.5281      53.8418
 4626.4068       8.5192      56.0521
 4626.2544       8.5046      54.8319
 4626.1020       8.4987      54.5984
 4625.9496       8.5013      52.6886
 4625.7972       8.4991      53.0970
 4625.6448       8.5005      53.5089
 4625.4924       8.4988      53.2650
 4625.3400       8.5170      53.0000
 4625.1876       8.5354      53.7851
 4625.0352       8.5744      52.7366
 4624.8828       8.6284      51.0930
 4624.7304       8.8037      48.9077
 4624.5780       9.2289      48.4568
 4624.4256       9.5172      50.2488
 4624.2732      10.0556      51.8983
 4624.1208      10.4790      54.4495
 4623.9684      10.1031      56.1147
 4623.8160       9.6143      53.5901
 4623.6636       9.7335      50.9513
 4623.5112      10.5818      48.9110
 4623.3588      10.5653      48.7457
 4623.2064      10.4918      48.9724
 4623.0540      10.3930      48.0672
 4622.9016      10.3163      48.2892
 4622.7492       9.9473      47.9591
 4622.5968      10.2536      52.0948
 4622.4444      10.2866      54.2021
 4622.2920      10.1407      56.8576
 4622.1396       9.9206      57.5858
 4621.9872       9.6747      58.5723
 4621.8348       9.2619      59.0090
 4621.6824       8.9064      59.4143
 4621.5300       8.7361      58.5875
 4621.3776       8.8117      59.3460
 4621.2252       9.0186      56.4461
 4621.0728       9.2742      51.6720
 4620.9204       9.3048      43.2707
 4620.7680       9.1734      35.0055
 4620.6156       9.2824      30.4230
 4620.4632       9.5061      28.3120
 4620.3108       9.6389      28.5525
 4620.1584       9.5421      28.7010
 4620.0060       9.5735      28.6649
 4619.8536       9.4689      30.6415
 4619.7012       9.2476      33.8987
 4619.5488       9.2673      37.4692
 4619.3964       9.6854      40.2697
 4619.2440       9.6787      42.8767
 4619.0916       9.6751      46.1639
 4618.9392       9.5763      48.0892
 4618.7868       9.0708      49.7328
 4618.6344       8.8688      48.7560
 4618.4820       8.8612      51.3230
 4618.3296       8.8486      56.1697
 4618.1772       8.8812      61.3851
 4618.0248       8.7805      62.0941
 4617.8724       8.7039      60.8919
 4617.7200       8.6248      62.4908
 4617.5676       8.5328      63.2988
 4617.4152       8.5312      61.1846
 4617.2628       8.6369      59.9377
 4617.1104       8.7775      59.3960
 4616.9580       8.7747      64.0684
 4616.8056       8.7147      63.7283
 4616.6532       8.6135      64.6351
 4616.5008       8.5935      59.9627
 4616.3484       8.6769      57.9224
 4616.1960       8.9459      55.6073
 4616.0436       8.9563      56.8198
 4615.8912       9.0693      57.5257
 4615.7388       9.1536      63.1513
 4615.5864       8.9802      71.8037
 4615.4340       9.2571      86.9670
 4615.2816      10.7690      96.8618
 4615.1292      11.7502     102.9295
 4614.9768      11.4522      99.4723
 4614.8244      11.7287      96.7535
 4614.6720      11.6766      91.9694
 4614.5196      11.5730      86.7553
 4614.3672      10.0405      78.7623
 4614.2148       9.1965      63.4766
 4614.0624       8.5519      44.3615
 4613.9100       8.5692      26.1587
 4613.7576       8.4920      18.1074
 4613.6052       8.4659      18.5196
 4613.4528       8.4204      20.8533
 4613.3004       8.4562      24.3138
 4613.1480       8.5851      31.6250
 4612.9956       8.5314      40.6680
 4612.8432       8.5315      49.9262
 4612.6908       8.5312      53.4435
 4612.5384       8.5321      57.3241
 4612.3860       8.5314      55.8072
 4612.2336       8.5505      55.6269
 4612.0812       8.7636      47.5120
 4611.9288       9.0293      44.2481
 4611.7764       9.5219      43.0848
 4611.6240      10.3350      44.8104
 4611.4716      10.9091      46.3973
 4611.3192      10.8858      44.6470
 4611.1668      11.2694      45.3471
 4611.0144      11.1911      45.6822
 4610.8620      11.3047      48.2492
 4610.7096      11.0010      49.7552
 4610.5572      10.9551      48.7881
 4610.4048      10.2727      46.3696
 4610.2524       9.2276      45.0058
 4610.1000       8.6896      45.9729
 4609.9476       8.4980      46.5828
 4609.7952       8.4938      47.0274
 4609.6428       8.4775      49.0110
 4609.4904       8.4733      50.5863
 4609.3380       8.4723      54.3835
 4609.1856       8.4726      53.4817
 4609.0332       8.4893      53.2183
 4608.8808       8.4989      51.9990
 4608.7284       8.5225      51.5730
 4608.5760       8.6375      52.3562
 4608.4236       8.6049      52.5966
 4608.2712       8.5651      55.0011
 4608.1188       8.5605      58.5476
 4607.9664       8.6558      59.1681
 4607.8140       8.6575      58.2081
 4607.6616       8.6180      57.4490
 4607.5092       8.5237      58.8492
 4607.3568       8.5556      61.5913
 4607.2044       8.5094      64.2351
 4607.0520       8.5022      65.5805
 4606.8996       8.6034      64.0125
 4606.7472       8.6533      61.4272
 4606.5948       8.6929      58.9026
 4606.4424       8.6619      60.7322
 4606.2900       8.5741      60.9838
 4606.1376       8.5560      62.0658
 4605.9852       8.5778      61.6708
 4605.8328       8.5252      62.9543
 4605.6804       8.5063      61.9925
 4605.5280       8.5342      58.1003
 4605.3756       8.7891      49.2322
 4605.2232      10.1018      43.6419
 4605.0708      11.7832      46.1259
 4604.9184      12.1423      53.9548
 4604.7660      12.0321      67.4884
 4604.6136      11.8371      82.7565
 4604.4612      11.0744      85.4859
 4604.3088      10.5550      75.5093
 4604.1564      10.6451      59.8926
 4604.0040      10.4252      54.8186
 4603.8516       9.8960      54.8853
 4603.6992       9.4262      63.4266
 4603.5468       8.6124      71.9446
 4603.3944       8.5852      76.1352
 4603.2420       8.7072      62.1719
 4603.0896       8.9193      47.8780
 4602.9372       9.3024      49.4408
 4602.7848       9.0960      71.2008
 4602.6324       8.8775      89.4443
 4602.4800       8.9185      89.2251
 4602.3276       8.6881      70.9515
 4602.1752       8.5718      56.7603
 4602.0228       8.5611      50.6344
 4601.8704       8.5596      49.8529
 4601.7180       8.5572      43.1752
 4601.5656       8.5257      33.6982
 4601.4132       8.5238      27.5068
 4601.2608       8.5059      26.7229
 4601.1084       8.5188      28.9070
 4600.9560       8.5809      28.5040
 4600.8036       8.5328      28.4570
 4600.6512       8.4958      28.5153
 4600.4988       8.4893      30.3240
 4600.3464       8.4817      30.2381
 4600.1940       8.4856      30.8798
 4600.0416       8.4837      29.2463
 4599.8892       8.4823      30.3381
 4599.7368       8.4796      31.4466
 4599.5844       8.4808      32.6965
 4599.4320       8.4789      33.0130
 4599.2796       8.4800      29.8260
 4599.1272       8.4940      30.0064
 4598.9748       8.5021      31.9900
 4598.8224       8.4953      41.6565
 4598.6700       8.4993      41.9571
 4598.5176       8.4909      36.1564
 4598.3652       8.4722      24.5311
 4598.2128       8.4731      19.0009
 4598.0604       8.4605      17.4840
 4597.9080       8.4670      18.9542
 4597.7556       8.4539      24.9706
 4597.6032       8.4470      36.5807
 4597.4508       8.4721      51.7607
 4597.2984       8.5159      60.6518
 4597.1460       8.4722      57.9821
 4596.9936       8.4934      42.5582
 4596.8412       8.5073      28.4924
 4596.6888       8.5313      19.7852
 4596.5364       8.5453      17.2871
 4596.3840       8.6198      22.1118
 4596.2316       8.5523      29.2879
 4596.0792       8.5635      33.7803
 4595.9268       8.5599      27.7710
 4595.7744       8.5159      19.8647
 4595.6220       8.4994      14.8049
 4595.4696       8.4978      15.4503
 4595.3172       8.4751      17.9148
 4595.1648       8.4736      30.9588
 4595.0124       8.4727      56.8044
