~VERSION INFORMATION
VERS.           2.0   :CWLS Log ASCII Standard - VERSION 2.0
WRAP.           NO    :One Line per depth step
PROD.  Schlumberger   :LAS Producer
PROG.  DLIS to ASCII 11C0-305                          :LAS Program name and version
CREA.        2003/11/03 06:15                          :LAS Creation date {YYYY/MM/DD hh:mm}
SOURCE.     AIT_mainPB1_064PUP.DLIS                    :DLIS File Name
FILE-ID.     AIT_mainPB1_064PUP                        :File Identification Number
#--------------------------------------------------
~WELL INFORMATION
#MNEM.UNIT      DATA             DESCRIPTION
#---- ------ --------------   -----------------------------
STRT .M      4280.0016       :START DEPTH     
STOP .M      3948.9888       :STOP DEPTH     
STEP .M        -0.1524       :STEP     
NULL .          -999.25      :NULL VALUE
COMP .        INPEX Browse, Ltd.                       :COMPANY
WELL .        ICHTHYS DEEP-1                           :WELL
FLD  .        WA-285-P                                 :FIELD
LOC  .        Datum: GDA94 Spheroid GRS80              :LOCATION
CNTY .        Ocean Bounty                             :COUNTY
STAT .        1:200                                    :STATE
CTRY .        Australia                                :COUNTRY
API  .                                                 :API NUMBER
UWI  .                                                 :UNIQUE WELL ID
DATE .        03-Nov-2003                              :LOG DATE {DD-MMM-YYYY}
SRVC .        Schlumberger                             :SERVICE COMPANY
LATI .DEG     13 51' 47.081" S                         :LATITUDE
LONG .DEG     123 13'  56.110" E                       :LONGITUDE
GDAT .                                                 :GeoDetic Datum
#-----------------------------------------------------------------------------
~PARAMETER INFORMATION
#MNEM.UNIT    VALUE                      DESCRIPTION
#---- -----   --------------------       ------------------------
RUN  .          Suite 2 Run 1            :RUN NUMBER
PDAT .        LAT                        :Permanent Datum
EPD  .M           0.000000               :Elevation of Permanent Datum above Mean Sea Level
EPD  .M           0.000000               :Elevation of tool zero above Mean Sea Level
LMF  .          Drill Floor              :Logging Measured From (Name of Logging Elevation Reference)
APD  .M          25.000000               :Elevation of Depth Reference (LMF) above Permanent Datum
#-----------------------------------------------------------------------------
~CURVE INFORMATION
#MNEM.UNIT   API CODE                                  DESCRIPTION
#---- -----  --------                                  -----------------------
DEPT .M                                                :DEPTH (BOREHOLE) {F10.4}
TENS .LBF                                              :Cable Tension {F13.4}
APLU .V/V                                              :APS Near/Array Uncorrected Limestone Porosity {F13.4}
RHOM .G/C3                                             :LDS Corrected Bulk Density {F13.4}
DRH  .G/C3                                             :LDS Bulk Density Correction {F13.4}
PEFL .                                                 :LDS Long-Spaced Corrected Photoelectric Effect {F13.4}
LCAL .IN                                               :LDS Caliper {F13.4}
HSGR .GAPI                                             :HNGS Standard Gamma Ray {F13.4}
CDF  .LBF                                              :Calibrated Downhole Force {F13.4}
APLC .V/V                                              :APS Near/Array Corrected Limestone Porosity {F13.4}
ATD2 .IN                                               :Array Induction Two Foot Outer Diameter of Invasion (D2) {F13.4}
ATD1 .IN                                               :Array Induction Two Foot Inner Diameter of Invasion(D1) {F13.4}
AOD2 .IN                                               :Array Induction One Foot Outer Diameter of Invasion (D2) {F13.4}
AOD1 .IN                                               :Array Induction One Foot Inner Diameter of Invasion (D1) {F13.4}
AT90 .OHMM                                             :Array Induction Two Foot Resistivity A90 {F13.4}
AT60 .OHMM                                             :Array Induction Two Foot Resistivity A60 {F13.4}
AT30 .OHMM                                             :Array Induction Two Foot Resistivity A30 {F13.4}
AT20 .OHMM                                             :Array Induction Two Foot Resistivity A20 {F13.4}
AT10 .OHMM                                             :Array Induction Two Foot Resistivity A10 {F13.4}
AO90 .OHMM                                             :Array Induction One Foot Resistivity A90 {F13.4}
AO60 .OHMM                                             :Array Induction One Foot Resistivity A60 {F13.4}
AO30 .OHMM                                             :Array Induction One Foot Resistivity A30 {F13.4}
AO20 .OHMM                                             :Array Induction One Foot Resistivity A20 {F13.4}
AO10 .OHMM                                             :Array Induction One Foot Resistivity A10 {F13.4}
SIGF .CU                                               :APS Formation Capture Cross-Section {F13.4}
ANEC .HZ                                               :APS Near Detector Count Rate {F13.4}
AFEC .HZ                                               :APS Far Detector Count Rate {F13.4}
A1EP .HZ                                               :APS Array-1 Detector Count Rate {F13.4}
A2EP .HZ                                               :APS Array-2 Detector Count Rate {F13.4}
AFTC .HZ                                               :APS Thermal Detector Count Rate {F13.4}
#-----------------------------------------------------------------------------
# 
#     DEPT        TENS         APLU         RHOM         DRH          PEFL         LCAL         HSGR         CDF          APLC         ATD2         ATD1         AOD2         AOD1         AT90         AT60         AT30         AT20         AT10         AO90         AO60         AO30         AO20         AO10         SIGF         ANEC         AFEC         A1EP         A2EP         AFTC
#
~A  
# ...
 4126.3824    5628.0000       0.2057       2.1535       0.0881       8.6406      11.3847      65.7975    1314.6390       0.1348      10.8531      10.8531      41.0800      34.9060      22.3290      23.3247      21.7432      21.2790      22.3611      21.7534      22.5853      21.3641      20.9135      22.1932      20.2809    3017.6001    1050.0000    2193.6001    2087.2000    3140.3992
 4126.2300    5630.0000       0.1922       2.1175       0.0960       9.9067      11.1037      69.5126    1307.8845       0.0961      11.1005      11.1005      25.9192      17.1145      21.3031      22.1162      20.9170      20.1850      21.6404      19.5655      19.8446      20.6792      19.2482      24.1942      20.1417    2969.3333    1104.0000    2038.6666    2165.3333    3501.5706
 4126.0776    5635.0000       0.1975       2.1424       0.1243      11.9208      11.1349      79.0731    1320.3270       0.1044      11.1587      11.1587      22.9005      12.7217      18.2511      18.8171      17.7719      17.4082      19.1461      15.6274      15.8276      17.2094      16.4948      18.9967      21.4892    2934.0000    1069.0000    2133.0000    2169.0000    3122.4688
 4125.9252    5604.0000       0.2016       2.2710       0.1988      11.0581      11.2617      85.1405    1320.6825       0.1079      11.8141      11.8016      20.9306      13.5975      15.9255      16.3509      16.3500      16.3932      17.2638      15.5101      15.7742      15.5396      16.1224      15.8738      20.5283    2905.0000    1069.0000    2148.0000    2044.0000    3096.8535
 4125.7728    5516.0000       0.1966       2.3499       0.2130       9.9905      11.0659      81.0867    1352.6775       0.1137      17.3773      17.3019      30.2091      19.6499      19.8868      20.5122      20.6877      20.5467      21.1690      20.1918      20.7489      20.4426      21.5155      20.4586      19.8450    3132.0000     950.0000    2127.0000    2125.0000    3155.7681
 4125.6204    5545.0000       0.1778       2.3275       0.1914       8.4073      11.2269      70.1883    1318.1941       0.0862      32.1591      31.9373      55.6451      29.6613      25.6603      26.4924      26.9875      26.6319      26.7123      28.1777      29.0218      30.9283      34.8080      35.1301      17.0106    3166.0000    1027.0000    2234.0000    2267.0000    3224.9287
 4125.4680    5552.0000       0.1754       2.1966       0.1408       9.0985      11.2547      63.8828    1303.2631       0.0874      41.4635      41.1413      73.1732      35.8002      20.7929      21.6368      23.8454      24.1132      24.3495      19.3275      19.8051      22.9184      22.4045      24.5472      16.0742    3075.0000    1158.0000    2292.0000    2302.0000    3509.2551
 4125.3156    5559.0000       0.1736       2.0486       0.0734      11.1125      11.0046      63.9055    1328.1481       0.0788      31.8674      31.6456      56.6178      30.8624      19.7319      20.2598      21.6635      20.6831      22.0611      19.9160      20.0278      21.8098      21.0787      22.5230      14.7418    2918.0000    1173.0000    2196.0000    2292.0000    4008.7478
 4125.1632    5566.0000       0.1777       2.0451       0.0295      10.3693      10.4734      79.3226    1297.5751       0.0973      16.6161      16.5407      29.8195      21.0430      19.3692      19.8862      20.4391      19.9669      19.3406      23.4223      23.2822      25.0343      18.2247      23.9134      17.1455    3101.0000    1193.0000    2244.0000    2201.0000    3773.0896
 4125.0108    5597.0000       0.1793       2.1612       0.0100       8.1119       9.2678      95.6415    1302.1965       0.1066      11.1195      11.0615      40.8543      39.3471      14.8088      15.0563      15.6476      15.6967      14.8269      13.0137      13.1194      13.0992      13.2443      13.1989      15.6556    3029.0000    1061.0000    2164.0000    2178.0000    3373.4956
 4124.8584    5559.0000       0.1816       2.3907       0.0220       6.0837       9.1131     104.4902    1304.6851       0.1233      15.3989      14.7533     100.7968     100.6330      11.7528      11.9201      12.2320      12.4353      12.4888      10.1238      10.1462      10.8630      10.8951      11.1351      13.5847    2995.0000     989.0000    2262.0000    2239.0000    3150.6450
 4124.7060    5598.0000       0.1565       2.4758       0.0126       4.2379       9.0774      90.0445    1305.7516       0.1096      39.2930      34.8937     161.2456     160.8978      14.2872      14.4981      15.7203      16.1374      16.1564      15.7916      15.8091      16.6382      20.1042      15.9417      12.8415    3129.0000    1236.0000    2356.0000    2310.0000    2881.6875
 4124.5536    5591.0000       0.1283       2.4636       0.0094       3.4017       8.9890      64.8651    1321.7490       0.0935      78.2538      61.9044     160.0432     159.3796      24.2178      24.7685      27.2252      28.8527      29.4204      32.1439      32.3211      36.1033      38.2522      31.4536      11.8828    3228.0000    1429.0000    2594.0000    2560.0000    3657.8223
 4124.4012    5569.0000       0.1009       2.4512      -0.0077       3.0190       8.9408      43.2213    1315.7056       0.0727     105.2070      65.5606     115.1096     112.4155      36.0566      36.5022      45.3135      45.0521      45.7751      46.5210      46.5762      43.4787      53.5649      45.1396      11.0017    3299.0000    1642.0000    2904.0000    2854.0000    5714.7061
 4124.2488    5570.0000       0.0856       2.4484      -0.0090       3.0063       8.8848      31.0310    1319.2605       0.0627      97.1408      34.4802      82.7548      71.6526      45.0527      45.3640      50.0668      49.6627      57.2337      39.3665      39.4221      53.0686      65.9744      71.5857      10.8521    3441.0000    1725.0000    3072.0000    3003.0000    6147.6006
 4124.0964    5558.0000       0.0811       2.4488      -0.0138       3.0514       8.8600      26.0936    1322.8156       0.0605      82.8232      15.5803      66.7442      37.3468      45.2253      46.9420      53.4417      57.6796      72.2840      44.4780      43.6637      55.4114      63.1324     100.8611      10.3454    3335.0000    1727.0000    3017.0000    3150.0000    6324.3438
 4123.9440    5543.0000       0.0809       2.4490      -0.0132       2.8639       8.8382      26.0258    1319.9716       0.0632      76.0234      11.7799      68.0384      19.1312      41.8136      42.3469      51.7008      59.8660      90.3220      35.4034      35.3709      55.2989      57.0559     130.0842      10.0371    3396.0000    1712.0000    3147.0000    3039.0000    6188.5840
 4123.7916    5493.0000       0.0800       2.4405      -0.0152       2.8108       8.8382      25.9326    1304.3296       0.0626      69.0407      11.2597      67.2907      10.6912      38.2501      39.4071      47.8296      56.4525     102.8030      34.5628      35.5112      50.3340      54.9082     137.3124      10.0187    3407.0000    1785.0000    2988.0000    3072.0000    6209.0762
 4123.6392    5467.0000       0.0845       2.4465      -0.0110       2.7844       8.8382      27.3274    1296.1531       0.0670      62.2846      11.0796      60.7884       9.6371      35.5601      36.6674      45.2001      53.6362     113.7724      35.7768      36.1215      47.0413      51.3080     131.2708      10.1938    3276.0000    1729.0000    3038.0000    2919.0000    6170.6538
 4123.4868    5503.0000       0.0914       2.4417      -0.0121       2.8439       8.9140      27.1031    1307.8845       0.0716      58.1838      10.9343      57.1239       9.4722      34.8734      36.1308      43.8196      52.3656     124.7831      35.1778      37.4382      44.2116      53.9980     119.6061      10.0873    3205.0000    1701.0000    2934.0000    2899.0000    5899.1348
 4123.3344    5479.0000       0.0952       2.4459      -0.0105       2.7027       8.9561      26.2587    1332.0586       0.0754      56.4206       9.8647      55.9750      10.0328      35.1736      36.7511      44.5879      53.2987     126.8399      37.2054      38.1164      46.9837      53.8624     120.4979      10.6839    3226.0000    1532.0000    2814.0000    2799.0000    5999.0332
