~VERSION INFORMATION
VERS.           2.0   :CWLS Log ASCII Standard - VERSION 2.0
WRAP.           NO    :One Line per depth step
PROD.  Schlumberger   :LAS Producer
PROG.  DLIS to ASCII 11C0-305                          :LAS Program name and version
CREA.        2003/11/16 09:47                          :LAS Creation date {YYYY/MM/DD hh:mm}
SOURCE.     AIT_MainPB1_027PUP.DLIS                    :DLIS File Name
FILE-ID.     AIT_MainPB1_027PUP                        :File Identification Number
#--------------------------------------------------
~WELL INFORMATION
#MNEM.UNIT      DATA             DESCRIPTION
#---- ------ --------------   -----------------------------
STRT .M      4869.0276       :START DEPTH     
STOP .M      3996.2328       :STOP DEPTH     
STEP .M        -0.1524       :STEP     
NULL .          -999.25      :NULL VALUE
COMP .        INPEX Browse, Ltd.                       :COMPANY
WELL .        ICHTHYS DEEP-1                           :WELL
FLD  .        WA-285-P                                 :FIELD
LOC  .        Datum: GDA94 Spheroid GRS80              :LOCATION
CNTY .        Ocean Bounty                             :COUNTY
STAT .        1:200                                    :STATE
CTRY .        Australia                                :COUNTRY
API  .                                                 :API NUMBER
UWI  .                                                 :UNIQUE WELL ID
DATE .        16-Nov-2003                              :LOG DATE {DD-MMM-YYYY}
SRVC .        Schlumberger                             :SERVICE COMPANY
LATI .DEG     13 51' 47.081" S                         :LATITUDE
LONG .DEG     123 13'  56.110" E                       :LONGITUDE
GDAT .                                                 :GeoDetic Datum
#-----------------------------------------------------------------------------
~PARAMETER INFORMATION
#MNEM.UNIT    VALUE                      DESCRIPTION
#---- -----   --------------------       ------------------------
RUN  .          Suite 3 Run 1            :RUN NUMBER
PDAT .        LAT                        :Permanent Datum
EPD  .M           0.000000               :Elevation of Permanent Datum above Mean Sea Level
EPD  .M           0.000000               :Elevation of tool zero above Mean Sea Level
LMF  .          Drill Floor              :Logging Measured From (Name of Logging Elevation Reference)
APD  .M          25.000000               :Elevation of Depth Reference (LMF) above Permanent Datum
#-----------------------------------------------------------------------------
~CURVE INFORMATION
#MNEM.UNIT   API CODE                                  DESCRIPTION
#---- -----  --------                                  -----------------------
DEPT .M                                                :DEPTH (BOREHOLE) {F10.4}
TENS .LBF                                              :Cable Tension {F13.4}
APLU .V/V                                              :APS Near/Array Uncorrected Limestone Porosity {F13.4}
RHOM .G/C3                                             :LDS Corrected Bulk Density {F13.4}
DRH  .G/C3                                             :LDS Bulk Density Correction {F13.4}
PEFL .                                                 :LDS Long-Spaced Corrected Photoelectric Effect {F13.4}
LCAL .IN                                               :LDS Caliper {F13.4}
HSGR .GAPI                                             :HNGS Standard Gamma Ray {F13.4}
CDF  .N                                                :Calibrated Downhole Force {F13.4}
APLC .V/V                                              :APS Near/Array Corrected Limestone Porosity {F13.4}
ATD2 .IN                                               :Array Induction Two Foot Outer Diameter of Invasion (D2) {F13.4}
ATD1 .IN                                               :Array Induction Two Foot Inner Diameter of Invasion(D1) {F13.4}
AOD2 .IN                                               :Array Induction One Foot Outer Diameter of Invasion (D2) {F13.4}
AOD1 .IN                                               :Array Induction One Foot Inner Diameter of Invasion (D1) {F13.4}
AT90 .OHMM                                             :Array Induction Two Foot Resistivity A90 {F13.4}
AT60 .OHMM                                             :Array Induction Two Foot Resistivity A60 {F13.4}
AT30 .OHMM                                             :Array Induction Two Foot Resistivity A30 {F13.4}
AT20 .OHMM                                             :Array Induction Two Foot Resistivity A20 {F13.4}
AT10 .OHMM                                             :Array Induction Two Foot Resistivity A10 {F13.4}
AO90 .OHMM                                             :Array Induction One Foot Resistivity A90 {F13.4}
AO60 .OHMM                                             :Array Induction One Foot Resistivity A60 {F13.4}
AO30 .OHMM                                             :Array Induction One Foot Resistivity A30 {F13.4}
AO20 .OHMM                                             :Array Induction One Foot Resistivity A20 {F13.4}
AO10 .OHMM                                             :Array Induction One Foot Resistivity A10 {F13.4}
SIGF .CU                                               :APS Formation Capture Cross-Section {F13.4}
ANEC .HZ                                               :APS Near Detector Count Rate {F13.4}
AFEC .HZ                                               :APS Far Detector Count Rate {F13.4}
A1EP .HZ                                               :APS Array-1 Detector Count Rate {F13.4}
A2EP .HZ                                               :APS Array-2 Detector Count Rate {F13.4}
AFTC .HZ                                               :APS Thermal Detector Count Rate {F13.4}
#-----------------------------------------------------------------------------
# 
#     DEPT        TENS         APLU         RHOM         DRH          PEFL         LCAL         HSGR         CDF          APLC         ATD2         ATD1         AOD2         AOD1         AT90         AT60         AT30         AT20         AT10         AO90         AO60         AO30         AO20         AO10         SIGF         ANEC         AFEC         A1EP         A2EP         AFTC
#
~A  
# ...
 4289.7552    5707.0000       0.1678       2.8139      -0.0079    -999.2500       8.7168     132.9698    5974.3135       0.1557       8.7778       8.7778       8.7216       8.7216       5.4184       5.2853       5.2902       5.4435       5.7400       5.3774       5.1602       5.5288       5.5192       5.8684      30.6253    2902.0000     829.0000    2199.0000    2186.0000    1985.1625
 4289.6028    5712.0000       0.1731       2.8139      -0.0079    -999.2500       8.7179     137.3932    5996.4521       0.1606       8.7296       8.7296       8.7222       8.7222       5.4113       5.2833       5.3197       5.4264       5.6856       5.2434       5.0593       5.2931       4.9816       5.9487      32.2539    2928.0000     836.0000    2150.0000    2181.0000    2074.8149
 4289.4504    5723.0000       0.1932       2.8139      -0.0079    -999.2500       8.7190     147.5887    5912.6411       0.1821       8.7181       8.7181       8.7678       8.7678       4.8694       4.7773       4.8113       4.9254       5.1973       4.6813       4.5372       4.7096       4.7376       4.6974      32.5727    2910.0000     842.0000    2049.0000    1989.0000    1805.8575
 4289.2980    5729.0000       0.2015       2.8139      -0.0079    -999.2500       8.7182     155.1065    5884.1768       0.1909       8.7181       8.7181       8.7995       8.7995       4.7219       4.6337       4.6329       4.7664       4.9712       4.5607       4.4191       4.5457       4.7782       4.8002      33.2952    2789.0000     851.0000    2000.0000    2001.0000    2008.2161
 4289.1456    5741.0000       0.1939       2.8139      -0.0079    -999.2500       8.7154     153.0027    5869.9448       0.1810       8.7185       8.7185       8.7964       8.7964       5.0228       4.9311       4.9303       5.0827       5.3092       5.1930       5.0195       4.9965       5.3019       5.2347      32.8561    2924.0000     821.0000    2065.0000    2060.0000    1987.7240
 4288.9932    5673.0000       0.1786       2.8139      -0.0079    -999.2500       8.7222     145.1097    5918.9663       0.1646       8.7201       8.7201       8.7778       8.7778       5.4182       5.3187       5.3521       5.5365       5.8197       5.6436       5.4568       5.4613       5.8397       5.7677      33.6568    2858.0000     810.4000    2088.0000    2087.0000    1931.3711
 4288.8408    5681.0000       0.1755       2.8139      -0.0079    -999.2500       8.7239     141.6084    5901.5718       0.1607       8.7219       8.7219       8.7296       8.7296       5.8320       5.7244       5.7370       5.8932       6.1543       5.9679       5.7915       5.9960       6.3109       6.2631      33.6743    2920.0000     826.0000    2227.0000    2029.0000    1921.1250
 4288.6884    5621.0000       0.1769       2.8139      -0.0079    -999.2500       8.7225     140.5178    5843.0615       0.1610       8.7222       8.7222       8.7222       8.7222       6.0170       5.9108       5.8966       6.0775       6.3468       6.1144       5.9312       6.0300       6.2894       6.2748      33.2025    2826.0000     844.0000    2065.0000    2084.0000    1795.6116
 4288.5360    5606.0000       0.1838       2.8139      -0.0079    -999.2500       8.7196     146.0159    5868.3633       0.1700       8.7218       8.7218       8.7218       8.7218       5.8638       5.7713       5.7384       5.9126       6.1748       5.8534       5.7016       5.7544       5.8783       6.0561      33.8075    2751.0000     764.0000    2045.0000    2034.0000    1933.9325
 4288.3836    5661.0000       0.1767       2.8139      -0.0079    -999.2500       8.7216     148.8364    5852.5498       0.1622       8.7238       8.7238       8.7240       8.7240       5.6000       5.5151       5.4932       5.6207       5.8481       5.5756       5.4433       5.4987       5.5502       5.8620      33.8309    2851.2000     817.0000    2008.8000    2029.6000    1924.1989
 4288.2312    5637.0000       0.1738       2.8139      -0.0079    -999.2500       8.7222     149.9060    5893.6646       0.1573       8.7352       8.7352       8.7350       8.7350       5.2853       5.2146       5.1627       5.2444       5.4905       5.2796       5.1841       5.1828       5.1680       5.3992      33.6266    2776.0000     780.0000    2051.0000    2065.0000    2010.7776
 4288.0788    5631.0000       0.1791       2.8139      -0.0079    -999.2500       8.7678     148.7235    5888.9209       0.1635       8.7567       8.7566       8.7563       8.7563       4.8862       4.8289       4.7631       4.8268       4.9910       4.6264       4.4962       4.6439       4.9089       4.8466      32.7300    2711.0000     803.0000    2100.0000    1992.0000    1839.1571
 4287.9264    5689.0000       0.1864       2.8139      -0.0079    -999.2500       8.7995     149.8018    5928.4541       0.1734       8.7779       8.7779       8.7781       8.7781       5.2003       5.1472       4.9467       5.0162       5.1580       5.0295       4.9000       4.9219       5.6596       4.8589      33.3296    2769.0000     821.0000    2011.0000    1978.0000    1864.7720
 4287.7740    5708.0000       0.1913       2.8139      -0.0079    -999.2500       8.7964     147.8276    5980.6387       0.1774       8.7851       8.7851       8.7863       8.7863       5.8513       5.7726       5.6563       5.6511       5.6707       5.8163       5.6616       5.6169       5.8982       5.5856      31.4331    2826.0000     796.0000    1975.0000    1960.0000    1895.5100
 4287.6216    5698.0000       0.1918       2.8139      -0.0079    -999.2500       8.7778     147.4583    6023.3345       0.1790       8.7711       8.7711       8.7724       8.7724       6.4967       6.3881       6.1769       6.2748       6.4433       6.4435       6.2313       6.1339       6.3172       6.2251      32.1302    2818.0000     774.0000    1995.0000    1969.0000    1823.7881
 4287.4692    5757.0000       0.1863       2.8139      -0.0079    -999.2500       8.7296     143.4666    5912.6411       0.1742       8.7415       8.7414       8.7415       8.7414       6.3716       6.2573       6.1510       6.2368       6.3874       7.0817       6.8494       6.7988       6.4110       6.8948      32.6917    2729.0000     790.0000    2107.0000    1968.0000    1964.6705
 4287.3168    5754.0000       0.1796       2.8139      -0.0079    -999.2500       8.6894     145.8128    5947.4302       0.1668       8.7117       8.7117       8.7116       8.7116       5.5950       5.5126       5.4205       5.4125       5.4843       5.6048       5.4419       5.5555       5.3957       5.5724      32.8511    2817.0000     811.2000    2113.0000    2061.0000    2021.0236
 4287.1644    5778.0000       0.1802       2.8139      -0.0079    -999.2500       8.6834     145.7005    5937.9424       0.1686       8.6929       8.6929       9.1600       9.1600       5.1590       5.0748       4.9560       4.9462       5.0492       5.0702       4.9225       4.9260       4.7079       4.7560      32.2845    2920.0000     840.0000    2045.0000    2024.0000    1844.2802
 4287.0120    5756.0000       0.1933       2.8139      -0.0079    -999.2500       8.6862     146.8296    5877.8516       0.1847       8.7188       8.7188      11.8123      11.8123       5.2665       5.1637       5.0873       5.1584       5.2283       5.8943       5.6893       5.5711       5.2247       5.5322      32.6853    2789.0000     814.0000    2094.0000    1980.0000    2003.0931
 4286.8596    5751.0000       0.1814       2.8139      -0.0079    -999.2500       8.6848     146.0640    5944.2681       0.1727       8.8223       8.8223      25.2959      25.2959       5.0181       4.9124       4.9375       4.9759       5.0036       5.2341       5.0521       4.9486       4.8141       4.9485      33.0288    2834.3999     818.0000    2062.3999    2015.2000    1850.4275
 4286.7072    5800.0000       0.1775       2.8139      -0.0079    -999.2500       8.6825     145.3811    5958.5000       0.1683       8.8249       8.8249      43.4043      43.4043       4.5778       4.4844       4.4675       4.5154       4.6229       4.1677       4.0292       4.0785       4.1656       4.1774      32.6164    2927.0000     787.0000    2183.0000    2146.0000    1846.8416
