~VERSION INFORMATION
VERS.           2.0   :CWLS Log ASCII Standard - VERSION 2.0
WRAP.           NO    :One Line per depth step
PROD.  Schlumberger   :LAS Producer
PROG.  DLIS to ASCII 11C0-305                          :LAS Program name and version
CREA.        2003/11/03 06:15                          :LAS Creation date {YYYY/MM/DD hh:mm}
SOURCE.     AIT_mainPB1_064PUP.DLIS                    :DLIS File Name
FILE-ID.     AIT_mainPB1_064PUP                        :File Identification Number
#--------------------------------------------------
~WELL INFORMATION
#MNEM.UNIT      DATA             DESCRIPTION
#---- ------ --------------   -----------------------------
STRT .M      4280.0016       :START DEPTH     
STOP .M      3948.9888       :STOP DEPTH     
STEP .M        -0.1524       :STEP     
NULL .          -999.25      :NULL VALUE
COMP .        INPEX Browse, Ltd.                       :COMPANY
WELL .        ICHTHYS DEEP-1                           :WELL
FLD  .        WA-285-P                                 :FIELD
LOC  .        Datum: GDA94 Spheroid GRS80              :LOCATION
CNTY .        Ocean Bounty                             :COUNTY
STAT .        1:200                                    :STATE
CTRY .        Australia                                :COUNTRY
API  .                                                 :API NUMBER
UWI  .                                                 :UNIQUE WELL ID
DATE .        03-Nov-2003                              :LOG DATE {DD-MMM-YYYY}
SRVC .        Schlumberger                             :SERVICE COMPANY
LATI .DEG     13 51' 47.081" S                         :LATITUDE
LONG .DEG     123 13'  56.110" E                       :LONGITUDE
GDAT .                                                 :GeoDetic Datum
#-----------------------------------------------------------------------------
~PARAMETER INFORMATION
#MNEM.UNIT    VALUE                      DESCRIPTION
#---- -----   --------------------       ------------------------
RUN  .          Suite 2 Run 1            :RUN NUMBER
PDAT .        LAT                        :Permanent Datum
EPD  .M           0.000000               :Elevation of Permanent Datum above Mean Sea Level
EPD  .M           0.000000               :Elevation of tool zero above Mean Sea Level
LMF  .          Drill Floor              :Logging Measured From (Name of Logging Elevation Reference)
APD  .M          25.000000               :Elevation of Depth Reference (LMF) above Permanent Datum
#-----------------------------------------------------------------------------
~CURVE INFORMATION
#MNEM.UNIT   API CODE                                  DESCRIPTION
#---- -----  --------                                  -----------------------
DEPT .M                                                :DEPTH (BOREHOLE) {F10.4}
TENS .LBF                                              :Cable Tension {F13.4}
APLU .V/V                                              :APS Near/Array Uncorrected Limestone Porosity {F13.4}
RHOM .G/C3                                             :LDS Corrected Bulk Density {F13.4}
DRH  .G/C3                                             :LDS Bulk Density Correction {F13.4}
PEFL .                                                 :LDS Long-Spaced Corrected Photoelectric Effect {F13.4}
LCAL .IN                                               :LDS Caliper {F13.4}
HSGR .GAPI                                             :HNGS Standard Gamma Ray {F13.4}
CDF  .LBF                                              :Calibrated Downhole Force {F13.4}
APLC .V/V                                              :APS Near/Array Corrected Limestone Porosity {F13.4}
ATD2 .IN                                               :Array Induction Two Foot Outer Diameter of Invasion (D2) {F13.4}
ATD1 .IN                                               :Array Induction Two Foot Inner Diameter of Invasion(D1) {F13.4}
AOD2 .IN                                               :Array Induction One Foot Outer Diameter of Invasion (D2) {F13.4}
AOD1 .IN                                               :Array Induction One Foot Inner Diameter of Invasion (D1) {F13.4}
AT90 .OHMM                                             :Array Induction Two Foot Resistivity A90 {F13.4}
AT60 .OHMM                                             :Array Induction Two Foot Resistivity A60 {F13.4}
AT30 .OHMM                                             :Array Induction Two Foot Resistivity A30 {F13.4}
AT20 .OHMM                                             :Array Induction Two Foot Resistivity A20 {F13.4}
AT10 .OHMM                                             :Array Induction Two Foot Resistivity A10 {F13.4}
AO90 .OHMM                                             :Array Induction One Foot Resistivity A90 {F13.4}
AO60 .OHMM                                             :Array Induction One Foot Resistivity A60 {F13.4}
AO30 .OHMM                                             :Array Induction One Foot Resistivity A30 {F13.4}
AO20 .OHMM                                             :Array Induction One Foot Resistivity A20 {F13.4}
AO10 .OHMM                                             :Array Induction One Foot Resistivity A10 {F13.4}
SIGF .CU                                               :APS Formation Capture Cross-Section {F13.4}
ANEC .HZ                                               :APS Near Detector Count Rate {F13.4}
AFEC .HZ                                               :APS Far Detector Count Rate {F13.4}
A1EP .HZ                                               :APS Array-1 Detector Count Rate {F13.4}
A2EP .HZ                                               :APS Array-2 Detector Count Rate {F13.4}
AFTC .HZ                                               :APS Thermal Detector Count Rate {F13.4}
#-----------------------------------------------------------------------------
# 
#     DEPT        TENS         APLU         RHOM         DRH          PEFL         LCAL         HSGR         CDF          APLC         ATD2         ATD1         AOD2         AOD1         AT90         AT60         AT30         AT20         AT10         AO90         AO60         AO30         AO20         AO10         SIGF         ANEC         AFEC         A1EP         A2EP         AFTC
#
~A  
# ...
 3953.5608    5290.0000       0.3926       1.9973      -0.9544      21.3557       8.7158      77.2913    1302.9076       0.3814     154.8926     107.5937     205.1299     205.0549       4.1099       4.1606       5.5962       7.4310       7.1461       4.1805       4.0560       5.6277       8.0236       6.7007      34.0589    2999.0000     624.0000    1737.0000    1695.0000    1247.4506
 3953.4084    5286.0000       0.4044       1.9862      -0.9514      22.2546       8.7115      81.1723    1301.8411       0.3931     155.9722     107.6100     205.6411     205.5647       4.1099       4.1606       5.5962       7.4310       7.1461       4.1805       4.0560       5.6277       8.0236       6.7007      33.6510    3078.0000     563.0000    1695.0000    1695.0000    1206.4666
 3953.2560    5319.0000       0.4165       1.9977      -0.9438      35.1109       8.7101      84.5779    1301.8411       0.4050     145.7129     110.8045     213.7716     213.7047       4.1099       4.1606       5.5962       7.4310       7.1461       4.1805       4.0560       5.6277       8.0236       6.7007      32.2808    3132.0000     620.0000    1707.0000    1669.0000    1203.9050
 3953.1036    5326.0000       0.4173       1.9978      -0.9436     252.9658       8.7135      82.4438    1304.6851       0.4058     151.3172     108.8663     221.1798     221.1393       4.1099       4.1606       5.5962       7.4310       7.1461       4.1805       4.0560       5.6277       8.0236       6.7007      33.9035    3075.0000     532.0000    1664.0000    1685.0000    1250.0121
 3952.9512    5346.0000       0.4312       2.0024      -0.9389      57.8994       8.7172      82.9905    1306.1071       0.4195     175.2884     101.3546     215.9060     215.8854       4.1099       4.1606       5.5962       7.4310       7.1461       4.1805       4.0560       5.6277       8.0236       6.7007      37.2226    3126.0000     568.0000    1686.0000    1725.0000    1290.9960
 3952.7988    5357.0000       0.4385       2.0155      -0.9324      48.9804       8.7118      83.5099    1305.3960       0.4268     193.3003      95.4090     212.0449     212.0232       4.1099       4.1606       5.5962       7.4310       7.1461       4.1805       4.0560       5.6277       8.0236       6.7007      35.6358    3042.6667     576.0000    1654.6666    1636.0000    1306.3650
 3952.6464    5370.0000       0.4457       2.0045      -0.9365      23.7013       8.7120      82.9563    1305.3960       0.4339     199.9930      93.1098     208.0174     207.9820       4.1099       4.1606       5.5962       7.4310       7.1461       4.1805       4.0560       5.6277       8.0236       6.7007      35.0136    3109.0000     616.0000    1635.0000    1652.0000    1121.9370
 3952.4940    5347.0000       0.4255       1.9956      -0.9406      31.5252       8.7135      82.4734    1303.6185       0.4139     201.9640      92.4020     200.8728     200.8028       4.1099       4.1606       5.5962       7.4310       7.1461       4.1805       4.0560       5.6277       8.0236       6.7007      35.3901    3122.0000     569.0000    1725.0000    1624.0000    1155.2366
 3952.3416    5327.0000       0.4221       1.9601      -0.9619      44.3681       8.7121      80.8675    1302.5520       0.4106     202.7614      92.0695     198.7105     198.5213       4.1099       4.1606       5.5962       7.4310       7.1461       4.1805       4.0560       5.6277       8.0236       6.7007      33.4189    3061.0000     596.0000    1651.0000    1737.0000    1283.3115
 3952.1892    5309.0000       0.4014       1.9794      -0.9562    -999.2500       8.7138      79.6445    1302.5520       0.3901     202.7614      92.0695     198.7105     198.5213       4.1099       4.1606       5.5962       7.4310       7.1461       4.1805       4.0560       5.6277       8.0236       6.7007      32.2485    3066.0000     586.0000    1677.0000    1697.0000    1247.4504
 3952.0368    5315.0000       0.4057       2.0076      -0.9480    -999.2500       8.7138      76.2323    1302.9076       0.3943     202.7614      92.0695     198.7105     198.5213       4.1099       4.1606       5.5962       7.4310       7.1461       4.1805       4.0560       5.6277       8.0236       6.7007      34.3462    3137.0000     590.0000    1709.0000    1764.0000    1334.5415
 3951.8844    5239.0000       0.4074       2.0067      -0.9492    -999.2500       8.7115      77.1575    1304.6851       0.3960     202.7614      92.0695     198.7105     198.5213       4.1099       4.1606       5.5962       7.4310       7.1461       4.1805       4.0560       5.6277       8.0236       6.7007      33.4795    3029.0000     552.0000    1669.0000    1667.0000    1375.5255
 3951.7320    5244.0000       0.4433       1.9695      -0.9667    -999.2500       8.7094      77.5461    1306.1071       0.4315     202.7614      92.0695     198.7105     198.5213       4.1099       4.1606       5.5962       7.4310       7.1461       4.1805       4.0560       5.6277       8.0236       6.7007      30.3237    3108.0000     570.0000    1681.0000    1650.0000    1253.4274
 3951.5796    5180.0000       0.4411       1.9683      -0.9555    -999.2500       8.7138      80.0941    1305.0405       0.4294     202.7614      92.0695     198.7105     198.5213       4.1099       4.1606       5.5962       7.4310       7.1461       4.1805       4.0560       5.6277       8.0236       6.7007      33.1086    3020.0000     603.0000    1641.3334    1572.0000    1203.9050
 3951.4272    5178.0000       0.4409       1.9969      -0.9436    -999.2500       8.7158      79.7344    1302.1965       0.4292     202.7614      92.0695     198.7105     198.5213       4.1099       4.1606       5.5962       7.4310       7.1461       4.1805       4.0560       5.6277       8.0236       6.7007      33.4720    3088.0000     510.6667    1670.0000    1641.0000    1170.6056
 3951.2748    5178.0000       0.4323       2.0246      -0.9406    -999.2500       8.7118      80.1734    1303.2631       0.4206     202.7614      92.0695     198.7105     198.5213       4.1099       4.1606       5.5962       7.4310       7.1461       4.1805       4.0560       5.6277       8.0236       6.7007      32.5377    3074.0000     568.0000    1659.0000    1714.0000    1214.1510
 3951.1224    5161.0000       0.4558       2.0209      -0.9485     -29.2835       8.7118      80.3422    1302.5520       0.4439     202.7614      92.0695     198.7105     198.5213       4.1099       4.1606       5.5962       7.4310       7.1461       4.1805       4.0560       5.6277       8.0236       6.7007      32.6527    3087.0000     656.0000    1625.0000    1616.0000    1257.6965
 3950.9700    5167.0000       0.4400       2.0221      -0.9431      91.9623       8.7115      79.6245    1302.5520       0.4282     202.7614      92.0695     198.7105     198.5213       4.1099       4.1606       5.5962       7.4310       7.1461       4.1805       4.0560       5.6277       8.0236       6.7007      34.7015    3060.0000     603.0000    1583.0000    1631.0000    1206.4666
 3950.8176    5190.0000       0.4259       2.0116      -0.9496      26.1822       8.7125      78.7543    1302.9076       0.4143     202.7614      92.0695     198.7105     198.5213       4.1099       4.1606       5.5962       7.4310       7.1461       4.1805       4.0560       5.6277       8.0236       6.7007      33.0956    3132.0000     554.0000    1775.0000    1717.0000    1168.0441
 3950.6652    5173.0000       0.4133       2.0151      -0.9481      34.4061       8.7098      79.1227    1302.9076       0.4018     202.7614      92.0695     198.7105     198.5213       4.1099       4.1606       5.5962       7.4310       7.1461       4.1805       4.0560       5.6277       8.0236       6.7007      33.5979    3098.0000     569.0000    1653.0000    1692.0000    1191.9513
 3950.5128    5217.0000       0.4309       2.0346      -0.9362      35.1729       8.7132      74.8324    1302.9076       0.4192     202.7614      92.0695     198.7105     198.5213       4.1099       4.1606       5.5962       7.4310       7.1461       4.1805       4.0560       5.6277       8.0236       6.7007      32.3260    3068.0000     629.3333    1686.6666    1669.3334    1191.0975
