~VERSION INFORMATION
VERS.           2.0   :CWLS Log ASCII Standard - VERSION 2.0
WRAP.           NO    :One Line per depth step
PROD.  Schlumberger   :LAS Producer
PROG.  DLIS to ASCII 11C0-305                          :LAS Program name and version
CREA.        2003/11/19 08:45                          :LAS Creation date {YYYY/MM/DD hh:mm}
SOURCE.     UBI_Mainpb1_036PUP.DLIS                    :DLIS File Name
FILE-ID.     UBI_Mainpb1_036PUP                        :File Identification Number
#--------------------------------------------------
~WELL INFORMATION
#MNEM.UNIT      DATA             DESCRIPTION
#---- ------ --------------   -----------------------------
STRT .M      4859.4264       :START DEPTH     
STOP .M      4016.0448       :STOP DEPTH     
STEP .M        -0.1524       :STEP     
NULL .          -999.25      :NULL VALUE
COMP .        INPEX Browse, Ltd.                       :COMPANY
WELL .        ICHTHYS DEEP-1                           :WELL
FLD  .        WA-285-P                                 :FIELD
LOC  .        Datum: GDA94 Spheroid GRS80              :LOCATION
CNTY .        Ocean Bounty                             :COUNTY
STAT .        1:200                                    :STATE
CTRY .        Australia                                :COUNTRY
API  .                                                 :API NUMBER
UWI  .                                                 :UNIQUE WELL ID
DATE .        16-Nov-2003                              :LOG DATE {DD-MMM-YYYY}
SRVC .        Schlumberger                             :SERVICE COMPANY
LATI .DEG     13 51' 47.081" S                         :LATITUDE
LONG .DEG     123 13'  56.110" E                       :LONGITUDE
GDAT .                                                 :GeoDetic Datum
#-----------------------------------------------------------------------------
~PARAMETER INFORMATION
#MNEM.UNIT    VALUE                      DESCRIPTION
#---- -----   --------------------       ------------------------
RUN  .          Suite 3 Run 1            :RUN NUMBER
PDAT .        LAT                        :Permanent Datum
EPD  .M           0.000000               :Elevation of Permanent Datum above Mean Sea Level
EPD  .M           0.000000               :Elevation of tool zero above Mean Sea Level
LMF  .          Drill Floor              :Logging Measured From (Name of Logging Elevation Reference)
APD  .M          25.000000               :Elevation of Depth Reference (LMF) above Permanent Datum
#-----------------------------------------------------------------------------
~CURVE INFORMATION
#MNEM.UNIT   API CODE                                  DESCRIPTION
#---- -----  --------                                  -----------------------
DEPT .M                                                :DEPTH (BOREHOLE) {F10.4}
LCAL .IN                                               :LDS Caliper {F13.4}
GR   .GAPI                                             :Gamma Ray {F13.4}
#-----------------------------------------------------------------------------
# 
#     DEPT        LCAL         GR
#
~A  
# ...
 4793.2848       8.9166     131.4706
 4793.1324       8.9134     127.4149
 4792.9800       8.8327     124.9607
 4792.8276       8.7943     117.0845
 4792.6752       8.7942     112.8255
 4792.5228       8.7957     109.3921
 4792.3704       8.7928     108.4436
 4792.2180       8.7950     112.1109
 4792.0656       8.7776     107.2301
 4791.9132       8.7744     102.7528
 4791.7608       9.2179      95.1582
 4791.6084       9.2390      97.9387
 4791.4560       9.1577      98.0589
 4791.3036       9.0683     100.2359
 4791.1512       8.7787     103.4631
 4790.9988       8.8265     115.2998
 4790.8464       8.8275     105.6983
 4790.6940       8.8296      93.2297
 4790.5416       8.9072      73.1729
 4790.3892       8.9144      67.9587
 4790.2368       8.9024      52.2879
 4790.0844       8.9427      33.0835
 4789.9320       8.9450      18.9030
 4789.7796       8.9266      18.7279
 4789.6272       8.9364      24.6655
 4789.4748       8.9354      31.2516
 4789.3224       8.9282      50.2161
 4789.1700       8.8780      87.6786
 4789.0176       8.8527     121.2906
 4788.8652       8.8428     144.7993
 4788.7128       8.8239     146.0895
 4788.5604       8.8229     147.0230
 4788.4080       8.8214     140.0803
 4788.2556       8.8089     134.8228
 4788.1032       8.7893     132.8359
 4787.9508       8.7765     130.1521
 4787.7984       8.7631     119.5538
 4787.6460       8.7665     100.3707
 4787.4936       8.7705      80.6527
 4787.3412       8.7797      67.2790
 4787.1888       8.8173      52.1016
 4787.0364       8.9261      36.1723
 4786.8840       8.9972      21.4917
 4786.7316       9.0473      17.0593
 4786.5792       9.2564      16.2425
 4786.4268       9.4666      14.4123
 4786.2744       9.4643      12.8353
 4786.1220       9.1044      11.2601
 4785.9696       8.8156      10.2099
 4785.8172       8.7552       9.1436
 4785.6648       8.7487       9.1552
 4785.5124       8.7474      12.7141
 4785.3600       8.7432      15.3574
 4785.2076       8.6998      16.0942
 4785.0552       8.6744      14.7750
 4784.9028       8.6157      12.4513
 4784.7504       8.5851      11.8779
 4784.5980       8.5747      10.4550
 4784.4456       8.6483      11.0851
 4784.2932       8.7530      11.1484
 4784.1408       8.7611      11.2489
 4783.9884       8.7605      10.2221
 4783.8360       8.7616       9.0886
 4783.6836       8.7600       8.9784
 4783.5312       8.7604       8.8083
 4783.3788       8.7619      10.6953
 4783.2264       8.7595      13.0387
 4783.0740       8.7405      14.8190
 4782.9216       8.6951      15.4257
 4782.7692       8.6792      18.4429
 4782.6168       8.6694      20.4265
 4782.4644       8.6698      35.5589
 4782.3120       8.6677      66.8438
 4782.1596       8.6800      92.9479
 4782.0072       8.6940      95.8005
 4781.8548       8.6958      70.7263
 4781.7024       8.6937      46.8360
 4781.5500       8.6708      31.2975
 4781.3976       8.6246      23.2365
 4781.2452       8.6039      19.4475
 4781.0928       8.6123      16.3942
 4780.9404       8.5730      14.2772
 4780.7880       8.5735      13.4021
 4780.6356       8.6044      15.7941
 4780.4832       8.6278      22.7652
 4780.3308       8.6284      35.3088
 4780.1784       8.6284      41.4251
 4780.0260       8.6195      42.4279
 4779.8736       8.5751      37.8545
 4779.7212       8.5429      36.9241
 4779.5688       8.5419      37.5649
 4779.4164       8.5428      37.7042
 4779.2640       8.5418      35.7856
 4779.1116       8.5413      33.2764
 4778.9592       8.5427      32.0712
 4778.8068       9.5071      31.6045
 4778.6544       9.7075      31.6546
 4778.5020       9.7209      30.2959
 4778.3496       9.7325      31.2424
 4778.1972       9.7868      34.4934
 4778.0448       9.9968      38.5709
 4777.8924       9.5254      42.5381
 4777.7400      10.0241      42.8798
 4777.5876      10.4363      44.8083
 4777.4352      10.4858      45.0871
 4777.2828      10.4854      42.9984
 4777.1304      10.4543      38.3893
 4776.9780      10.4269      35.5822
 4776.8256      10.4571      36.0273
 4776.6732      10.1580      42.0690
 4776.5208      10.1476      43.6509
 4776.3684      10.1446      42.2907
 4776.2160      10.0078      36.0156
 4776.0636       9.7333      35.0005
 4775.9112       9.5346      39.6495
 4775.7588       9.4886      53.3333
 4775.6064       9.4905      66.7755
 4775.4540       9.3897      79.1441
 4775.3016       9.0939      85.4505
 4775.1492       8.9173      89.1261
 4774.9968       8.6298      89.0094
 4774.8444       8.6262      88.1679
 4774.6920       8.6209      88.9846
 4774.5396       9.0100      86.1392
 4774.3872       8.8118      82.2045
 4774.2348       9.2176      78.9050
 4774.0824       8.7982      82.3622
 4773.9300       8.7715      82.5889
 4773.7776       8.7651      80.8256
 4773.6252       8.7136      73.9679
 4773.4728       8.9183      82.8659
 4773.3204       8.6697      91.6822
 4773.1680       8.6663      99.0366
 4773.0156       8.6670      98.5351
 4772.8632       8.6629     102.0112
 4772.7108       8.7174     109.6541
 4772.5584       8.9144     111.6292
 4772.4060       8.6275     105.4499
 4772.2536       8.6055     105.0415
 4772.1012       8.6061     103.0911
 4771.9488       8.7520     109.0421
 4771.7964       8.7253     108.1652
 4771.6440       8.6016     110.5248
 4771.4916       8.5997     118.6830
 4771.3392       8.6062     114.3350
 4771.1868       8.6055      85.8254
 4771.0344       8.6243      45.9872
 4770.8820       8.6342      19.6488
 4770.7296       9.0545      15.4835
 4770.5772       8.9061      13.3896
 4770.4248       8.8068      13.5646
 4770.2724       8.7974      13.2419
 4770.1200       8.7977      13.1317
 4769.9676       8.7971      13.8383
 4769.8152       8.7906      14.1059
 4769.6628       8.7913      14.7671
 4769.5104       8.7904      14.9875
 4769.3580       8.7897      16.3068
 4769.2056       8.7905      17.3396
 4769.0532       8.7909      16.8326
 4768.9008       8.7417      16.0392
 4768.7484       8.6988      14.2156
 4768.5960       8.6974      12.3953
 4768.4436       8.6986      11.9196
 4768.2912       8.6981      10.7960
 4768.1388       8.6983       9.9792
 4767.9864       8.6965       8.2446
 4767.8340       8.6988       8.8681
 4767.6816       8.6972      10.5794
 4767.5292       8.6973      11.5476
 4767.3768       8.6971      12.1297
 4767.2244       8.6968      10.8788
 4767.0720       8.6971      11.3658
 4766.9196       8.8599      12.6256
 4766.7672       8.8749      21.8300
 4766.6148       8.8742      35.0438
 4766.4624       8.8732      46.7804
 4766.3100       8.8748      56.4269
 4766.1576       8.8359      77.1968
 4766.0052       8.7945      78.2337
 4765.8528       8.7868      62.3769
 4765.7004       8.7889      29.4718
 4765.5480       8.7878      15.9399
 4765.3956       8.7884      14.6926
 4765.2432       8.7886      13.7458
 4765.0908       8.7876      15.2127
 4764.9384       8.7881      14.3956
 4764.7860       8.7874      15.2457
 4764.6336       8.7847      14.9057
 4764.4812       8.7328      14.8490
 4764.3288       8.6962      14.6223
 4764.1764       8.6753      27.6010
 4764.0240       8.6415      64.5534
 4763.8716       8.6104     103.0328
 4763.7192       8.5966     123.8327
 4763.5668       8.5950     121.2823
 4763.4144       8.5960     109.6139
 4763.2620       8.5720      78.9674
 4763.1096       8.5702      44.9054
 4762.9572       8.5674      16.3759
 4762.8048       8.5416      12.2919
 4762.6524       8.5045      12.6052
 4762.5000       8.5019      12.9069
 4762.3476       8.5027      12.6088
 4762.1952       8.5016      11.2312
 4762.0428       8.5029      13.0448
 4761.8904       8.5018      13.3754
 4761.7380       8.5025      14.7797
 4761.5856       8.4936      13.6368
 4761.4332       8.4806      14.1028
 4761.2808       8.4820      14.0410
 4761.1284       8.4560      13.7103
 4760.9760       8.4506      13.2119
 4760.8236       8.4469      12.8770
 4760.6712       8.4468      13.2738
 4760.5188       8.4474      16.1325
 4760.3664       8.4489      16.4409
