~VERSION INFORMATION
VERS.           2.0   :CWLS Log ASCII Standard - VERSION 2.0
WRAP.           NO    :One Line per depth step
PROD.  Schlumberger   :LAS Producer
PROG.  DLIS to ASCII 11C0-305                          :LAS Program name and version
CREA.        2003/11/19 08:45                          :LAS Creation date {YYYY/MM/DD hh:mm}
SOURCE.     UBI_Mainpb1_036PUP.DLIS                    :DLIS File Name
FILE-ID.     UBI_Mainpb1_036PUP                        :File Identification Number
#--------------------------------------------------
~WELL INFORMATION
#MNEM.UNIT      DATA             DESCRIPTION
#---- ------ --------------   -----------------------------
STRT .M      4859.4264       :START DEPTH     
STOP .M      4016.0448       :STOP DEPTH     
STEP .M        -0.1524       :STEP     
NULL .          -999.25      :NULL VALUE
COMP .        INPEX Browse, Ltd.                       :COMPANY
WELL .        ICHTHYS DEEP-1                           :WELL
FLD  .        WA-285-P                                 :FIELD
LOC  .        Datum: GDA94 Spheroid GRS80              :LOCATION
CNTY .        Ocean Bounty                             :COUNTY
STAT .        1:200                                    :STATE
CTRY .        Australia                                :COUNTRY
API  .                                                 :API NUMBER
UWI  .                                                 :UNIQUE WELL ID
DATE .        16-Nov-2003                              :LOG DATE {DD-MMM-YYYY}
SRVC .        Schlumberger                             :SERVICE COMPANY
LATI .DEG     13 51' 47.081" S                         :LATITUDE
LONG .DEG     123 13'  56.110" E                       :LONGITUDE
GDAT .                                                 :GeoDetic Datum
#-----------------------------------------------------------------------------
~PARAMETER INFORMATION
#MNEM.UNIT    VALUE                      DESCRIPTION
#---- -----   --------------------       ------------------------
RUN  .          Suite 3 Run 1            :RUN NUMBER
PDAT .        LAT                        :Permanent Datum
EPD  .M           0.000000               :Elevation of Permanent Datum above Mean Sea Level
EPD  .M           0.000000               :Elevation of tool zero above Mean Sea Level
LMF  .          Drill Floor              :Logging Measured From (Name of Logging Elevation Reference)
APD  .M          25.000000               :Elevation of Depth Reference (LMF) above Permanent Datum
#-----------------------------------------------------------------------------
~CURVE INFORMATION
#MNEM.UNIT   API CODE                                  DESCRIPTION
#---- -----  --------                                  -----------------------
DEPT .M                                                :DEPTH (BOREHOLE) {F10.4}
LCAL .IN                                               :LDS Caliper {F13.4}
GR   .GAPI                                             :Gamma Ray {F13.4}
#-----------------------------------------------------------------------------
# 
#     DEPT        LCAL         GR
#
~A  
# ...
 4594.8600       8.4733      73.4479
 4594.7076       8.4721      73.9818
 4594.5552       8.6003      71.0028
 4594.4028       8.7697      79.4624
 4594.2504       8.8405      94.6173
 4594.0980       8.8971     100.7822
 4593.9456       8.9828     111.1817
 4593.7932       8.9771     120.0311
 4593.6408       9.0207     126.4028
 4593.4884       9.1600     119.2722
 4593.3360       9.8587     105.1278
 4593.1836      10.0413      86.6403
 4593.0312       9.6346      71.4324
 4592.8788       8.9659      62.3893
 4592.7264       8.8245      59.1271
 4592.5740       8.7977      60.1490
 4592.4216       8.8111      62.9528
 4592.2692       8.9384      60.3807
 4592.1168       9.4108      54.9107
 4591.9644       8.9214      44.9255
 4591.8120       8.8402      38.6172
 4591.6596       9.1879      33.0269
 4591.5072       9.6396      34.9505
 4591.3548       9.8292      41.1756
 4591.2024       9.9984      47.6074
 4591.0500       9.9216      57.7060
 4590.8976       9.7596      69.6326
 4590.7452       9.9654      88.3871
 4590.5928       9.1753      93.6397
 4590.4404       8.8170      85.8607
 4590.2880       8.7204      67.8219
 4590.1356       8.7870      55.3767
 4589.9832       9.2068      43.5951
 4589.8308       9.0221      35.6661
 4589.6784       8.6516      27.8081
 4589.5260       8.6272      27.0267
 4589.3736       8.6242      26.5653
 4589.2212       8.6252      27.2654
 4589.0688       8.6246      31.5633
 4588.9164       8.6305      38.7394
 4588.7640       8.7930      46.9586
 4588.6116       9.0321      50.4442
 4588.4592       9.2805      49.8607
 4588.3068       9.1227      48.5984
 4588.1544       9.0192      47.7784
 4588.0020       9.0372      46.3526
 4587.8496       9.0255      44.0048
 4587.6972       8.9651      41.9704
 4587.5448       9.0869      41.8333
 4587.3924       9.0545      41.1756
 4587.2400       9.1270      41.0112
 4587.0876       9.2047      40.3637
 4586.9352       9.2501      40.2630
 4586.7828       9.4531      40.6678
 4586.6304       9.8077      40.4137
 4586.4780      10.3234      40.1538
 4586.3256      10.2751      39.4324
 4586.1732      10.2505      37.5690
 4586.0208      10.1936      38.3504
 4585.8684      10.0668      38.1100
 4585.7160      10.3270      40.5710
 4585.5636       9.6822      41.4497
 4585.4112       9.8982      41.3896
 4585.2588      10.3615      39.1725
 4585.1064      10.4465      35.5288
 4584.9540      10.1002      35.2884
 4584.8016      10.0996      36.0869
 4584.6492      10.2853      37.2365
 4584.4968      10.0280      37.1163
 4584.3444      10.0308      38.8388
 4584.1920      10.2339      42.4998
 4584.0396      10.4040      47.3688
 4583.8872      10.1355      48.5816
 4583.7348       9.9435      49.3984
 4583.5824       9.8073      50.1162
 4583.4300       9.4621      52.6832
 4583.2776       9.0711      52.6461
 4583.1252       8.8643      51.8081
 4582.9728       9.1771      48.8698
 4582.8204       9.5600      48.3964
 4582.6680       9.8865      44.7898
 4582.5156       9.6855      42.0397
 4582.3632       9.3701      36.8627
 4582.2108       9.2740      33.1960
 4582.0584       9.0793      32.1591
 4581.9060       9.1117      33.1792
 4581.7536       9.3451      33.6477
 4581.6012       9.3865      32.4455
 4581.4488       9.3720      31.9204
 4581.2964      10.1658      37.5230
 4581.1440       9.7422      41.0749
 4580.9916       8.8912      44.0662
 4580.8392       8.7952      40.7973
 4580.6868       8.7791      41.5922
 4580.5344       8.8282      41.4720
 4580.3820       8.8946      41.9533
 4580.2296       9.3396      42.4755
 4580.0772       9.0197      43.1367
 4579.9248       8.7965      44.2413
 4579.7724       8.8018      42.6784
 4579.6200       8.7538      41.7131
 4579.4676       8.7795      41.2941
 4579.3152       9.1110      40.6647
 4579.1628       8.9841      38.0835
 4579.0104       8.7893      34.4751
 4578.8580       8.8511      34.2235
 4578.7056       9.2795      33.8628
 4578.5532       9.8324      35.6699
 4578.4008      10.3628      33.3049
 4578.2484      10.5285      37.0919
 4578.0960      10.2911      40.2351
 4577.9436       9.9851      45.3604
 4577.7912       9.3464      46.9834
 4577.6388       8.7923      47.4501
 4577.4864       8.7819      46.8331
 4577.3340       8.7809      46.2921
 4577.1816       8.7940      46.1047
 4577.0292       8.8294      45.6351
 4576.8768       8.9414      45.0791
 4576.7244       8.9901      42.4342
 4576.5720       9.0243      41.5814
 4576.4196       8.8057      37.9898
 4576.2672       8.7241      37.9633
 4576.1148       8.7277      40.0070
 4575.9624       8.7263      42.5776
 4575.8100       8.7334      45.1447
 4575.6576       8.8372      46.8490
 4575.5052       9.0811      50.7579
 4575.3528       9.2089      49.7803
 4575.2004       9.9274      47.6289
 4575.0480      10.2034      52.6304
 4574.8956      10.1546      69.6304
 4574.7432       9.4539      83.9753
 4574.5908       8.6658      87.3415
 4574.4384       8.6645      78.2761
 4574.2860       9.1209      65.0324
 4574.1336       9.0747      55.5349
 4573.9812       8.9567      47.8779
 4573.8288       8.8796      44.7593
 4573.6764       8.7881      39.1577
 4573.5240       8.7520      37.6554
 4573.3716       8.7483      44.5080
 4573.2192       8.7063      57.0298
 4573.0668       8.6898      71.2985
 4572.9144       8.5955      76.8993
 4572.7620       8.5577      77.8536
 4572.6096       8.5574      76.1723
 4572.4572       8.5573      72.6134
 4572.3048       8.6065      65.1102
 4572.1524       8.7755      60.6602
 4572.0000       9.0374      62.5272
 4571.8476       9.0663      70.8118
 4571.6952       8.9895      71.3528
 4571.5428       8.8213      68.0018
 4571.3904       9.0993      63.7941
 4571.2380       8.8399      63.9744
 4571.0856       8.7652      69.4914
 4570.9332       8.7331      72.7374
 4570.7808       8.5546      76.0434
 4570.6284       8.5491      78.0891
 4570.4760       8.5356      83.1984
 4570.3236       8.5303      90.5319
 4570.1712       8.5295      87.8044
 4570.0188       8.5365      78.5474
 4569.8664       8.7362      65.8040
 4569.7140       8.7558      61.4929
 4569.5616       8.7567      66.1939
 4569.4092       8.9110      74.1285
 4569.2568       8.7815      81.7869
 4569.1044       8.6119      88.3867
 4568.9520       8.5159      94.5180
 4568.7996       8.5092      96.6876
 4568.6472       8.5105      91.6120
 4568.4948       8.5116      85.8546
 4568.3424       8.5090      78.9118
 4568.1900       8.5064      81.6393
 4568.0376       8.5061      87.8382
 4567.8852       8.5019      95.1116
 4567.7328       8.5079      99.8641
 4567.5804       8.5561     107.3027
 4567.4280       8.8715     127.7420
 4567.2756       8.7122     147.7851
 4567.1232       8.5424     155.2331
 4566.9708       8.5130     148.5967
 4566.8184       8.5108     135.7630
 4566.6660       8.5089     126.3257
 4566.5136       8.5188     121.4191
 4566.3612       8.5342     120.8820
 4566.2088       8.5330     119.9432
 4566.0564       8.5317     119.5260
 4565.9040       8.5312     120.4188
 4565.7516       8.5325     124.3631
 4565.5992       8.5334     126.0295
 4565.4468       8.5337     127.4115
 4565.2944       8.5342     124.0397
 4565.1420       8.5355     120.3897
 4564.9896       8.5314     118.7160
 4564.8372       8.5320     127.4033
 4564.6848       8.5306     142.6306
 4564.5324       8.5331     151.2653
 4564.3800       8.5305     144.2226
 4564.2276       8.5336     129.1119
 4564.0752       8.5298     115.2264
 4563.9228       8.5307     114.9456
 4563.7704       8.5250     121.6178
 4563.6180       8.5275     121.0928
 4563.4656       8.5253     111.9203
 4563.3132       8.5071      98.2769
 4563.1608       8.5047      93.6095
 4563.0084       8.5056      98.2203
 4562.8560       8.5058     109.7822
 4562.7036       8.5032     121.3340
 4562.5512       8.4998     120.5101
 4562.3988       8.4824     108.6047
 4562.2464       8.4918     101.7256
 4562.0940       8.5057     103.2283
 4561.9416       8.5201     110.7764
