~VERSION INFORMATION
VERS.           2.0   :CWLS Log ASCII Standard - VERSION 2.0
WRAP.           NO    :One Line per depth step
PROD.  Schlumberger   :LAS Producer
PROG.  DLIS to ASCII 11C0-305                          :LAS Program name and version
CREA.        2003/11/16 09:47                          :LAS Creation date {YYYY/MM/DD hh:mm}
SOURCE.     AIT_MainPB1_027PUP.DLIS                    :DLIS File Name
FILE-ID.     AIT_MainPB1_027PUP                        :File Identification Number
#--------------------------------------------------
~WELL INFORMATION
#MNEM.UNIT      DATA             DESCRIPTION
#---- ------ --------------   -----------------------------
STRT .M      4869.0276       :START DEPTH     
STOP .M      3996.2328       :STOP DEPTH     
STEP .M        -0.1524       :STEP     
NULL .          -999.25      :NULL VALUE
COMP .        INPEX Browse, Ltd.                       :COMPANY
WELL .        ICHTHYS DEEP-1                           :WELL
FLD  .        WA-285-P                                 :FIELD
LOC  .        Datum: GDA94 Spheroid GRS80              :LOCATION
CNTY .        Ocean Bounty                             :COUNTY
STAT .        1:200                                    :STATE
CTRY .        Australia                                :COUNTRY
API  .                                                 :API NUMBER
UWI  .                                                 :UNIQUE WELL ID
DATE .        16-Nov-2003                              :LOG DATE {DD-MMM-YYYY}
SRVC .        Schlumberger                             :SERVICE COMPANY
LATI .DEG     13 51' 47.081" S                         :LATITUDE
LONG .DEG     123 13'  56.110" E                       :LONGITUDE
GDAT .                                                 :GeoDetic Datum
#-----------------------------------------------------------------------------
~PARAMETER INFORMATION
#MNEM.UNIT    VALUE                      DESCRIPTION
#---- -----   --------------------       ------------------------
RUN  .          Suite 3 Run 1            :RUN NUMBER
PDAT .        LAT                        :Permanent Datum
EPD  .M           0.000000               :Elevation of Permanent Datum above Mean Sea Level
EPD  .M           0.000000               :Elevation of tool zero above Mean Sea Level
LMF  .          Drill Floor              :Logging Measured From (Name of Logging Elevation Reference)
APD  .M          25.000000               :Elevation of Depth Reference (LMF) above Permanent Datum
#-----------------------------------------------------------------------------
~CURVE INFORMATION
#MNEM.UNIT   API CODE                                  DESCRIPTION
#---- -----  --------                                  -----------------------
DEPT .M                                                :DEPTH (BOREHOLE) {F10.4}
TENS .LBF                                              :Cable Tension {F13.4}
APLU .V/V                                              :APS Near/Array Uncorrected Limestone Porosity {F13.4}
RHOM .G/C3                                             :LDS Corrected Bulk Density {F13.4}
DRH  .G/C3                                             :LDS Bulk Density Correction {F13.4}
PEFL .                                                 :LDS Long-Spaced Corrected Photoelectric Effect {F13.4}
LCAL .IN                                               :LDS Caliper {F13.4}
HSGR .GAPI                                             :HNGS Standard Gamma Ray {F13.4}
CDF  .N                                                :Calibrated Downhole Force {F13.4}
APLC .V/V                                              :APS Near/Array Corrected Limestone Porosity {F13.4}
ATD2 .IN                                               :Array Induction Two Foot Outer Diameter of Invasion (D2) {F13.4}
ATD1 .IN                                               :Array Induction Two Foot Inner Diameter of Invasion(D1) {F13.4}
AOD2 .IN                                               :Array Induction One Foot Outer Diameter of Invasion (D2) {F13.4}
AOD1 .IN                                               :Array Induction One Foot Inner Diameter of Invasion (D1) {F13.4}
AT90 .OHMM                                             :Array Induction Two Foot Resistivity A90 {F13.4}
AT60 .OHMM                                             :Array Induction Two Foot Resistivity A60 {F13.4}
AT30 .OHMM                                             :Array Induction Two Foot Resistivity A30 {F13.4}
AT20 .OHMM                                             :Array Induction Two Foot Resistivity A20 {F13.4}
AT10 .OHMM                                             :Array Induction Two Foot Resistivity A10 {F13.4}
AO90 .OHMM                                             :Array Induction One Foot Resistivity A90 {F13.4}
AO60 .OHMM                                             :Array Induction One Foot Resistivity A60 {F13.4}
AO30 .OHMM                                             :Array Induction One Foot Resistivity A30 {F13.4}
AO20 .OHMM                                             :Array Induction One Foot Resistivity A20 {F13.4}
AO10 .OHMM                                             :Array Induction One Foot Resistivity A10 {F13.4}
SIGF .CU                                               :APS Formation Capture Cross-Section {F13.4}
ANEC .HZ                                               :APS Near Detector Count Rate {F13.4}
AFEC .HZ                                               :APS Far Detector Count Rate {F13.4}
A1EP .HZ                                               :APS Array-1 Detector Count Rate {F13.4}
A2EP .HZ                                               :APS Array-2 Detector Count Rate {F13.4}
AFTC .HZ                                               :APS Thermal Detector Count Rate {F13.4}
#-----------------------------------------------------------------------------
# 
#     DEPT        TENS         APLU         RHOM         DRH          PEFL         LCAL         HSGR         CDF          APLC         ATD2         ATD1         AOD2         AOD1         AT90         AT60         AT30         AT20         AT10         AO90         AO60         AO30         AO20         AO10         SIGF         ANEC         AFEC         A1EP         A2EP         AFTC
#
~A  
# ...
 4811.4204    6120.0000       0.0244       2.5875       0.0321       2.2893       9.1420      11.2363    5835.1553       0.0158      20.0415      19.9311      19.7055      19.7007    1480.8236    1950.0000    1516.0607     466.2964    1950.0000    1339.3164    1412.3849    1950.0000     359.5894    1950.0000       5.4948    3524.0000    3489.0000    3942.0000    4019.0000    8875.5977
 4811.2680    6093.0000       0.0213       2.6350       0.0744       2.2887       9.1019      11.4425    5884.1768       0.0119      18.8285      18.7149      18.3961      18.3896    1298.1331    1950.0000    1279.5659     431.3557    1950.0000    1380.1505    1525.5221    1928.3412     334.1839    1950.0000       5.1765    3426.0000    3433.0000    4049.0000    3949.0000    8955.0039
 4811.1156    6086.0000       0.0224       2.6125       0.0868       2.3158       8.8071      10.7010    5914.2222       0.0103      17.1828      17.1001      18.6391      18.6329    1104.7117    1950.0000    1059.3195     397.3228    1950.0000    1181.2450    1250.2355    1729.6145     317.3539    1950.0000       5.1514    3613.0000    3392.0000    3949.0000    4047.0000    8962.6885
 4810.9632    6055.0000       0.0296       2.5538       0.0748       2.6998       9.6461      11.3497    5925.2920       0.0154      17.2035      17.1611      20.2252      20.2187     929.6859    1887.4041     862.8210     372.1377    1950.0000     919.0114     859.1440    1448.0857     306.3250    1950.0000       5.7598    3411.0000    3065.0000    3825.0000    3891.0000    8752.6455
 4810.8108    6065.0000       0.0409       2.5242       0.0676       2.8280       9.4744      13.5357    5866.7817       0.0248      17.6152      17.5944      22.3680      22.3551     778.0268    1706.3844     707.9829     351.3540    1950.0000     659.1912     550.0995    1105.6464     300.9120    1950.0000       6.4157    3512.0000    2691.0000    3568.0000    3624.0000    8073.8481
 4810.6584    6118.0000       0.0491       2.5232       0.0546       2.7092       9.1047      16.8593    5983.8013       0.0331      17.7125      17.7021      24.3994      24.3800     657.9832    1389.2662     589.5593     325.6792    1950.0000     446.5369     376.5982     672.0721     228.9127    1950.0000       6.4734    3508.0000    2608.0000    3634.0000    3541.0000    7994.4414
 4810.5060    6070.0000       0.0460       2.5284       0.0203       2.4586       8.9920      17.0331    6031.2417       0.0331      18.2191      18.2120      26.0359      26.0208     543.8667    1005.1708     496.8125     310.2742    1950.0000     452.3073     371.8531     640.4072     265.3731    1950.0000       6.2671    3627.0000    2748.0000    3656.0000    3503.0000    8519.5488
 4810.3536    6108.0000       0.0399       2.5298       0.0042       2.4562       8.9525      14.6502    6056.5430       0.0305      19.8476      19.8384      26.8127      26.8052     435.4662     675.3505     417.1947     302.2021    1917.6736     403.1398     350.9037     527.0167     249.0069    1950.0000       6.3021    3706.0000    2714.0000    3926.0000    3816.0000    8534.9180
 4810.2012    6130.0000       0.0320       2.5408       0.0051       2.5739       8.9223      13.5586    6062.8687       0.0245      22.0627      22.0524      26.6317      26.6247     340.9893     455.6534     353.5651     279.2402    1750.2632     284.1440     255.9715     449.9016     225.7287    1950.0000       5.9896    3653.0000    3110.0000    4150.0000    3794.0000    9336.6680
 4810.0488    6126.0000       0.0296       2.5338       0.0021       2.5451       8.9180      13.9073    6222.5840       0.0240      24.2124      24.2045      25.8290      25.8162     245.1822     300.9128     281.7212     238.1373    1452.2722     228.2065     241.8864     327.7938     202.3038    1927.3202       5.9201    3707.0000    3135.0000    4157.0000    3925.0000    9264.9463
 4809.8964    6191.0000       0.0298       2.5396      -0.0006       2.3389       8.9191      13.9083    6100.8208       0.0254      25.7051      25.7012      25.2376      25.2178     177.0740     208.2902     214.7096     196.2138    1090.4369     249.2665     219.3550     315.3129     164.8296    1632.2205       6.5010    3638.0000    2992.0000    4088.0000    3954.0000    9247.0156
 4809.7440    6237.0000       0.0330       2.5373      -0.0047       2.1648       8.9194      10.6395    6029.6606       0.0292      26.7127      26.7096      25.1925      25.1694     123.4856     144.6254     151.6920     144.7317     764.2935     145.5911     150.1085     187.6510     115.0481    1062.0314       6.7975    3662.0000    2994.0000    4037.0000    3844.0000    9272.6309
 4809.5916    6209.0000       0.0355       2.5422      -0.0052       2.0699       8.9191       8.9592    6122.9595       0.0319      27.0979      27.0946      25.3965      25.3773      95.9412     107.1992     112.4342     109.0795     527.3558      91.3362      99.4958     130.6476      93.7772     566.9727       6.8118    3672.0000    2972.0000    3954.0000    3814.0000    9513.4111
 4809.4392    6218.0000       0.0361       2.5328      -0.0100       2.0428       8.9169       7.8217    6097.6582       0.0324      27.0492      27.0463      25.5688      25.5562      79.4218      87.5099      89.7184      87.8490     406.2985      84.8348      81.7109     101.3977      76.8107     348.8498       6.7184    3664.0000    2869.0000    3863.0000    3813.0000    9797.7383
 4809.2868    6313.0000       0.0371       2.5395      -0.0084       2.0348       8.9177       8.7365    6407.6016       0.0334      26.1725      26.1690      26.0197      26.0125      69.4502      76.2821      77.6311      77.0650     309.3180      60.8729      62.7101      71.7353      63.8713     210.8088       6.7520    3620.0000    2891.0000    3999.0000    3721.0000    9987.2891
 4809.1344    6196.0000       0.0352       2.5472      -0.0032       1.9936       8.9189       9.4040    6500.9004       0.0315      25.1122      25.1064      26.7118      26.7076      75.7348      85.5927      78.2925      78.0168     279.8058      67.5569      74.2865      77.8478      82.5699     199.9371       6.3960    3554.0000    2799.0000    3835.0000    3863.0000   10115.3643
 4808.9820    6391.0000       0.0366       2.5592       0.0079       1.9881       8.9151       9.9170    6603.6875       0.0330      24.7284      24.7214      27.2744      27.2718      84.2509      96.1045      88.5928      87.1148     307.8555      79.9762      91.2388      91.6208      89.1569     247.4998       6.5816    3681.0000    2854.0000    3937.0000    3835.0000    9831.0371
 4808.8296    6383.0000       0.0376       2.5644       0.0311       2.0632       8.9177       8.8631    6750.7524       0.0339      24.8624      24.8558      27.6956      27.6937      96.8408     110.8905     103.8208     100.7730     377.8658      83.1100      88.1589     100.5735     103.3965     325.0254       6.7446    3603.0000    2888.0000    3850.0000    3826.0000   10256.2461
 4808.6772    6444.0000       0.0370       2.5327       0.0436       2.2901       8.9354       7.9620    6877.2603       0.0332      25.2463      25.2412      28.2231      28.2217     118.9476     139.1427     126.7224     120.2134     493.3190     115.6822     127.4561     130.5865     127.7100     499.5477       6.9407    3737.0000    2789.0000    3847.0000    3855.0000    9928.3750
 4808.5248    6497.0000       0.0352       2.5278       0.0703       2.8634       9.0483       8.9228    6927.8628       0.0314      25.5755      25.5724      28.0276      28.0240     155.1447     186.8958     164.5673     150.8249     685.8176     171.1177     180.7005     193.2475     167.7048     847.1235       6.8159    3699.0000    3007.0000    3916.0000    3964.0000   10171.7168
 4808.3724    6395.0000       0.0345       2.5500       0.0962       3.2424       8.9971      10.8491    6447.1348       0.0286      25.0448      25.0430      26.9025      26.8899     207.5177     260.6071     222.3723     195.2377     990.5209     260.3771     256.4141     350.8665     269.7905    1418.0305       6.6969    3591.0000    3146.0000    3876.0000    3861.0000    9861.7754
