~VERSION INFORMATION
VERS.           2.0   :CWLS Log ASCII Standard - VERSION 2.0
WRAP.           NO    :One Line per depth step
PROD.  Schlumberger   :LAS Producer
PROG.  DLIS to ASCII 11C0-305                          :LAS Program name and version
CREA.        2003/11/19 08:49                          :LAS Creation date {YYYY/MM/DD hh:mm}
SOURCE.     AIT_LDL_APS_NGS_011PUP.DLIS                :DLIS File Name
FILE-ID.     AIT_LDL_APS_NGS_011PUP                    :File Identification Number
#--------------------------------------------------
~WELL INFORMATION
#MNEM.UNIT      DATA             DESCRIPTION
#---- ------ --------------   -----------------------------
STRT .M      4859.4264       :START DEPTH     
STOP .M      4018.3308       :STOP DEPTH     
STEP .M        -0.1524       :STEP     
NULL .          -999.25      :NULL VALUE
COMP .        INPEX Browse, Ltd.                       :COMPANY
WELL .        ICHTHYS DEEP-1                           :WELL
FLD  .        WA-285-P                                 :FIELD
LOC  .        Datum: GDA94 Spheroid GRS80              :LOCATION
CNTY .        Ocean Bounty                             :COUNTY
STAT .        1:200                                    :STATE
CTRY .        Australia                                :COUNTRY
API  .                                                 :API NUMBER
UWI  .                                                 :UNIQUE WELL ID
DATE .        16-Nov-2003                              :LOG DATE {DD-MMM-YYYY}
SRVC .        Schlumberger                             :SERVICE COMPANY
LATI .DEG     13 51' 47.081" S                         :LATITUDE
LONG .DEG     123 13'  56.110" E                       :LONGITUDE
GDAT .                                                 :GeoDetic Datum
#-----------------------------------------------------------------------------
~PARAMETER INFORMATION
#MNEM.UNIT    VALUE                      DESCRIPTION
#---- -----   --------------------       ------------------------
RUN  .          Suite 3 Run 1            :RUN NUMBER
PDAT .        LAT                        :Permanent Datum
EPD  .M           0.000000               :Elevation of Permanent Datum above Mean Sea Level
EPD  .M           0.000000               :Elevation of tool zero above Mean Sea Level
LMF  .          Drill Floor              :Logging Measured From (Name of Logging Elevation Reference)
APD  .M          25.000000               :Elevation of Depth Reference (LMF) above Permanent Datum
#-----------------------------------------------------------------------------
~CURVE INFORMATION
#MNEM.UNIT   API CODE                                  DESCRIPTION
#---- -----  --------                                  -----------------------
DEPT .M                                                :DEPTH (BOREHOLE) {F10.4}
RHOM .G/C3                                             :LDS Corrected Bulk Density {F13.4}
DRH  .G/C3                                             :LDS Bulk Density Correction {F13.4}
PEFL .                                                 :LDS Long-Spaced Corrected Photoelectric Effect {F13.4}
#-----------------------------------------------------------------------------
# 
#     DEPT        RHOM         DRH          PEFL
#
~A  
# ...
 4688.7384       2.4540       0.3382       5.5367
 4688.5860       2.2308       0.2478       6.5798
 4688.4336       1.9385       0.1664       6.7483
 4688.2812       1.7697       0.1216       6.9141
 4688.1288       1.6629       0.0856       6.4100
 4687.9764       1.6761       0.0716       6.5239
 4687.8240       1.8009       0.0979       5.5494
 4687.6716       2.0099       0.1369       5.1573
 4687.5192       2.2451       0.1590       4.6841
 4687.3668       2.4244       0.1784       4.9430
 4687.2144       2.4944       0.1671       4.5468
 4687.0620       2.5590       0.1567       3.7413
 4686.9096       2.5752       0.1346       3.1169
 4686.7572       2.5178       0.1241       2.9675
 4686.6048       2.4254       0.1130       3.4993
 4686.4524       2.3567       0.1242       4.3292
 4686.3000       2.3395       0.1501       4.9391
 4686.1476       2.3998       0.1959       4.6775
 4685.9952       2.3924       0.1938       4.5105
 4685.8428       2.3790       0.1745       4.4935
 4685.6904       2.3855       0.1461       3.9117
 4685.5380       2.4646       0.1274       3.3552
 4685.3856       2.5739       0.1236       2.7545
 4685.2332       2.6275       0.1920       2.7938
 4685.0808       2.5069       0.2257       3.8449
 4684.9284       2.3641       0.2449       5.8537
 4684.7760       2.3551       0.2931       6.6165
 4684.6236       2.4447       0.3476       5.9697
 4684.4712       2.5394       0.3448       5.3507
 4684.3188       2.6039       0.3608       4.7657
 4684.1664       2.6314       0.3756       4.8593
 4684.0140       2.6095       0.3477       4.9895
 4683.8616       2.5975       0.2990       4.6862
 4683.7092       2.6067       0.2431       4.0266
 4683.5568       2.6239       0.1710       3.3391
 4683.4044       2.6419       0.1130       3.0104
 4683.2520       2.6517       0.0847       2.7149
 4683.0996       2.6946       0.1330       2.7167
 4682.9472       2.6867       0.1815       2.9847
 4682.7948       2.5816       0.2111       3.9306
 4682.6424       2.4005       0.2162       4.4593
 4682.4900       2.1435       0.2044       4.4152
 4682.3376       1.9626       0.1622       4.5527
 4682.1852       1.8823       0.1549       4.8528
 4682.0328       1.9510       0.1452       5.2770
 4681.8804       2.1423       0.1709       5.2235
 4681.7280       2.4732       0.2696       4.9103
 4681.5756       2.6166       0.3269       4.6744
 4681.4232       2.5872       0.3475       4.8851
 4681.2708       2.5487       0.3525       5.1954
 4681.1184       2.5491       0.3480       4.8189
 4680.9660       2.5211       0.2912       4.4831
 4680.8136       2.5092       0.2093       4.0236
 4680.6612       2.5351       0.1286       3.3876
 4680.5088       2.6171       0.1001       2.9904
 4680.3564       2.6466       0.0818       2.8644
 4680.2040       2.6141       0.0666       2.9785
 4680.0516       2.5540       0.0733       3.0534
 4679.8992       2.5428       0.1190       3.4712
 4679.7468       2.5554       0.1653       4.2019
 4679.5944       2.5903       0.2135       5.1191
 4679.4420       2.5518       0.2342       5.0191
 4679.2896       2.4710       0.2689       4.5608
 4679.1372       2.4149       0.2715       4.2840
 4678.9848       2.3679       0.2708       4.8108
 4678.8324       2.3925       0.2998       6.1538
 4678.6800       2.3871       0.3079       8.5423
 4678.5276       2.4802       0.2996       9.6193
 4678.3752       2.6766       0.3291       9.2700
 4678.2228       2.9277       0.3763       8.0076
 4678.0704       2.9403       0.3583       6.9410
 4677.9180       2.8787       0.3303       7.0839
 4677.7656       2.8706       0.3611       8.5269
 4677.6132       2.8042       0.3746       8.1240
 4677.4608       2.6962       0.3443       6.4106
 4677.3084       2.5717       0.2731       4.5471
 4677.1560       2.6052       0.2636       4.0263
 4677.0036       2.7001       0.2636       4.0499
 4676.8512       2.7562       0.2498       4.8861
 4676.6988       2.7528       0.2456       6.2478
 4676.5464       2.7585       0.2395       6.7901
 4676.3940       2.8661       0.2820       6.7167
 4676.2416       2.9619       0.3356       6.5958
 4676.0892       2.9007       0.3600       6.3312
 4675.9368       2.7594       0.3664       7.5626
 4675.7844       2.6946       0.4169       8.5234
 4675.6320       2.7098       0.4206       8.9356
 4675.4796       2.7163       0.3577       7.8218
 4675.3272       2.7531       0.2818       6.8658
 4675.1748       2.7359       0.1965       6.1002
 4675.0224       2.7220       0.1036       5.8156
 4674.8700       2.7364       0.0625       5.3223
 4674.7176       2.7338       0.0429       4.7649
 4674.5652       2.7118       0.0290       4.6699
 4674.4128       2.7281       0.0273       4.8708
 4674.2604       2.7367       0.0378       5.0053
 4674.1080       2.7354       0.0384       5.2126
 4673.9556       2.7316       0.0397       5.2097
 4673.8032       2.7228       0.0374       4.9549
 4673.6508       2.7238       0.0389       4.8716
 4673.4984       2.7245       0.0424       4.9978
 4673.3460       2.7156       0.0422       5.0593
 4673.1936       2.6987       0.0386       4.8449
 4673.0412       2.6866       0.0410       4.6348
 4672.8888       2.6932       0.0420       4.7798
 4672.7364       2.7021       0.0429       4.6930
 4672.5840       2.7223       0.0510       4.7326
 4672.4316       2.7193       0.0523       4.3791
 4672.2792       2.7146       0.0529       4.7506
 4672.1268       2.7043       0.0560       4.7618
 4671.9744       2.7136       0.0786       5.1105
 4671.8220       2.7084       0.0990       4.9769
 4671.6696       2.6807       0.1184       4.8413
 4671.5172       2.6392       0.1195       4.7733
 4671.3648       2.5774       0.1119       4.4650
 4671.2124       2.5231       0.0927       4.4041
 4671.0600       2.4740       0.0756       4.3069
 4670.9076       2.4444       0.0674       4.3868
 4670.7552       2.4363       0.0794       4.5642
 4670.6028       2.4348       0.0941       4.6493
 4670.4504       2.4318       0.1029       4.7885
 4670.2980       2.4235       0.0957       4.9419
 4670.1456       2.4319       0.0815       5.0487
 4669.9932       2.4936       0.0854       5.0223
 4669.8408       2.5580       0.0853       4.7400
 4669.6884       2.5926       0.0818       5.0484
 4669.5360       2.5993       0.0854       5.6973
 4669.3836       2.6084       0.0985       6.0118
 4669.2312       2.5943       0.0903       6.0043
 4669.0788       2.5870       0.0937       5.6627
 4668.9264       2.6032       0.1096       5.7022
 4668.7740       2.5992       0.1116       5.4213
 4668.6216       2.5974       0.1093       5.3820
 4668.4692       2.5946       0.1014       5.5127
 4668.3168       2.5854       0.0850       5.2312
 4668.1644       2.6001       0.0695       5.2095
 4668.0120       2.6141       0.0658       4.9948
 4667.8596       2.6412       0.0651       4.9406
 4667.7072       2.6527       0.0679       4.5474
 4667.5548       2.6572       0.0666       4.3928
 4667.4024       2.6600       0.0583       4.4156
 4667.2500       2.6595       0.0488       4.5210
 4667.0976       2.6654       0.0438       4.6586
 4666.9452       2.6529       0.0336       4.7918
 4666.7928       2.6560       0.0330       5.2935
 4666.6404       2.6691       0.0373       5.4614
 4666.4880       2.6766       0.0396       5.3691
 4666.3356       2.6912       0.0456       5.1935
 4666.1832       2.7136       0.0656       5.1033
 4666.0308       2.7725       0.1217       5.7457
 4665.8784       2.8127       0.2025       5.8822
 4665.7260       2.7725       0.2457       6.3437
 4665.5736       2.7386       0.2914       6.9927
 4665.4212       2.7223       0.3192       7.2366
 4665.2688       2.7202       0.3289       7.4366
 4665.1164       2.7523       0.3648       7.1363
 4664.9640       2.7476       0.3751       6.9498
 4664.8116       2.7135       0.3650       6.9909
 4664.6592       2.7382       0.3700       6.8432
 4664.5068       2.7231       0.3568       7.1227
