~VERSION INFORMATION
VERS.           2.0   :CWLS Log ASCII Standard - VERSION 2.0
WRAP.           NO    :One Line per depth step
PROD.  Schlumberger   :LAS Producer
PROG.  DLIS to ASCII 11C0-305                          :LAS Program name and version
CREA.        2003/11/19 08:49                          :LAS Creation date {YYYY/MM/DD hh:mm}
SOURCE.     AIT_LDL_APS_NGS_011PUP.DLIS                :DLIS File Name
FILE-ID.     AIT_LDL_APS_NGS_011PUP                    :File Identification Number
#--------------------------------------------------
~WELL INFORMATION
#MNEM.UNIT      DATA             DESCRIPTION
#---- ------ --------------   -----------------------------
STRT .M      4859.4264       :START DEPTH     
STOP .M      4018.3308       :STOP DEPTH     
STEP .M        -0.1524       :STEP     
NULL .          -999.25      :NULL VALUE
COMP .        INPEX Browse, Ltd.                       :COMPANY
WELL .        ICHTHYS DEEP-1                           :WELL
FLD  .        WA-285-P                                 :FIELD
LOC  .        Datum: GDA94 Spheroid GRS80              :LOCATION
CNTY .        Ocean Bounty                             :COUNTY
STAT .        1:200                                    :STATE
CTRY .        Australia                                :COUNTRY
API  .                                                 :API NUMBER
UWI  .                                                 :UNIQUE WELL ID
DATE .        16-Nov-2003                              :LOG DATE {DD-MMM-YYYY}
SRVC .        Schlumberger                             :SERVICE COMPANY
LATI .DEG     13 51' 47.081" S                         :LATITUDE
LONG .DEG     123 13'  56.110" E                       :LONGITUDE
GDAT .                                                 :GeoDetic Datum
#-----------------------------------------------------------------------------
~PARAMETER INFORMATION
#MNEM.UNIT    VALUE                      DESCRIPTION
#---- -----   --------------------       ------------------------
RUN  .          Suite 3 Run 1            :RUN NUMBER
PDAT .        LAT                        :Permanent Datum
EPD  .M           0.000000               :Elevation of Permanent Datum above Mean Sea Level
EPD  .M           0.000000               :Elevation of tool zero above Mean Sea Level
LMF  .          Drill Floor              :Logging Measured From (Name of Logging Elevation Reference)
APD  .M          25.000000               :Elevation of Depth Reference (LMF) above Permanent Datum
#-----------------------------------------------------------------------------
~CURVE INFORMATION
#MNEM.UNIT   API CODE                                  DESCRIPTION
#---- -----  --------                                  -----------------------
DEPT .M                                                :DEPTH (BOREHOLE) {F10.4}
RHOM .G/C3                                             :LDS Corrected Bulk Density {F13.4}
DRH  .G/C3                                             :LDS Bulk Density Correction {F13.4}
PEFL .                                                 :LDS Long-Spaced Corrected Photoelectric Effect {F13.4}
#-----------------------------------------------------------------------------
# 
#     DEPT        RHOM         DRH          PEFL
#
~A  
# ...
 4298.5944       2.6539       0.0770       3.5043
 4298.4420       2.6527       0.0713       3.9211
 4298.2896       2.6539       0.0707       3.8266
 4298.1372       2.6267       0.0669       3.3482
 4297.9848       2.5825       0.0492       3.1210
 4297.8324       2.5386       0.0358       3.1028
 4297.6800       2.5382       0.0420       2.9402
 4297.5276       2.5260       0.0411       2.8114
 4297.3752       2.5086       0.0303       2.8733
 4297.2228       2.4928       0.0190       3.2982
 4297.0704       2.5301       0.0400       3.2686
 4296.9180       2.5702       0.0732       3.2095
 4296.7656       2.5751       0.0828       3.5276
 4296.6132       2.5756       0.0930       4.0657
 4296.4608       2.5904       0.1016       4.0320
 4296.3084       2.5959       0.0991       3.4165
 4296.1560       2.5862       0.0764       3.0059
 4296.0036       2.5920       0.0729       2.8004
 4295.8512       2.5993       0.0741       2.6277
 4295.6988       2.6423       0.1200       2.8237
 4295.5464       2.6315       0.1586       3.5774
 4295.3940       2.5397       0.1352       5.2624
 4295.2416       2.5214       0.1255       6.3595
 4295.0892       2.6006       0.1305       5.6213
 4294.9368       2.7245       0.1229       4.9580
 4294.7844       2.7547       0.0710       4.4626
 4294.6320       2.7653       0.0664       4.7071
 4294.4796       2.7753       0.0708       4.2294
 4294.3272       2.7601       0.0735       4.0890
 4294.1748       2.7278       0.0750       4.2374
 4294.0224       2.7067       0.0683       4.5214
 4293.8700       2.7044       0.0889       4.4447
 4293.7176       2.7176       0.0862       4.4311
 4293.5652       2.7004       0.0739       4.1978
 4293.4128       2.7157       0.0569       4.0342
 4293.2604       2.7192       0.0576       3.5919
 4293.1080       2.7184       0.0414       3.5224
 4292.9556       2.7140       0.0437       3.7575
 4292.8032       2.7182       0.0479       3.8768
 4292.6508       2.7029       0.0433       3.8932
 4292.4984       2.7211       0.0829       4.2163
 4292.3460       2.7668       0.1494       4.5879
 4292.1936       2.7341       0.1435       4.7027
 4292.0412       2.7099       0.1340       4.3706
 4291.8888       2.7308       0.1292       4.2936
 4291.7364       2.7567       0.0971       4.8898
 4291.5840       2.7447       0.0247       4.7422
 4291.4316       2.7171       0.0133       4.5760
 4291.2792       2.7084       0.0175       4.4202
 4291.1268       2.7031       0.0218       4.2106
 4290.9744       2.7163       0.0279       3.9294
 4290.8220       2.7002       0.0251       3.2978
 4290.6696       2.6908       0.0213       3.3183
 4290.5172       2.6864       0.0146       3.4919
 4290.3648       2.7041       0.0177       3.5949
 4290.2124       2.7356       0.0319       3.9679
 4290.0600       2.7713       0.0462       3.9976
 4289.9076       2.7800       0.0406       3.7738
 4289.7552       2.8121       0.0521       4.0846
 4289.6028       2.8402       0.0635       4.1962
 4289.4504       2.7967       0.0501       4.6596
 4289.2980       2.7402       0.0291       3.8832
 4289.1456       2.7540       0.0498       3.7344
 4288.9932       2.7795       0.0587       4.0059
 4288.8408       2.7687       0.0584       4.2028
 4288.6884       2.7303       0.0546       4.3085
 4288.5360       2.7343       0.0625       4.4146
 4288.3836       2.7476       0.0651       4.1203
 4288.2312       2.7498       0.0681       4.1061
 4288.0788       2.7235       0.0614       3.9398
 4287.9264       2.7332       0.0685       3.9895
 4287.7740       2.7326       0.0676       3.4594
 4287.6216       2.7402       0.0564       3.3264
 4287.4692       2.7361       0.0429       3.5271
 4287.3168       2.7458       0.0374       4.2890
 4287.1644       2.7210       0.0204       4.2971
 4287.0120       2.6932       0.0144       4.0311
 4286.8596       2.6881       0.0205       3.9303
 4286.7072       2.6835       0.0228       3.8776
 4286.5548       2.6935       0.0277       3.8362
 4286.4024       2.7028       0.0363       3.6138
 4286.2500       2.7054       0.0423       3.5695
 4286.0976       2.6944       0.0393       3.5237
 4285.9452       2.6971       0.0466       3.9382
 4285.7928       2.7057       0.0545       4.0232
 4285.6404       2.7050       0.0500       4.1146
 4285.4880       2.7069       0.0494       3.7272
 4285.3356       2.7044       0.0449       3.7234
 4285.1832       2.7543       0.0541       3.7824
 4285.0308       2.8473       0.1193       4.1842
 4284.8784       2.7974       0.1271       4.5598
 4284.7260       2.6834       0.0946       5.0256
 4284.5736       2.6517       0.0903       4.9721
 4284.4212       2.7350       0.1095       4.4400
 4284.2688       2.7353       0.0644       3.8423
 4284.1164       2.7089       0.0394       3.3649
 4283.9640       2.6821       0.0296       3.4993
 4283.8116       2.6864       0.0215       3.6851
 4283.6592       2.7388       0.0235       4.3694
 4283.5068       2.7600       0.0280       4.3902
 4283.3544       2.7344       0.0170       4.0719
 4283.2020       2.6990       0.0193       3.6458
 4283.0496       2.6938       0.0185       3.6997
 4282.8972       2.7213       0.0302       4.0370
 4282.7448       2.7029       0.0222       3.9050
 4282.5924       2.7083       0.0291       4.1616
 4282.4400       2.7161       0.0313       4.0945
 4282.2876       2.7746       0.0598       4.3727
 4282.1352       2.7529       0.0522       4.0152
 4281.9828       2.7225       0.0501       3.8249
 4281.8304       2.6941       0.0449       3.4115
 4281.6780       2.7198       0.0422       3.6861
 4281.5256       2.7746       0.0497       4.0929
 4281.3732       2.8282       0.0821       4.7181
 4281.2208       2.7891       0.0847       4.6139
 4281.0684       2.7281       0.0761       4.3344
 4280.9160       2.7175       0.1004       4.4674
 4280.7636       2.7208       0.1111       4.3736
 4280.6112       2.7211       0.1165       4.3123
 4280.4588       2.7501       0.1435       4.4783
 4280.3064       2.7633       0.1866       4.7181
 4280.1540       2.7296       0.1864       4.9377
 4280.0016       2.7187       0.2140       4.8400
 4279.8492       2.7262       0.2168       5.1414
 4279.6968       2.7154       0.2146       4.8031
 4279.5444       2.7081       0.1965       5.0401
 4279.3920       2.6920       0.1738       4.9964
 4279.2396       2.6642       0.1561       5.1192
 4279.0872       2.6534       0.1923       5.7196
 4278.9348       2.6044       0.2066       7.3936
 4278.7824       2.5595       0.1765       8.6044
 4278.6300       2.5778       0.1825       6.5561
 4278.4776       2.5845       0.1617       4.3792
 4278.3252       2.5085       0.1037       3.2386
 4278.1728       2.4217       0.0376       2.6020
 4278.0204       2.4081       0.0327       2.3661
 4277.8680       2.4271       0.0283       2.3259
 4277.7156       2.4523       0.0338       2.4142
 4277.5632       2.4444       0.0272       2.5032
 4277.4108       2.4503       0.0307       2.7446
 4277.2584       2.4523       0.0280       2.9291
 4277.1060       2.4793       0.0418       2.9803
 4276.9536       2.4832       0.0427       2.8795
 4276.8012       2.4903       0.0449       2.7684
 4276.6488       2.4887       0.0457       2.7325
 4276.4964       2.4940       0.0472       2.5925
 4276.3440       2.4844       0.0436       2.4566
 4276.1916       2.4770       0.0368       2.5240
 4276.0392       2.4693       0.0295       2.6230
 4275.8868       2.4754       0.0229       2.7524
 4275.7344       2.4885       0.0233       2.5798
 4275.5820       2.4947       0.0194       2.5754
 4275.4296       2.4961       0.0195       2.6571
 4275.2772       2.5144       0.0268       3.0246
 4275.1248       2.5543       0.0319       3.3887
 4274.9724       2.6238       0.0430       3.7498
 4274.8200       2.6970       0.0636       3.8651
 4274.6676       2.7195       0.0684       3.6367
 4274.5152       2.7057       0.0472       3.7036
 4274.3628       2.7555       0.0562       4.4928
