~VERSION INFORMATION
VERS.           2.0   :CWLS Log ASCII Standard - VERSION 2.0
WRAP.           NO    :One Line per depth step
PROD.  Schlumberger   :LAS Producer
PROG.  DLIS to ASCII 11C0-305                          :LAS Program name and version
CREA.        2003/11/16 09:47                          :LAS Creation date {YYYY/MM/DD hh:mm}
SOURCE.     AIT_MainPB1_027PUP.DLIS                    :DLIS File Name
FILE-ID.     AIT_MainPB1_027PUP                        :File Identification Number
#--------------------------------------------------
~WELL INFORMATION
#MNEM.UNIT      DATA             DESCRIPTION
#---- ------ --------------   -----------------------------
STRT .M      4869.0276       :START DEPTH     
STOP .M      3996.2328       :STOP DEPTH     
STEP .M        -0.1524       :STEP     
NULL .          -999.25      :NULL VALUE
COMP .        INPEX Browse, Ltd.                       :COMPANY
WELL .        ICHTHYS DEEP-1                           :WELL
FLD  .        WA-285-P                                 :FIELD
LOC  .        Datum: GDA94 Spheroid GRS80              :LOCATION
CNTY .        Ocean Bounty                             :COUNTY
STAT .        1:200                                    :STATE
CTRY .        Australia                                :COUNTRY
API  .                                                 :API NUMBER
UWI  .                                                 :UNIQUE WELL ID
DATE .        16-Nov-2003                              :LOG DATE {DD-MMM-YYYY}
SRVC .        Schlumberger                             :SERVICE COMPANY
LATI .DEG     13 51' 47.081" S                         :LATITUDE
LONG .DEG     123 13'  56.110" E                       :LONGITUDE
GDAT .                                                 :GeoDetic Datum
#-----------------------------------------------------------------------------
~PARAMETER INFORMATION
#MNEM.UNIT    VALUE                      DESCRIPTION
#---- -----   --------------------       ------------------------
RUN  .          Suite 3 Run 1            :RUN NUMBER
PDAT .        LAT                        :Permanent Datum
EPD  .M           0.000000               :Elevation of Permanent Datum above Mean Sea Level
EPD  .M           0.000000               :Elevation of tool zero above Mean Sea Level
LMF  .          Drill Floor              :Logging Measured From (Name of Logging Elevation Reference)
APD  .M          25.000000               :Elevation of Depth Reference (LMF) above Permanent Datum
#-----------------------------------------------------------------------------
~CURVE INFORMATION
#MNEM.UNIT   API CODE                                  DESCRIPTION
#---- -----  --------                                  -----------------------
DEPT .M                                                :DEPTH (BOREHOLE) {F10.4}
TENS .LBF                                              :Cable Tension {F13.4}
APLU .V/V                                              :APS Near/Array Uncorrected Limestone Porosity {F13.4}
RHOM .G/C3                                             :LDS Corrected Bulk Density {F13.4}
DRH  .G/C3                                             :LDS Bulk Density Correction {F13.4}
PEFL .                                                 :LDS Long-Spaced Corrected Photoelectric Effect {F13.4}
LCAL .IN                                               :LDS Caliper {F13.4}
HSGR .GAPI                                             :HNGS Standard Gamma Ray {F13.4}
CDF  .N                                                :Calibrated Downhole Force {F13.4}
APLC .V/V                                              :APS Near/Array Corrected Limestone Porosity {F13.4}
ATD2 .IN                                               :Array Induction Two Foot Outer Diameter of Invasion (D2) {F13.4}
ATD1 .IN                                               :Array Induction Two Foot Inner Diameter of Invasion(D1) {F13.4}
AOD2 .IN                                               :Array Induction One Foot Outer Diameter of Invasion (D2) {F13.4}
AOD1 .IN                                               :Array Induction One Foot Inner Diameter of Invasion (D1) {F13.4}
AT90 .OHMM                                             :Array Induction Two Foot Resistivity A90 {F13.4}
AT60 .OHMM                                             :Array Induction Two Foot Resistivity A60 {F13.4}
AT30 .OHMM                                             :Array Induction Two Foot Resistivity A30 {F13.4}
AT20 .OHMM                                             :Array Induction Two Foot Resistivity A20 {F13.4}
AT10 .OHMM                                             :Array Induction Two Foot Resistivity A10 {F13.4}
AO90 .OHMM                                             :Array Induction One Foot Resistivity A90 {F13.4}
AO60 .OHMM                                             :Array Induction One Foot Resistivity A60 {F13.4}
AO30 .OHMM                                             :Array Induction One Foot Resistivity A30 {F13.4}
AO20 .OHMM                                             :Array Induction One Foot Resistivity A20 {F13.4}
AO10 .OHMM                                             :Array Induction One Foot Resistivity A10 {F13.4}
SIGF .CU                                               :APS Formation Capture Cross-Section {F13.4}
ANEC .HZ                                               :APS Near Detector Count Rate {F13.4}
AFEC .HZ                                               :APS Far Detector Count Rate {F13.4}
A1EP .HZ                                               :APS Array-1 Detector Count Rate {F13.4}
A2EP .HZ                                               :APS Array-2 Detector Count Rate {F13.4}
AFTC .HZ                                               :APS Thermal Detector Count Rate {F13.4}
#-----------------------------------------------------------------------------
# 
#     DEPT        TENS         APLU         RHOM         DRH          PEFL         LCAL         HSGR         CDF          APLC         ATD2         ATD1         AOD2         AOD1         AT90         AT60         AT30         AT20         AT10         AO90         AO60         AO30         AO20         AO10         SIGF         ANEC         AFEC         A1EP         A2EP         AFTC
#
~A  
# ...
 3998.5188    5335.0000       0.3489       2.8139      -0.0079    -999.2500       8.7234      89.3866    5869.9448       0.3420     109.9556     109.5132     236.3414     233.9420       4.1360       4.1552       5.5790       7.3832       7.2769       4.2172       4.0490       5.6146       8.0368       6.7471      28.8081    2816.0000     593.3333    1616.0000    1625.0000    1280.7500
 3998.3664    5331.0000       0.3683       2.8139      -0.0079    -999.2500       8.7252      91.2193    5854.1313       0.3613     109.9556     109.5132     236.3414     233.9420       4.1360       4.1552       5.5790       7.3832       7.2769       4.2172       4.0490       5.6146       8.0368       6.7471      31.3247    2759.0000     602.0000    1581.0000    1618.0000    1209.0281
 3998.2140    5347.0000       0.3641       2.8139      -0.0079    -999.2500       8.7252      90.9526    5860.4565       0.3571     109.9556     109.5132     236.3414     233.9420       4.1360       4.1552       5.5790       7.3832       7.2769       4.2172       4.0490       5.6146       8.0368       6.7471      31.1180    2822.0000     537.0000    1574.0000    1539.0000    1191.0974
 3998.0616    5369.0000       0.3602       2.8139      -0.0079    -999.2500       8.7237      87.0675    5865.2007       0.3532     109.9556     109.5132     236.3414     233.9420       4.1360       4.1552       5.5790       7.3832       7.2769       4.2172       4.0490       5.6146       8.0368       6.7471      30.9559    2733.0000     590.0000    1577.0000    1627.0000    1244.8890
 3997.9092    5349.0000       0.3659       2.8139      -0.0079    -999.2500       8.7234      82.6514    5858.8755       0.3589     109.9556     109.5132     236.3414     233.9420       4.1360       4.1552       5.5790       7.3832       7.2769       4.2172       4.0490       5.6146       8.0368       6.7471      30.9876    2727.0000     559.0000    1577.0000    1598.0000    1170.6055
 3997.7568    5445.0000       0.3694       2.8139      -0.0079    -999.2500       8.7233      80.4985    5844.6436       0.3624     109.9556     109.5132     236.3414     233.9420       4.1360       4.1552       5.5790       7.3832       7.2769       4.2172       4.0490       5.6146       8.0368       6.7471      32.2468    2726.0000     567.0000    1580.0000    1523.0000    1096.3220
 3997.6044    5389.0000       0.3843       2.8139      -0.0079    -999.2500       8.7252      78.1415    5881.0137       0.3772     109.9556     109.5132     236.3414     233.9420       4.1360       4.1552       5.5790       7.3832       7.2769       4.2172       4.0490       5.6146       8.0368       6.7471      33.3951    2821.0000     583.0000    1562.0000    1628.0000    1083.5145
 3997.4520    5382.0000       0.3840       2.8139      -0.0079    -999.2500       8.7252      76.4324    5835.1553       0.3769     109.9556     109.5132     236.3414     233.9420       4.1360       4.1552       5.5790       7.3832       7.2769       4.2172       4.0490       5.6146       8.0368       6.7471      35.1890    2853.0000     532.0000    1611.0000    1568.0000    1250.0121
 3997.2996    5360.0000       0.3825       2.8139      -0.0079    -999.2500       8.7237      74.3689    5825.6670       0.3754     109.9556     109.5132     236.3414     233.9420       4.1360       4.1552       5.5790       7.3832       7.2769       4.2172       4.0490       5.6146       8.0368       6.7471      34.4062    2926.0000     556.0000    1571.0000    1571.0000    1155.2366
 3997.1472    5353.0000       0.3809       2.8139      -0.0079    -999.2500       8.7234      70.3758    5850.9688       0.3738     109.9556     109.5132     236.3414     233.9420       4.1360       4.1552       5.5790       7.3832       7.2769       4.2172       4.0490       5.6146       8.0368       6.7471      32.2848    2777.0000     596.0000    1681.0000    1615.0000    1226.1046
 3996.9948    5392.0000       0.3703       2.8139      -0.0079    -999.2500       8.7254      70.7383    5828.8296       0.3632     109.9556     109.5132     236.3414     233.9420       4.1360       4.1552       5.5790       7.3832       7.2769       4.2172       4.0490       5.6146       8.0368       6.7471      32.9038    2856.0000     577.0000    1597.3334    1616.0000    1206.4666
 3996.8424    5406.0000       0.3782       2.8139      -0.0079    -999.2500       8.7234      72.5518    5850.9688       0.3711     109.9556     109.5132     236.3414     233.9420       4.1360       4.1552       5.5790       7.3832       7.2769       4.2172       4.0490       5.6146       8.0368       6.7471      34.5468    2855.0000     655.0000    1640.0000    1559.0000    1290.9961
 3996.6900    5308.0000       0.3828       2.8139      -0.0079    -999.2500       8.7249      72.5518    5855.7124       0.3758     109.9556     109.5132     236.3414     233.9420       4.1360       4.1552       5.5790       7.3832       7.2769       4.2172       4.0490       5.6146       8.0368       6.7471      34.6227    2805.0000     578.6667    1585.0000    1585.0000    1152.6750
 3996.5376    5327.0000       0.3842       2.8139      -0.0079    -999.2500       8.7237      72.5518    5854.1313       0.3771     109.9556     109.5132     236.3414     233.9420       4.1360       4.1552       5.5790       7.3832       7.2769       4.2172       4.0490       5.6146       8.0368       6.7471      35.8491    2832.0000     562.0000    1597.0000    1608.0000    1160.3595
 3996.3852    5357.0000       0.3875       2.8139      -0.0079    -999.2500       8.7234      72.5518    5858.8755       0.3804     109.9556     109.5132     236.3414     233.9420       4.1360       4.1552       5.5790       7.3832       7.2769       4.2172       4.0490       5.6146       8.0368       6.7471      40.7682    2815.0000     575.0000    1556.0000    1540.0000    1165.4825
 3996.2328    5373.0000       0.3833       2.8139      -0.0079    -999.2500       8.7252      72.5518    5866.7817       0.3762     109.9556     109.5132     236.3414     233.9420       4.1360       4.1552       5.5790       7.3832       7.2769       4.2172       4.0490       5.6146       8.0368       6.7471      33.7619    2737.0000     566.0000    1569.0000    1545.0000    1134.7445
