~VERSION INFORMATION
VERS.           2.0   :CWLS Log ASCII Standard - VERSION 2.0
WRAP.           NO    :One Line per depth step
PROD.  Schlumberger   :LAS Producer
PROG.  DLIS to ASCII 11C0-305                          :LAS Program name and version
CREA.        2003/11/03 06:15                          :LAS Creation date {YYYY/MM/DD hh:mm}
SOURCE.     AIT_mainPB1_064PUP.DLIS                    :DLIS File Name
FILE-ID.     AIT_mainPB1_064PUP                        :File Identification Number
#--------------------------------------------------
~WELL INFORMATION
#MNEM.UNIT      DATA             DESCRIPTION
#---- ------ --------------   -----------------------------
STRT .M      4280.0016       :START DEPTH     
STOP .M      3948.9888       :STOP DEPTH     
STEP .M        -0.1524       :STEP     
NULL .          -999.25      :NULL VALUE
COMP .        INPEX Browse, Ltd.                       :COMPANY
WELL .        ICHTHYS DEEP-1                           :WELL
FLD  .        WA-285-P                                 :FIELD
LOC  .        Datum: GDA94 Spheroid GRS80              :LOCATION
CNTY .        Ocean Bounty                             :COUNTY
STAT .        1:200                                    :STATE
CTRY .        Australia                                :COUNTRY
API  .                                                 :API NUMBER
UWI  .                                                 :UNIQUE WELL ID
DATE .        03-Nov-2003                              :LOG DATE {DD-MMM-YYYY}
SRVC .        Schlumberger                             :SERVICE COMPANY
LATI .DEG     13 51' 47.081" S                         :LATITUDE
LONG .DEG     123 13'  56.110" E                       :LONGITUDE
GDAT .                                                 :GeoDetic Datum
#-----------------------------------------------------------------------------
~PARAMETER INFORMATION
#MNEM.UNIT    VALUE                      DESCRIPTION
#---- -----   --------------------       ------------------------
RUN  .          Suite 2 Run 1            :RUN NUMBER
PDAT .        LAT                        :Permanent Datum
EPD  .M           0.000000               :Elevation of Permanent Datum above Mean Sea Level
EPD  .M           0.000000               :Elevation of tool zero above Mean Sea Level
LMF  .          Drill Floor              :Logging Measured From (Name of Logging Elevation Reference)
APD  .M          25.000000               :Elevation of Depth Reference (LMF) above Permanent Datum
#-----------------------------------------------------------------------------
~CURVE INFORMATION
#MNEM.UNIT   API CODE                                  DESCRIPTION
#---- -----  --------                                  -----------------------
DEPT .M                                                :DEPTH (BOREHOLE) {F10.4}
TENS .LBF                                              :Cable Tension {F13.4}
APLU .V/V                                              :APS Near/Array Uncorrected Limestone Porosity {F13.4}
RHOM .G/C3                                             :LDS Corrected Bulk Density {F13.4}
DRH  .G/C3                                             :LDS Bulk Density Correction {F13.4}
PEFL .                                                 :LDS Long-Spaced Corrected Photoelectric Effect {F13.4}
LCAL .IN                                               :LDS Caliper {F13.4}
HSGR .GAPI                                             :HNGS Standard Gamma Ray {F13.4}
CDF  .LBF                                              :Calibrated Downhole Force {F13.4}
APLC .V/V                                              :APS Near/Array Corrected Limestone Porosity {F13.4}
ATD2 .IN                                               :Array Induction Two Foot Outer Diameter of Invasion (D2) {F13.4}
ATD1 .IN                                               :Array Induction Two Foot Inner Diameter of Invasion(D1) {F13.4}
AOD2 .IN                                               :Array Induction One Foot Outer Diameter of Invasion (D2) {F13.4}
AOD1 .IN                                               :Array Induction One Foot Inner Diameter of Invasion (D1) {F13.4}
AT90 .OHMM                                             :Array Induction Two Foot Resistivity A90 {F13.4}
AT60 .OHMM                                             :Array Induction Two Foot Resistivity A60 {F13.4}
AT30 .OHMM                                             :Array Induction Two Foot Resistivity A30 {F13.4}
AT20 .OHMM                                             :Array Induction Two Foot Resistivity A20 {F13.4}
AT10 .OHMM                                             :Array Induction Two Foot Resistivity A10 {F13.4}
AO90 .OHMM                                             :Array Induction One Foot Resistivity A90 {F13.4}
AO60 .OHMM                                             :Array Induction One Foot Resistivity A60 {F13.4}
AO30 .OHMM                                             :Array Induction One Foot Resistivity A30 {F13.4}
AO20 .OHMM                                             :Array Induction One Foot Resistivity A20 {F13.4}
AO10 .OHMM                                             :Array Induction One Foot Resistivity A10 {F13.4}
SIGF .CU                                               :APS Formation Capture Cross-Section {F13.4}
ANEC .HZ                                               :APS Near Detector Count Rate {F13.4}
AFEC .HZ                                               :APS Far Detector Count Rate {F13.4}
A1EP .HZ                                               :APS Array-1 Detector Count Rate {F13.4}
A2EP .HZ                                               :APS Array-2 Detector Count Rate {F13.4}
AFTC .HZ                                               :APS Thermal Detector Count Rate {F13.4}
#-----------------------------------------------------------------------------
# 
#     DEPT        TENS         APLU         RHOM         DRH          PEFL         LCAL         HSGR         CDF          APLC         ATD2         ATD1         AOD2         AOD1         AT90         AT60         AT30         AT20         AT10         AO90         AO60         AO30         AO20         AO10         SIGF         ANEC         AFEC         A1EP         A2EP         AFTC
#
~A  
# ...
 3975.9636    5255.0000       0.3623       2.0831      -0.9164      54.6577       8.7128      80.8918    1310.7285       0.3515     150.4774     111.2473     214.6389     213.8247       4.1099       4.1606       5.5962       7.4310       7.1461       4.1805       4.0560       5.6277       8.0236       6.7007      39.5127    3160.0000     644.0000    1781.0000    1822.0000    1331.9800
 3975.8112    5237.0000       0.3352       2.1632      -0.8944      57.5607       8.7112      71.7563    1312.5061       0.3248     147.5880     112.3250     215.4602     212.0892       4.1099       4.1606       5.5962       7.4310       7.1461       4.1805       4.0560       5.6277       8.0236       6.7007      37.9869    3093.0000     595.0000    1875.0000    1856.0000    1329.4186
 3975.6588    5214.0000       0.2966       2.2363      -0.8709     173.2195       8.7138      61.1678    1310.0176       0.2844     139.2537     115.2113     218.2875     211.5740       4.1099       4.1606       5.5962       7.4310       7.1461       4.1805       4.0560       5.6277       8.0236       6.7007      35.3614    3243.0000     655.0000    1982.0000    1943.0000    1458.3473
 3975.5064    5217.0000       0.2824       2.2273      -0.8756      48.8162       8.7135      59.9281    1312.8616       0.2682     135.0580     115.5939     223.5549     216.8175       4.1099       4.1606       5.5962       7.4310       7.1461       4.1805       4.0560       5.6277       8.0236       6.7007      35.2999    3200.0000     698.0000    2063.0000    2070.0000    1508.7234
 3975.3540    5225.0000       0.3074       2.1469      -0.8898     249.7035       8.7125      65.9503    1314.9945       0.2963     137.8745     109.5658     223.2739     219.8700       4.1099       4.1606       5.5962       7.4310       7.1461       4.1805       4.0560       5.6277       8.0236       6.7007      34.8911    3191.0000     760.0000    1997.0000    1896.0000    1485.6700
 3975.2016    5282.0000       0.3368       2.0815      -0.9002    2906.2095       8.7101      75.6411    1317.4830       0.3263     138.2420     105.1690     225.2428     224.4043       4.1099       4.1606       5.5962       7.4310       7.1461       4.1805       4.0560       5.6277       8.0236       6.7007      32.6117    3109.3333     641.0000    1829.3334    1802.6666    1434.4399
 3975.0492    5337.0000       0.3626       2.0614      -0.8996    -999.2500       8.7112      79.1506    1318.9050       0.3518     140.1508     103.9591     231.6854     231.5766       4.1099       4.1606       5.5962       7.4310       7.1461       4.1805       4.0560       5.6277       8.0236       6.7007      35.0287    3179.0000     616.0000    1827.0000    1830.0000    1378.0869
 3974.8968    5299.0000       0.3828       2.0553      -0.8969    -999.2500       8.7161      80.7354    1316.0610       0.3716     154.3601     104.2295     230.6317     230.4903       4.1099       4.1606       5.5962       7.4310       7.1461       4.1805       4.0560       5.6277       8.0236       6.7007      39.3199    3098.6667     630.0000    1762.6666    1840.0000    1260.2579
 3974.7444    5453.0000       0.3947       2.0547      -0.8984    -999.2500       8.7112      82.4794    1317.4830       0.3834     166.8919     102.7158     218.6721     217.9216       4.1099       4.1606       5.5962       7.4310       7.1461       4.1805       4.0560       5.6277       8.0236       6.7007      38.6859    3204.0000     598.6667    1659.0000    1735.0000    1334.5415
 3974.5920    5372.0000       0.4149       2.0513      -0.9051    -141.1614       8.7105      86.4215    1317.1276       0.4033     165.0475     101.6167     212.3539     209.2492       4.1099       4.1606       5.5962       7.4310       7.1461       4.1805       4.0560       5.6277       8.0236       6.7007      38.7892    3150.0000     597.0000    1756.0000    1788.0000    1319.1725
 3974.4396    5352.0000       0.4065       2.0433      -0.9173      73.3608       8.7112      87.0587    1313.9281       0.3951     151.3752     100.6438     218.7869     212.6173       4.1099       4.1606       5.5962       7.4310       7.1461       4.1805       4.0560       5.6277       8.0236       6.7007      40.9306    3114.0000     667.0000    1743.0000    1716.0000    1239.7660
 3974.2872    5364.0000       0.4068       2.0571      -0.9143      30.1398       8.7128      86.0159    1314.9945       0.3954     154.7340     100.7527     229.7245     223.5092       4.1099       4.1606       5.5962       7.4310       7.1461       4.1805       4.0560       5.6277       8.0236       6.7007      39.0724    3221.0000     611.0000    1759.0000    1769.0000    1283.3115
 3974.1348    5380.0000       0.4041       2.0627      -0.9067      29.7352       8.7105      82.1805    1316.0610       0.3928     160.8973     103.2032     229.5284     226.2747       4.1099       4.1606       5.5962       7.4310       7.1461       4.1805       4.0560       5.6277       8.0236       6.7007      36.8641    3184.0000     642.0000    1707.0000    1782.0000    1424.1941
 3973.9824    5440.0000       0.4010       2.0760      -0.8952      34.6549       8.7118      82.0003    1317.4830       0.3896     153.0146     109.1698     218.6755     217.5298       4.1099       4.1606       5.5962       7.4310       7.1461       4.1805       4.0560       5.6277       8.0236       6.7007      40.5230    3126.0000     582.0000    1810.0000    1746.0000    1311.4880
 3973.8300    5405.0000       0.3992       2.0560      -0.8938      61.2067       8.7118      82.1626    1316.7721       0.3879     146.7902     111.5663     211.7344     210.4285       4.1099       4.1606       5.5962       7.4310       7.1461       4.1805       4.0560       5.6277       8.0236       6.7007      41.9676    3266.0000     628.0000    1768.0000    1738.0000    1209.0281
 3973.6776    5388.0000       0.3933       2.0341      -0.9000     180.3971       8.7132      80.5059    1318.9050       0.3820     140.3094     113.2482     209.6964     206.7684       4.1099       4.1606       5.5962       7.4310       7.1461       4.1805       4.0560       5.6277       8.0236       6.7007      41.0891    3041.0000     614.0000    1696.0000    1756.0000    1372.9640
 3973.5252    5410.0000       0.3882       2.0393      -0.8888     363.1597       8.7101      79.1542    1321.0381       0.3770     131.4035     115.7681     209.4308     204.1441       4.1099       4.1606       5.5962       7.4310       7.1461       4.1805       4.0560       5.6277       8.0236       6.7007      41.9232    3146.0000     627.0000    1777.0000    1766.0000    1324.2957
 3973.3728    5392.0000       0.3594       2.0641      -0.8844      50.8585       8.7125      79.8601    1321.7490       0.3485     132.4700     116.8626     211.2814     206.0759       4.1099       4.1606       5.5962       7.4310       7.1461       4.1805       4.0560       5.6277       8.0236       6.7007      42.2925    3087.0000     666.0000    1814.0000    1804.0000    1321.7340
 3973.2204    5379.0000       0.3585       2.0865      -0.8891      27.2846       8.7118      81.6913    1322.1045       0.3477     140.3326     114.8196     218.4260     215.8355       4.1099       4.1606       5.5962       7.4310       7.1461       4.1805       4.0560       5.6277       8.0236       6.7007      38.8214    3215.0000     670.0000    1778.0000    1815.0000    1257.6965
 3973.0680    5401.0000       0.3585       2.1130      -0.8756      27.4968       8.7112      81.5442    1321.7490       0.3477     140.3918     115.0674     230.2896     229.5928       4.1099       4.1606       5.5962       7.4310       7.1461       4.1805       4.0560       5.6277       8.0236       6.7007      35.5679    3061.0000     642.0000    1882.0000    1747.0000    1518.9695
 3972.9156    5362.0000       0.3646       2.0909      -0.8763      24.4370       8.7115      78.0683    1320.6825       0.3537     133.0711     117.5396     237.8083     237.6726       4.1099       4.1606       5.5962       7.4310       7.1461       4.1805       4.0560       5.6277       8.0236       6.7007      37.3552    3154.0000     644.0000    1837.0000    1814.0000    1424.1941
