~VERSION INFORMATION
VERS.           2.0   :CWLS Log ASCII Standard - VERSION 2.0
WRAP.           NO    :One Line per depth step
PROD.  Schlumberger   :LAS Producer
PROG.  DLIS to ASCII 11C0-305                          :LAS Program name and version
CREA.        2003/11/19 08:45                          :LAS Creation date {YYYY/MM/DD hh:mm}
SOURCE.     UBI_Mainpb1_036PUP.DLIS                    :DLIS File Name
FILE-ID.     UBI_Mainpb1_036PUP                        :File Identification Number
#--------------------------------------------------
~WELL INFORMATION
#MNEM.UNIT      DATA             DESCRIPTION
#---- ------ --------------   -----------------------------
STRT .M      4859.4264       :START DEPTH     
STOP .M      4016.0448       :STOP DEPTH     
STEP .M        -0.1524       :STEP     
NULL .          -999.25      :NULL VALUE
COMP .        INPEX Browse, Ltd.                       :COMPANY
WELL .        ICHTHYS DEEP-1                           :WELL
FLD  .        WA-285-P                                 :FIELD
LOC  .        Datum: GDA94 Spheroid GRS80              :LOCATION
CNTY .        Ocean Bounty                             :COUNTY
STAT .        1:200                                    :STATE
CTRY .        Australia                                :COUNTRY
API  .                                                 :API NUMBER
UWI  .                                                 :UNIQUE WELL ID
DATE .        16-Nov-2003                              :LOG DATE {DD-MMM-YYYY}
SRVC .        Schlumberger                             :SERVICE COMPANY
LATI .DEG     13 51' 47.081" S                         :LATITUDE
LONG .DEG     123 13'  56.110" E                       :LONGITUDE
GDAT .                                                 :GeoDetic Datum
#-----------------------------------------------------------------------------
~PARAMETER INFORMATION
#MNEM.UNIT    VALUE                      DESCRIPTION
#---- -----   --------------------       ------------------------
RUN  .          Suite 3 Run 1            :RUN NUMBER
PDAT .        LAT                        :Permanent Datum
EPD  .M           0.000000               :Elevation of Permanent Datum above Mean Sea Level
EPD  .M           0.000000               :Elevation of tool zero above Mean Sea Level
LMF  .          Drill Floor              :Logging Measured From (Name of Logging Elevation Reference)
APD  .M          25.000000               :Elevation of Depth Reference (LMF) above Permanent Datum
#-----------------------------------------------------------------------------
~CURVE INFORMATION
#MNEM.UNIT   API CODE                                  DESCRIPTION
#---- -----  --------                                  -----------------------
DEPT .M                                                :DEPTH (BOREHOLE) {F10.4}
LCAL .IN                                               :LDS Caliper {F13.4}
GR   .GAPI                                             :Gamma Ray {F13.4}
#-----------------------------------------------------------------------------
# 
#     DEPT        LCAL         GR
#
~A  
# ...
 4131.8688       9.9683      49.7361
 4131.7164      10.4807      50.9066
 4131.5640      10.4597      48.3876
 4131.4116      10.6501      65.9675
 4131.2592      10.3644      70.8646
 4131.1068       9.4913      63.1980
 4130.9544       9.3243      37.6563
 4130.8020       9.3305      27.4464
 4130.6496       9.7369      25.1723
 4130.4972      10.0571      25.1855
 4130.3448      10.1131      25.7331
 4130.1924      10.0411      25.0184
 4130.0400       9.8152      24.5244
 4129.8876       9.1888      32.1447
 4129.7352       9.1200      65.6916
 4129.5828       9.1268     106.2060
 4129.4304       9.0447     134.5605
 4129.2780       9.0412     131.7928
 4129.1256       8.9380     113.2826
 4128.9732       8.9061      79.7794
 4128.8208       8.8643      48.4750
 4128.6684       8.8310      26.1226
 4128.5160       8.7883      23.1034
 4128.3636       8.7636      24.5036
 4128.2112       8.7511      24.6114
 4128.0588       8.7503      24.7865
 4127.9064       8.7512      22.9054
 4127.7540       8.7629      21.9041
 4127.6016       8.7989      20.2851
 4127.4492       8.8306      18.9104
 4127.2968       8.8298      19.6711
 4127.1444       8.8226      25.6658
 4126.9920       8.8106      42.7895
 4126.8396       8.8090      57.6244
 4126.6872       9.1212      68.1261
 4126.5348       9.1371      65.6014
 4126.3824       9.3230      63.0892
 4126.2300       9.6863      66.2414
 4126.0776      10.0478      76.0220
 4125.9252      10.3869      84.7587
 4125.7728      11.3362      79.6493
 4125.6204      11.2608      69.2022
 4125.4680      11.2061      64.3780
 4125.3156      11.2168      77.3619
 4125.1632      11.0779      95.0980
 4125.0108      10.8516     110.2087
 4124.8584       9.4969     115.4595
 4124.7060       9.0518     105.7163
 4124.5536       8.9059      77.9170
 4124.4012       8.8542      47.5607
 4124.2488       8.7959      28.3227
 4124.0964       8.7552      26.3090
 4123.9440       8.7548      27.8442
 4123.7916       8.7973      29.8128
 4123.6392       8.8423      30.6844
 4123.4868       8.8736      30.0426
 4123.3344       8.8412      28.4444
 4123.1820       8.8085      31.2094
 4123.0296       8.8219      29.6982
 4122.8772       8.8116      31.4394
 4122.7248       8.8186      29.1552
 4122.5724       8.8273      41.5510
 4122.4200       8.8200      70.8126
 4122.2676       8.8413     104.3542
 4122.1152       8.9246     116.8650
 4121.9628       9.1414      96.0208
 4121.8104       9.3835      74.8019
 4121.6580       9.7000      61.4132
 4121.5056       9.6252      54.9795
 4121.3532       9.5818      42.6061
 4121.2008       9.2498      31.9859
 4121.0484       9.1032      26.9421
 4120.8960       9.1272      24.6486
 4120.7436       9.0869      24.3869
 4120.5912       9.4324      24.6238
 4120.4388       9.0182      28.2304
 4120.2864       8.8774      34.2871
 4120.1340       8.8769      47.6685
 4119.9816       8.8207      47.7812
 4119.8292       8.8117      42.8277
 4119.6768       8.8116      30.1076
 4119.5244       9.0667      27.6134
 4119.3720       9.0031      29.2965
 4119.2196       9.1221      37.4415
 4119.0672       9.1509      49.7918
 4118.9148       9.0465      60.6869
 4118.7624       9.2276      68.3335
 4118.6100       9.1356      74.2337
 4118.4576       8.9397      68.7486
 4118.3052       8.8421      51.9422
 4118.1528       8.9567      33.0074
 4118.0004       8.9256      24.4028
 4117.8480       8.8593      25.7182
 4117.6956       8.8770      24.8052
 4117.5432       8.9099      26.4352
 4117.3908       8.9878      28.4886
 4117.2384       8.9151      33.1378
 4117.0860       8.8566      35.1834
 4116.9336       8.8108      36.1355
 4116.7812       8.7959      33.8419
 4116.6288       8.7523      31.3173
 4116.4764       8.8213      30.4386
 4116.3240       8.8698      30.4386
 4116.1716       8.9199      29.8918
 4116.0192       8.9578      27.4508
 4115.8668       8.9566      27.0789
 4115.7144       8.9445      28.1667
 4115.5620       8.8867      28.3606
 4115.4096       8.8758      27.7407
 4115.2572       8.8767      26.9593
 4115.1048       8.8695      30.6066
 4114.9524       8.8457      36.3095
 4114.8000       8.8163      41.2502
 4114.6476       8.8209      42.6541
 4114.4952       8.9639      44.4518
 4114.3428       9.0168      47.2653
 4114.1904       9.0105      43.4111
 4114.0380       9.0043      38.0107
 4113.8856       8.9801      33.2019
 4113.7332       8.9434      41.2620
 4113.5808       9.0075      57.6344
 4113.4284       8.9862      77.7864
 4113.2760       8.8755      93.2910
 4113.1236       8.8096      91.3693
 4112.9712       8.8294      66.6613
 4112.8188       8.7717      42.3205
 4112.6664       8.7541      26.2945
 4112.5140       8.7553      30.0691
 4112.3616       8.7709      29.2877
 4112.2092       8.7682      30.9942
 4112.0568       8.8004      28.7798
 4111.9044       8.8308      31.3401
 4111.7520       8.8304      37.6010
 4111.5996       8.8338      63.6191
 4111.4472       8.8986      91.1458
 4111.2948       9.0199     100.2356
 4111.1424       9.6177      86.4845
 4110.9900      10.7743      71.3049
 4110.8376      10.8844      63.8887
 4110.6852      10.6310      61.7767
 4110.5328      10.0065      59.2239
 4110.3804       9.9309      60.2157
 4110.2280      10.5037      58.0458
 4110.0756      10.0409      47.3071
 4109.9232       9.7707      34.7365
 4109.7708       9.6291      26.3812
 4109.6184       9.6844      23.9838
 4109.4660       9.6967      23.2888
 4109.3136       9.4862      23.2112
 4109.1612       9.3654      28.7846
 4109.0088       9.2293      48.6830
 4108.8564       9.6403      73.5862
 4108.7040      10.1901      95.1226
 4108.5516      10.1783      91.6841
 4108.3992       9.7069      76.2357
 4108.2468       8.8671      51.5904
 4108.0944       8.9133      37.4241
 4107.9420       8.8116      29.0571
 4107.7896       8.7765      28.7566
 4107.6372       8.7216      28.4466
 4107.4848       8.6620      27.3763
 4107.3324       8.5861      27.4965
 4107.1800       8.5926      27.7372
 4107.0276       8.6488      28.5328
 4106.8752       8.6587      28.7225
 4106.7228       8.6610      28.8763
 4106.5704       8.6583      27.6153
 4106.4180       8.6589      23.9140
 4106.2656       8.6378      21.7219
 4106.1132       8.5312      20.8460
 4105.9608       8.5074      22.4397
 4105.8084       8.5066      24.9193
 4105.6560       8.5064      29.9149
 4105.5036       8.5645      44.0483
 4105.3512       8.7009      51.2928
 4105.1988       8.7465      56.1954
 4105.0464       8.8073      52.7540
 4104.8940       8.9460      52.2551
 4104.7416       9.6472      47.4249
 4104.5892       9.9171      44.3011
 4104.4368       9.0891      41.4759
 4104.2844       8.8325      42.6782
 4104.1320       8.6712      35.3578
 4103.9796       8.5598      29.0559
 4103.8272       8.4862      21.1020
 4103.6748       8.4242      19.8622
 4103.5224       8.4461      18.7104
 4103.3700       8.4248      19.7742
 4103.2176       8.4016      20.7551
 4103.0652       8.4201      22.2578
 4102.9128       8.4515      27.2170
 4102.7604       8.4386      34.1087
 4102.6080       8.5044      43.4200
 4102.4556       8.6873      43.9879
 4102.3032       8.9724      39.0907
 4102.1508       8.9280      33.4837
 4101.9984       8.8062      28.9561
 4101.8460       8.7739      26.3197
 4101.6936       8.7283      24.2741
 4101.5412       8.6981      30.5256
 4101.3888       8.7307      49.2930
 4101.2364       8.8836      71.5990
 4101.0840       9.5831      85.9823
 4100.9316       9.9063      78.9436
 4100.7792       9.8383      59.9080
 4100.6268       9.4208      40.7760
 4100.4744       9.0743      31.3173
 4100.3220       9.0036      27.8309
 4100.1696       8.9653      25.9487
 4100.0172       9.0520      24.0174
 4099.8648       9.0291      24.4634
 4099.7124       9.1670      30.5863
 4099.5600       9.0855      38.2769
 4099.4076       9.0802      47.3885
 4099.2552       9.2529      48.7981
 4099.1028       9.3005      44.4214
 4098.9504       9.0907      38.4704
