~VERSION INFORMATION
VERS.           2.0   :CWLS Log ASCII Standard - VERSION 2.0
WRAP.           NO    :One Line per depth step
PROD.  Schlumberger   :LAS Producer
PROG.  DLIS to ASCII 11C0-305                          :LAS Program name and version
CREA.        2003/11/03 06:15                          :LAS Creation date {YYYY/MM/DD hh:mm}
SOURCE.     AIT_mainPB1_064PUP.DLIS                    :DLIS File Name
FILE-ID.     AIT_mainPB1_064PUP                        :File Identification Number
#--------------------------------------------------
~WELL INFORMATION
#MNEM.UNIT      DATA             DESCRIPTION
#---- ------ --------------   -----------------------------
STRT .M      4280.0016       :START DEPTH     
STOP .M      3948.9888       :STOP DEPTH     
STEP .M        -0.1524       :STEP     
NULL .          -999.25      :NULL VALUE
COMP .        INPEX Browse, Ltd.                       :COMPANY
WELL .        ICHTHYS DEEP-1                           :WELL
FLD  .        WA-285-P                                 :FIELD
LOC  .        Datum: GDA94 Spheroid GRS80              :LOCATION
CNTY .        Ocean Bounty                             :COUNTY
STAT .        1:200                                    :STATE
CTRY .        Australia                                :COUNTRY
API  .                                                 :API NUMBER
UWI  .                                                 :UNIQUE WELL ID
DATE .        03-Nov-2003                              :LOG DATE {DD-MMM-YYYY}
SRVC .        Schlumberger                             :SERVICE COMPANY
LATI .DEG     13 51' 47.081" S                         :LATITUDE
LONG .DEG     123 13'  56.110" E                       :LONGITUDE
GDAT .                                                 :GeoDetic Datum
#-----------------------------------------------------------------------------
~PARAMETER INFORMATION
#MNEM.UNIT    VALUE                      DESCRIPTION
#---- -----   --------------------       ------------------------
RUN  .          Suite 2 Run 1            :RUN NUMBER
PDAT .        LAT                        :Permanent Datum
EPD  .M           0.000000               :Elevation of Permanent Datum above Mean Sea Level
EPD  .M           0.000000               :Elevation of tool zero above Mean Sea Level
LMF  .          Drill Floor              :Logging Measured From (Name of Logging Elevation Reference)
APD  .M          25.000000               :Elevation of Depth Reference (LMF) above Permanent Datum
#-----------------------------------------------------------------------------
~CURVE INFORMATION
#MNEM.UNIT   API CODE                                  DESCRIPTION
#---- -----  --------                                  -----------------------
DEPT .M                                                :DEPTH (BOREHOLE) {F10.4}
TENS .LBF                                              :Cable Tension {F13.4}
APLU .V/V                                              :APS Near/Array Uncorrected Limestone Porosity {F13.4}
RHOM .G/C3                                             :LDS Corrected Bulk Density {F13.4}
DRH  .G/C3                                             :LDS Bulk Density Correction {F13.4}
PEFL .                                                 :LDS Long-Spaced Corrected Photoelectric Effect {F13.4}
LCAL .IN                                               :LDS Caliper {F13.4}
HSGR .GAPI                                             :HNGS Standard Gamma Ray {F13.4}
CDF  .LBF                                              :Calibrated Downhole Force {F13.4}
APLC .V/V                                              :APS Near/Array Corrected Limestone Porosity {F13.4}
ATD2 .IN                                               :Array Induction Two Foot Outer Diameter of Invasion (D2) {F13.4}
ATD1 .IN                                               :Array Induction Two Foot Inner Diameter of Invasion(D1) {F13.4}
AOD2 .IN                                               :Array Induction One Foot Outer Diameter of Invasion (D2) {F13.4}
AOD1 .IN                                               :Array Induction One Foot Inner Diameter of Invasion (D1) {F13.4}
AT90 .OHMM                                             :Array Induction Two Foot Resistivity A90 {F13.4}
AT60 .OHMM                                             :Array Induction Two Foot Resistivity A60 {F13.4}
AT30 .OHMM                                             :Array Induction Two Foot Resistivity A30 {F13.4}
AT20 .OHMM                                             :Array Induction Two Foot Resistivity A20 {F13.4}
AT10 .OHMM                                             :Array Induction Two Foot Resistivity A10 {F13.4}
AO90 .OHMM                                             :Array Induction One Foot Resistivity A90 {F13.4}
AO60 .OHMM                                             :Array Induction One Foot Resistivity A60 {F13.4}
AO30 .OHMM                                             :Array Induction One Foot Resistivity A30 {F13.4}
AO20 .OHMM                                             :Array Induction One Foot Resistivity A20 {F13.4}
AO10 .OHMM                                             :Array Induction One Foot Resistivity A10 {F13.4}
SIGF .CU                                               :APS Formation Capture Cross-Section {F13.4}
ANEC .HZ                                               :APS Near Detector Count Rate {F13.4}
AFEC .HZ                                               :APS Far Detector Count Rate {F13.4}
A1EP .HZ                                               :APS Array-1 Detector Count Rate {F13.4}
A2EP .HZ                                               :APS Array-2 Detector Count Rate {F13.4}
AFTC .HZ                                               :APS Thermal Detector Count Rate {F13.4}
#-----------------------------------------------------------------------------
# 
#     DEPT        TENS         APLU         RHOM         DRH          PEFL         LCAL         HSGR         CDF          APLC         ATD2         ATD1         AOD2         AOD1         AT90         AT60         AT30         AT20         AT10         AO90         AO60         AO30         AO20         AO10         SIGF         ANEC         AFEC         A1EP         A2EP         AFTC
#
~A  
# ...
 3998.3664    5393.0000       0.3684       2.0781      -0.9237     134.9627       8.7185      80.8447    1282.6440       0.3574     137.0232     114.0239     221.1436     221.0388       4.1099       4.1606       5.5962       7.4310       7.1461       4.1805       4.0560       5.6277       8.0236       6.7007      32.5493    3168.0000     607.0000    1827.0000    1800.0000    1344.7876
 3998.2140    5397.0000       0.3727       2.0754      -0.9261    -414.7800       8.7179      83.1364    1282.6440       0.3617     150.3450     109.7815     221.1605     221.0554       4.1099       4.1606       5.5962       7.4310       7.1461       4.1805       4.0560       5.6277       8.0236       6.7007      30.8638    3175.0000     639.0000    1781.0000    1810.0000    1321.7340
 3998.0616    5325.0000       0.3742       2.0942      -0.9227     169.6899       8.7162      87.4277    1284.4215       0.3632     154.1073     109.4516     230.6544     230.5451       4.1099       4.1606       5.5962       7.4310       7.1461       4.1805       4.0560       5.6277       8.0236       6.7007      31.9795    3076.0000     624.0000    1754.0000    1792.0000    1270.5040
 3997.9092    5346.0000       0.3770       2.0961      -0.9201      42.6127       8.7162      85.4980    1285.4880       0.3660     148.0800     112.2060     237.5508     237.4585       4.1099       4.1606       5.5962       7.4310       7.1461       4.1805       4.0560       5.6277       8.0236       6.7007      29.8923    3140.0000     613.0000    1803.0000    1763.0000    1319.1726
 3997.7568    5369.0000       0.3823       2.0874      -0.9243      41.2949       8.7145      83.6282    1284.4215       0.3711     145.3246     112.8443     238.8304     238.5812       4.1099       4.1606       5.5962       7.4310       7.1461       4.1805       4.0560       5.6277       8.0236       6.7007      33.8467    3155.0000     625.0000    1778.0000    1770.0000    1180.8516
 3997.6044    5378.0000       0.3846       2.0886      -0.9233      91.7175       8.7162      80.4377    1286.9100       0.3734     158.5872     108.4753     238.1459     237.2334       4.1099       4.1606       5.5962       7.4310       7.1461       4.1805       4.0560       5.6277       8.0236       6.7007      32.7505    3150.0000     555.0000    1719.0000    1800.0000    1334.5415
 3997.4520    5339.0000       0.3828       2.0989      -0.9203      92.6865       8.7152      79.4308    1284.4215       0.3716     170.8521     103.8523     237.6173     234.5731       4.1099       4.1606       5.5962       7.4310       7.1461       4.1805       4.0560       5.6277       8.0236       6.7007      34.1050    3201.0000     634.0000    1813.0000    1767.0000    1278.1886
 3997.2996    5401.0000       0.3683       2.1106      -0.9191      61.1141       8.7179      77.7063    1285.8435       0.3573     168.8711     104.6558     237.9171     232.8039       4.1099       4.1606       5.5962       7.4310       7.1461       4.1805       4.0560       5.6277       8.0236       6.7007      36.4360    3136.0000     615.0000    1868.0000    1750.6666    1331.9800
 3997.1472    5382.0000       0.3542       2.1007      -0.9181      30.5911       8.7145      78.8373    1287.2655       0.3435     165.8714     105.7507     237.4139     232.6810       4.1099       4.1606       5.5962       7.4310       7.1461       4.1805       4.0560       5.6277       8.0236       6.7007      38.7714    3211.0000     670.0000    1885.0000    1854.0000    1349.9106
 3996.9948    5409.0000       0.3445       2.1242      -0.9084    -456.7921       8.7156      79.2014    1288.3320       0.3338     166.0022     105.6391     231.5196     229.2593       4.1099       4.1606       5.5962       7.4310       7.1461       4.1805       4.0560       5.6277       8.0236       6.7007      37.6718    3262.0000     647.0000    1820.0000    1821.0000    1355.0334
 3996.8424    5447.0000       0.3610       2.1149      -0.9120      85.6658       8.7185      82.3630    1289.0431       0.3501     158.5250     108.3409     215.1891     214.5011       4.1099       4.1606       5.5962       7.4310       7.1461       4.1805       4.0560       5.6277       8.0236       6.7007      40.0017    3026.0000     690.6667    1814.0000    1847.0000    1372.9640
 3996.6900    5447.0000       0.3725       2.1412      -0.9007      74.1167       8.7162      81.3148    1289.0431       0.3615     143.6164     113.7417     199.3804     198.5134       4.1099       4.1606       5.5962       7.4310       7.1461       4.1805       4.0560       5.6277       8.0236       6.7007      42.2995    3111.0000     665.0000    1796.0000    1819.0000    1321.7341
 3996.5376    5415.0000       0.3717       2.1297      -0.9008      25.0833       8.7162      82.1692    1286.5546       0.3597     141.7115     113.7050     196.8473     193.5983       4.1099       4.1606       5.5962       7.4310       7.1461       4.1805       4.0560       5.6277       8.0236       6.7007      41.8072    3212.0000     625.0000    1751.0000    1758.0000    1201.3436
 3996.3852    5405.0000       0.3986       2.1430      -0.8979      23.5168       8.7162      81.4499    1287.9766       0.3872     160.0331     107.1904     209.6895     202.2381       4.1099       4.1606       5.5962       7.4310       7.1461       4.1805       4.0560       5.6277       8.0236       6.7007      39.1445    3199.0000     632.0000    1776.0000    1753.0000    1378.0869
 3996.2328    5364.0000       0.3984       2.1388      -0.8957      32.6451       8.7168      80.3995    1289.0431       0.3871     175.6864      98.9881     224.0835     214.1071       4.1099       4.1606       5.5962       7.4310       7.1461       4.1805       4.0560       5.6277       8.0236       6.7007      38.2485    3056.0000     644.0000    1710.0000    1746.0000    1278.1885
 3996.0804    5336.0000       0.3970       2.1323      -0.9052      42.6631       8.7145      79.2811    1288.3320       0.3857     169.4905      95.0877     222.7103     213.9763       4.1099       4.1606       5.5962       7.4310       7.1461       4.1805       4.0560       5.6277       8.0236       6.7007      36.4647    3157.3333     661.0000    1720.0000    1852.0000    1226.1046
 3995.9280    5292.0000       0.3782       2.1279      -0.9336     294.5740       8.7162      79.6206    1292.2426       0.3671     159.5848      93.6301     216.4667     211.7310       4.1099       4.1606       5.5962       7.4310       7.1461       4.1805       4.0560       5.6277       8.0236       6.7007      34.9658    3195.0000     628.0000    1769.0000    1776.0000    1355.0336
 3995.7756    5300.0000       0.3712       2.1503      -0.9299    -999.2500       8.7162      78.9721    1292.9535       0.3602     156.3090      97.3870     216.1353     214.6565       4.1099       4.1606       5.5962       7.4310       7.1461       4.1805       4.0560       5.6277       8.0236       6.7007      34.1249    3220.0000     564.0000    1820.0000    1798.0000    1301.2421
 3995.6232    5290.0000       0.3606       2.1948      -0.9200    -999.2500       8.7189      82.9141    1293.3091       0.3497     150.9161     104.7847     215.1910     214.7912       4.1099       4.1606       5.5962       7.4310       7.1461       4.1805       4.0560       5.6277       8.0236       6.7007      35.0749    3177.0000     619.0000    1837.0000    1834.0000    1437.0016
 3995.4708    5297.0000       0.3718       2.1680      -0.9426    -999.2500       8.7145      83.4463    1295.0865       0.3608     149.3838     108.4122     215.3581     215.0840       4.1099       4.1606       5.5962       7.4310       7.1461       4.1805       4.0560       5.6277       8.0236       6.7007      36.9237    3098.0000     624.0000    1846.0000    1821.0000    1267.9426
 3995.3184    5260.0000       0.3739       2.1686      -0.9385    -141.4300       8.7182      86.5535    1297.2196       0.3628     158.0441     106.8195     216.4008     216.2031       4.1099       4.1606       5.5962       7.4310       7.1461       4.1805       4.0560       5.6277       8.0236       6.7007      41.2295    3164.0000     629.0000    1782.0000    1725.0000    1147.5520
