~VERSION INFORMATION
VERS.           2.0   :CWLS Log ASCII Standard - VERSION 2.0
WRAP.           NO    :One Line per depth step
PROD.  Schlumberger   :LAS Producer
PROG.  DLIS to ASCII 11C0-305                          :LAS Program name and version
CREA.        2003/11/03 06:15                          :LAS Creation date {YYYY/MM/DD hh:mm}
SOURCE.     AIT_mainPB1_064PUP.DLIS                    :DLIS File Name
FILE-ID.     AIT_mainPB1_064PUP                        :File Identification Number
#--------------------------------------------------
~WELL INFORMATION
#MNEM.UNIT      DATA             DESCRIPTION
#---- ------ --------------   -----------------------------
STRT .M      4280.0016       :START DEPTH     
STOP .M      3948.9888       :STOP DEPTH     
STEP .M        -0.1524       :STEP     
NULL .          -999.25      :NULL VALUE
COMP .        INPEX Browse, Ltd.                       :COMPANY
WELL .        ICHTHYS DEEP-1                           :WELL
FLD  .        WA-285-P                                 :FIELD
LOC  .        Datum: GDA94 Spheroid GRS80              :LOCATION
CNTY .        Ocean Bounty                             :COUNTY
STAT .        1:200                                    :STATE
CTRY .        Australia                                :COUNTRY
API  .                                                 :API NUMBER
UWI  .                                                 :UNIQUE WELL ID
DATE .        03-Nov-2003                              :LOG DATE {DD-MMM-YYYY}
SRVC .        Schlumberger                             :SERVICE COMPANY
LATI .DEG     13 51' 47.081" S                         :LATITUDE
LONG .DEG     123 13'  56.110" E                       :LONGITUDE
GDAT .                                                 :GeoDetic Datum
#-----------------------------------------------------------------------------
~PARAMETER INFORMATION
#MNEM.UNIT    VALUE                      DESCRIPTION
#---- -----   --------------------       ------------------------
RUN  .          Suite 2 Run 1            :RUN NUMBER
PDAT .        LAT                        :Permanent Datum
EPD  .M           0.000000               :Elevation of Permanent Datum above Mean Sea Level
EPD  .M           0.000000               :Elevation of tool zero above Mean Sea Level
LMF  .          Drill Floor              :Logging Measured From (Name of Logging Elevation Reference)
APD  .M          25.000000               :Elevation of Depth Reference (LMF) above Permanent Datum
#-----------------------------------------------------------------------------
~CURVE INFORMATION
#MNEM.UNIT   API CODE                                  DESCRIPTION
#---- -----  --------                                  -----------------------
DEPT .M                                                :DEPTH (BOREHOLE) {F10.4}
TENS .LBF                                              :Cable Tension {F13.4}
APLU .V/V                                              :APS Near/Array Uncorrected Limestone Porosity {F13.4}
RHOM .G/C3                                             :LDS Corrected Bulk Density {F13.4}
DRH  .G/C3                                             :LDS Bulk Density Correction {F13.4}
PEFL .                                                 :LDS Long-Spaced Corrected Photoelectric Effect {F13.4}
LCAL .IN                                               :LDS Caliper {F13.4}
HSGR .GAPI                                             :HNGS Standard Gamma Ray {F13.4}
CDF  .LBF                                              :Calibrated Downhole Force {F13.4}
APLC .V/V                                              :APS Near/Array Corrected Limestone Porosity {F13.4}
ATD2 .IN                                               :Array Induction Two Foot Outer Diameter of Invasion (D2) {F13.4}
ATD1 .IN                                               :Array Induction Two Foot Inner Diameter of Invasion(D1) {F13.4}
AOD2 .IN                                               :Array Induction One Foot Outer Diameter of Invasion (D2) {F13.4}
AOD1 .IN                                               :Array Induction One Foot Inner Diameter of Invasion (D1) {F13.4}
AT90 .OHMM                                             :Array Induction Two Foot Resistivity A90 {F13.4}
AT60 .OHMM                                             :Array Induction Two Foot Resistivity A60 {F13.4}
AT30 .OHMM                                             :Array Induction Two Foot Resistivity A30 {F13.4}
AT20 .OHMM                                             :Array Induction Two Foot Resistivity A20 {F13.4}
AT10 .OHMM                                             :Array Induction Two Foot Resistivity A10 {F13.4}
AO90 .OHMM                                             :Array Induction One Foot Resistivity A90 {F13.4}
AO60 .OHMM                                             :Array Induction One Foot Resistivity A60 {F13.4}
AO30 .OHMM                                             :Array Induction One Foot Resistivity A30 {F13.4}
AO20 .OHMM                                             :Array Induction One Foot Resistivity A20 {F13.4}
AO10 .OHMM                                             :Array Induction One Foot Resistivity A10 {F13.4}
SIGF .CU                                               :APS Formation Capture Cross-Section {F13.4}
ANEC .HZ                                               :APS Near Detector Count Rate {F13.4}
AFEC .HZ                                               :APS Far Detector Count Rate {F13.4}
A1EP .HZ                                               :APS Array-1 Detector Count Rate {F13.4}
A2EP .HZ                                               :APS Array-2 Detector Count Rate {F13.4}
AFTC .HZ                                               :APS Thermal Detector Count Rate {F13.4}
#-----------------------------------------------------------------------------
# 
#     DEPT        TENS         APLU         RHOM         DRH          PEFL         LCAL         HSGR         CDF          APLC         ATD2         ATD1         AOD2         AOD1         AT90         AT60         AT30         AT20         AT10         AO90         AO60         AO30         AO20         AO10         SIGF         ANEC         AFEC         A1EP         A2EP         AFTC
#
~A  
# ...
 4171.1880    5546.0000       0.0712       2.4747      -0.0161       2.1835       8.5723      23.6668    1328.1481       0.0626      22.9765      13.6765      25.9046      12.5935      24.4420      25.2013      25.8996      26.6397      42.1132      24.1981      24.5191      25.8852      26.2348      42.3239       9.0779    3570.0000    1916.0000    3309.0000    3147.0000    7587.1631
 4171.0356    5565.0000       0.0733       2.4740      -0.0152       2.2826       8.5738      23.5403    1331.3475       0.0650      22.7602      16.0997      25.3448      14.2209      24.3923      25.1686      25.8433      26.6444      42.0831      24.2783      24.6434      26.1495      26.2760      42.4121       9.4400    3395.0000    1927.0000    3282.0000    3229.0000    7546.1797
 4170.8832    5650.0000       0.0768       2.4731      -0.0170       2.3123       8.5727      24.3390    1332.4141       0.0690      23.3705      19.1421      24.5836      16.5556      24.3662      25.1664      25.8134      26.5864      41.8996      24.6340      24.9221      25.8452      26.4336      41.8519       9.3344    3496.0000    1985.0000    3214.0000    3153.0000    7105.6011
 4170.7308    5588.0000       0.0736       2.4780      -0.0162       2.2245       8.5758      23.1437    1332.4141       0.0662      24.2319      21.7536      24.5575      18.3729      24.3704      25.1894      25.7814      26.5640      41.8238      24.0382      24.6691      26.3085      26.2234      42.2012       9.1589    3510.0000    1992.0000    3189.0000    3211.0000    7346.3818
 4170.5784    5625.0000       0.0721       2.4839      -0.0151       2.1521       8.5714      24.2507    1330.9921       0.0655      24.2105      22.5472      24.6203      20.8589      24.3451      25.1526      25.6304      26.6015      41.6055      24.0589      24.6640      26.1105      26.1870      41.5880       9.6832    3453.0000    1969.0000    3363.0000    3272.0000    7448.8423
 4170.4260    5585.0000       0.0679       2.4841      -0.0167       2.1524       8.5705      24.6110    1330.9921       0.0613      24.2039      22.9798      25.7425      20.5636      24.3237      25.1433      25.6373      26.4057      41.4729      24.4816      25.1841      25.2790      25.6172      40.2531       9.5580    3517.0000    2022.0000    3347.0000    3296.0000    7548.7407
 4170.2736    5600.0000       0.0671       2.4754      -0.0188       2.1884       8.5752      24.6269    1321.7490       0.0608      24.7310      24.0515      26.2890      16.4461      24.3455      25.1849      25.8370      26.5291      41.6901      24.3360      24.8794      25.9228      26.2243      41.0196       9.5150    3560.0000    1997.0000    3377.0000    3331.0000    7556.4253
 4170.1212    5554.0000       0.0698       2.4577      -0.0228       2.1776       8.5705      24.0497    1324.9485       0.0640      24.7442      24.3672      26.6997      12.1178      24.3334      25.1743      25.9214      26.6652      42.0260      24.0727      24.7201      26.0286      26.4201      41.9119       9.6148    3547.0000    2034.0000    3453.0000    3202.0000    7182.4463
 4169.9688    5538.0000       0.0694       2.4547      -0.0224       2.2303       8.5727      22.1523    1320.6825       0.0632      24.2213      23.0702      26.0407      12.0023      24.4506      25.2963      26.0175      26.8077      42.3968      24.3037      24.9925      26.3217      26.7652      42.7149       9.9107    3488.0000    2015.0000    3346.0000    3181.0000    7615.3394
 4169.8164    5543.0000       0.0704       2.4631      -0.0211       2.2243       8.5724      22.7121    1321.3936       0.0641      23.2105      20.5964      25.4527      15.1609      24.5718      25.4074      26.2557      26.9770      42.7676      24.6658      25.4299      26.8144      26.5831      43.5803       9.7058    3497.0000    2056.0000    3266.0000    3347.0000    7453.9653
 4169.6640    5520.0000       0.0699       2.4682      -0.0207       2.1424       8.5724      23.1674    1324.5930       0.0637      22.1335      18.7098      24.7954      17.3895      24.7981      25.6798      26.1905      26.9402      42.8315      24.6192      24.7220      26.1640      26.6081      43.0189      10.0322    3417.0000    1941.0000    3241.0000    3240.0000    7605.0938
 4169.5116    5523.0000       0.0749       2.4704      -0.0204       2.1962       8.5724      24.8626    1329.2146       0.0682      21.8489      18.3250      23.6752      17.3339      24.8794      25.7962      26.3557      27.1663      43.0313      24.6891      25.3674      26.5786      27.0623      43.2162       9.9023    3461.0000    1946.0000    3298.0000    3171.0000    7535.9331
 4169.3592    5583.0000       0.0741       2.4727      -0.0180       2.1865       8.5727      25.1095    1336.3246       0.0669      21.5691      18.8129      22.9955      17.8218      25.1513      26.0205      26.7595      27.3378      43.3300      25.9324      26.2610      27.4469      27.3454      43.8165       9.9909    3473.0000    1900.0000    3296.0000    3160.0000    7533.3716
 4169.2068    5598.0000       0.0759       2.4747      -0.0187       2.2939       8.5694      24.2493    1326.0150       0.0688      21.1309      19.6379      23.4251      18.8172      25.2494      26.2443      26.6401      27.2065      43.0023      24.8407      25.3194      26.2806      26.6440      42.0977       9.7278    3614.0000    1956.0000    3368.0000    3197.0000    7533.3721
 4169.0544    5626.0000       0.0757       2.4741      -0.0167       2.2713       8.5727      22.7490    1328.8590       0.0687      21.0029      20.3651      24.0852      18.9072      25.4106      26.4390      26.6220      27.1408      42.8308      25.0148      26.4575      26.6949      26.7403      42.4360       9.7388    3532.0000    1921.0000    3258.6667    3137.3333    7469.3340
 4168.9020    5625.0000       0.0776       2.4762      -0.0133       2.2846       8.5738      21.2021    1331.7030       0.0706      21.5931      20.7300      24.4811      17.1967      25.4782      26.6023      26.8821      27.3515      43.2252      25.4546      25.6588      27.4941      26.7436      43.2029       9.5667    3441.0000    1921.0000    3226.0000    3190.0000    7561.5479
 4168.7496    5669.0000       0.0718       2.4802      -0.0117       2.2526       8.5755      21.1842    1326.3706       0.0656      23.3127      20.5487      25.2009      15.5065      25.3915      26.3721      27.1133      27.6545      43.5442      25.1651      25.9132      26.9992      27.2943      42.3380       9.4678    3412.0000    1880.0000    3258.0000    3194.0000    7318.2056
 4168.5972    5650.0000       0.0673       2.4776      -0.0097       2.2067       8.5711      21.6103    1318.1941       0.0605      25.5837      19.1703      26.9541      15.4593      25.6682      26.7648      27.4908      27.8632      43.7080      25.9854      26.8574      27.9368      28.3600      44.3151       9.3443    3472.0000    1883.0000    3301.0000    3290.0000    7269.5376
 4168.4448    5641.0000       0.0678       2.4620      -0.0122       2.2392       8.5704      21.0322    1323.8821       0.0611      29.5281      15.6067      28.5992      16.2004      25.5367      26.6969      27.9112      28.4307      43.4566      24.9972      25.5613      28.0632      28.9923      45.6012       9.5274    3488.0000    1793.0000    3254.0000    3276.0000    7325.8901
 4168.2924    5619.0000       0.0731       2.4370      -0.0125       2.3335       8.5744      21.1636    1328.5035       0.0651      35.9381      11.6725      28.4235      17.9830      26.0069      27.0016      28.2690      29.4351      42.7551      26.0030      26.7029      29.0187      29.1655      46.1692       9.9675    3393.0000    1778.0000    3257.0000    3116.0000    7420.6655
 4168.1400    5623.0000       0.0876       2.4202      -0.0101       2.3869       8.6043      24.4527    1327.4370       0.0793      43.5784       9.9476      27.0344      17.8293      27.9913      28.8925      30.2370      31.2880      42.1300      29.2228      30.1301      32.3061      31.1829      48.1732      10.7049    3400.0000    1647.0000    3081.0000    3076.0000    6880.1890
