~VERSION INFORMATION
VERS.           2.0   :CWLS Log ASCII Standard - VERSION 2.0
WRAP.           NO    :One Line per depth step
PROD.  Schlumberger   :LAS Producer
PROG.  DLIS to ASCII 11C0-305                          :LAS Program name and version
CREA.        2003/11/19 08:49                          :LAS Creation date {YYYY/MM/DD hh:mm}
SOURCE.     AIT_LDL_APS_NGS_011PUP.DLIS                :DLIS File Name
FILE-ID.     AIT_LDL_APS_NGS_011PUP                    :File Identification Number
#--------------------------------------------------
~WELL INFORMATION
#MNEM.UNIT      DATA             DESCRIPTION
#---- ------ --------------   -----------------------------
STRT .M      4859.4264       :START DEPTH     
STOP .M      4018.3308       :STOP DEPTH     
STEP .M        -0.1524       :STEP     
NULL .          -999.25      :NULL VALUE
COMP .        INPEX Browse, Ltd.                       :COMPANY
WELL .        ICHTHYS DEEP-1                           :WELL
FLD  .        WA-285-P                                 :FIELD
LOC  .        Datum: GDA94 Spheroid GRS80              :LOCATION
CNTY .        Ocean Bounty                             :COUNTY
STAT .        1:200                                    :STATE
CTRY .        Australia                                :COUNTRY
API  .                                                 :API NUMBER
UWI  .                                                 :UNIQUE WELL ID
DATE .        16-Nov-2003                              :LOG DATE {DD-MMM-YYYY}
SRVC .        Schlumberger                             :SERVICE COMPANY
LATI .DEG     13 51' 47.081" S                         :LATITUDE
LONG .DEG     123 13'  56.110" E                       :LONGITUDE
GDAT .                                                 :GeoDetic Datum
#-----------------------------------------------------------------------------
~PARAMETER INFORMATION
#MNEM.UNIT    VALUE                      DESCRIPTION
#---- -----   --------------------       ------------------------
RUN  .          Suite 3 Run 1            :RUN NUMBER
PDAT .        LAT                        :Permanent Datum
EPD  .M           0.000000               :Elevation of Permanent Datum above Mean Sea Level
EPD  .M           0.000000               :Elevation of tool zero above Mean Sea Level
LMF  .          Drill Floor              :Logging Measured From (Name of Logging Elevation Reference)
APD  .M          25.000000               :Elevation of Depth Reference (LMF) above Permanent Datum
#-----------------------------------------------------------------------------
~CURVE INFORMATION
#MNEM.UNIT   API CODE                                  DESCRIPTION
#---- -----  --------                                  -----------------------
DEPT .M                                                :DEPTH (BOREHOLE) {F10.4}
RHOM .G/C3                                             :LDS Corrected Bulk Density {F13.4}
DRH  .G/C3                                             :LDS Bulk Density Correction {F13.4}
PEFL .                                                 :LDS Long-Spaced Corrected Photoelectric Effect {F13.4}
#-----------------------------------------------------------------------------
# 
#     DEPT        RHOM         DRH          PEFL
#
~A  
# ...
 4030.3704       2.1577       0.1013       5.8055
 4030.2180       2.2196       0.0369       5.7524
 4030.0656       2.4030      -0.0363       6.0962
 4029.9132       2.6099      -0.1236       7.0732
 4029.7608       2.8016      -0.3083      15.1770
 4029.6084       2.6538      -0.6761      51.8198
 4029.4560       2.7100      -0.8086      27.3666
 4029.3036       2.5144      -0.8207      12.4421
 4029.1512       2.3087      -0.8762      22.4404
 4028.9988       2.2373      -0.8296      36.4927
 4028.8464       2.2151      -0.8170      44.0587
 4028.6940       2.2052      -0.8213      29.0756
 4028.5416       2.2249      -0.8218      27.1173
 4028.3892       2.2572      -0.8106      22.7592
 4028.2368       2.2801      -0.8002      30.0240
 4028.0844       2.2606      -0.7995      28.3986
 4027.9320       2.2358      -0.8018      37.6905
 4027.7796       2.1911      -0.8106      34.4723
 4027.6272       2.1823      -0.8128      38.9363
 4027.4748       2.1669      -0.8175      30.6404
 4027.3224       2.1679      -0.8319      27.2794
 4027.1700       2.1507      -0.8682      24.8950
 4027.0176       2.1721      -0.8752      27.9783
 4026.8652       2.1979      -0.8846      30.4956
 4026.7128       2.1690      -0.9144      38.7047
 4026.5604       2.1682      -0.9009      52.4820
 4026.4080       2.1737      -0.8661      56.8408
 4026.2556       2.1413      -0.8642      45.4464
 4026.1032       2.1219      -0.8586      37.3685
 4025.9508       2.1112      -0.8436      35.3467
 4025.7984       2.1085      -0.8460      32.9972
 4025.6460       2.1088      -0.8453      32.3125
 4025.4936       2.1206      -0.8385      31.8300
 4025.3412       2.1204      -0.8364      55.8376
 4025.1888       2.1177      -0.8390      49.7100
 4025.0364       2.0996      -0.8453      72.2561
 4024.8840       2.1071      -0.8439      35.9907
 4024.7316       2.1055      -0.8486      49.0013
 4024.5792       2.1081      -0.8631      39.4179
 4024.4268       2.1225      -0.8766      35.9919
 4024.2744       2.1514      -0.8727      29.1325
 4024.1220       2.1895      -0.8695      33.5730
 4023.9696       2.1357      -0.9042      42.6084
 4023.8172       2.1254      -0.8952      53.1013
 4023.6648       2.1386      -0.8744      78.8356
 4023.5124       2.1265      -0.8718      49.7128
 4023.3600       2.1385      -0.8636      41.3116
 4023.2076       2.1318      -0.8491      23.3423
 4023.0552       2.1303      -0.8474      30.5313
 4022.9028       2.1197      -0.8475      44.3752
 4022.7504       2.1081      -0.8526      82.9288
 4022.5980       2.1273      -0.8386     118.6794
 4022.4456       2.1578      -0.8169      44.5110
 4022.2932       2.1687      -0.8109      46.9915
 4022.1408       2.1642      -0.8098      35.3965
 4021.9884       2.1660      -0.8027      52.0416
 4021.8360       2.1559      -0.8136      85.9934
 4021.6836       2.1672      -0.8204     222.9091
 4021.5312       2.1707      -0.8164      70.4431
 4021.3788       2.1705      -0.8169      32.5910
 4021.2264       2.1720      -0.8215      26.1241
 4021.0740       2.1664      -0.8251      23.7738
 4020.9216       2.1829      -0.8195      28.4931
 4020.7692       2.1614      -0.8298      26.0479
 4020.6168       2.1735      -0.8243      44.5204
 4020.4644       2.1884      -0.8129      39.7863
 4020.3120       2.2100      -0.8024      39.6263
 4020.1596       2.2086      -0.8078      31.6886
 4020.0072       2.1869      -0.8109      34.5305
 4019.8548       2.1680      -0.8169      36.2305
 4019.7024       2.1680      -0.8169      36.2305
 4019.5500       2.1680      -0.8169      36.2305
 4019.3976       2.1680      -0.8169      36.2305
 4019.2452       2.1680      -0.8169      36.2305
 4019.0928       2.1680      -0.8169      36.2305
 4018.9404       2.1680      -0.8169      36.2305
 4018.7880       2.1680      -0.8169      36.2305
 4018.6356       2.1680      -0.8169      36.2305
 4018.4832       2.1680      -0.8169      36.2305
 4018.3308       2.1680      -0.8169      36.2305
