~VERSION INFORMATION
VERS.           2.0   :CWLS Log ASCII Standard - VERSION 2.0
WRAP.           NO    :One Line per depth step
PROD.  Schlumberger   :LAS Producer
PROG.  DLIS to ASCII 11C0-305                          :LAS Program name and version
CREA.        2003/11/19 08:45                          :LAS Creation date {YYYY/MM/DD hh:mm}
SOURCE.     UBI_Mainpb1_036PUP.DLIS                    :DLIS File Name
FILE-ID.     UBI_Mainpb1_036PUP                        :File Identification Number
#--------------------------------------------------
~WELL INFORMATION
#MNEM.UNIT      DATA             DESCRIPTION
#---- ------ --------------   -----------------------------
STRT .M      4859.4264       :START DEPTH     
STOP .M      4016.0448       :STOP DEPTH     
STEP .M        -0.1524       :STEP     
NULL .          -999.25      :NULL VALUE
COMP .        INPEX Browse, Ltd.                       :COMPANY
WELL .        ICHTHYS DEEP-1                           :WELL
FLD  .        WA-285-P                                 :FIELD
LOC  .        Datum: GDA94 Spheroid GRS80              :LOCATION
CNTY .        Ocean Bounty                             :COUNTY
STAT .        1:200                                    :STATE
CTRY .        Australia                                :COUNTRY
API  .                                                 :API NUMBER
UWI  .                                                 :UNIQUE WELL ID
DATE .        16-Nov-2003                              :LOG DATE {DD-MMM-YYYY}
SRVC .        Schlumberger                             :SERVICE COMPANY
LATI .DEG     13 51' 47.081" S                         :LATITUDE
LONG .DEG     123 13'  56.110" E                       :LONGITUDE
GDAT .                                                 :GeoDetic Datum
#-----------------------------------------------------------------------------
~PARAMETER INFORMATION
#MNEM.UNIT    VALUE                      DESCRIPTION
#---- -----   --------------------       ------------------------
RUN  .          Suite 3 Run 1            :RUN NUMBER
PDAT .        LAT                        :Permanent Datum
EPD  .M           0.000000               :Elevation of Permanent Datum above Mean Sea Level
EPD  .M           0.000000               :Elevation of tool zero above Mean Sea Level
LMF  .          Drill Floor              :Logging Measured From (Name of Logging Elevation Reference)
APD  .M          25.000000               :Elevation of Depth Reference (LMF) above Permanent Datum
#-----------------------------------------------------------------------------
~CURVE INFORMATION
#MNEM.UNIT   API CODE                                  DESCRIPTION
#---- -----  --------                                  -----------------------
DEPT .M                                                :DEPTH (BOREHOLE) {F10.4}
LCAL .IN                                               :LDS Caliper {F13.4}
GR   .GAPI                                             :Gamma Ray {F13.4}
#-----------------------------------------------------------------------------
# 
#     DEPT        LCAL         GR
#
~A  
# ...
 4694.0724      11.2069      36.8266
 4693.9200      10.5451      27.3326
 4693.7676      10.4920      16.5934
 4693.6152      10.4940      12.4961
 4693.4628      10.3542      13.3928
 4693.3104      10.2001      17.9835
 4693.1580       9.9733      24.0478
 4693.0056      10.3162      30.9549
 4692.8532      10.6591      50.3877
 4692.7008      10.4911      69.4169
 4692.5484      10.2658      79.8019
 4692.3960       9.8710      66.9701
 4692.2436       9.9090      47.7348
 4692.0912       9.7466      34.9578
 4691.9388      10.3643      30.3487
 4691.7864      10.1531      31.7312
 4691.6340      11.0113      36.5984
 4691.4816      11.6855      44.7080
 4691.3292      11.3510      53.4841
 4691.1768      10.9672      61.0439
 4691.0244      10.9350      68.4534
 4690.8720      10.9403      78.7323
 4690.7196      10.0387      94.8715
 4690.5672       9.8952     108.0990
 4690.4148       9.8725     113.0882
 4690.2624       9.7869     103.1700
 4690.1100       9.6550      93.2313
 4689.9576       9.6248      86.2602
 4689.8052       9.9847      91.1243
 4689.6528      10.0699      96.2367
 4689.5004      10.3228      98.9488
 4689.3480      10.2164      98.2487
 4689.1956      10.1573      96.3818
 4689.0432      10.1494     100.8158
 4688.8908      10.1449     101.3992
 4688.7384       9.7507     104.6080
 4688.5860      10.1241      99.5322
 4688.4336      10.1453      87.6304
 4688.2812      12.7789      65.2502
 4688.1288      13.3684      51.0146
 4687.9764      12.5809      52.9240
 4687.8240      12.1149      63.4554
 4687.6716      11.1560      77.0014
 4687.5192      10.4983      84.8936
 4687.3668      10.1354      78.9426
 4687.2144       9.6365      59.5623
 4687.0620       9.6369      35.8753
 4686.9096       9.4663      27.4976
 4686.7572       9.3189      36.5407
 4686.6048       9.2272      57.2647
 4686.4524       9.1503      70.4512
 4686.3000       9.2213      66.8339
 4686.1476       9.2417      50.3690
 4685.9952      10.0313      37.3392
 4685.8428      10.0208      30.9798
 4685.6904      10.0239      27.4209
 4685.5380       9.6822      25.6207
 4685.3856       9.3242      21.0116
 4685.2332       9.1004      19.4765
 4685.0808       9.0904      24.0188
 4684.9284       9.4225      36.3291
 4684.7760       9.8942      44.6586
 4684.6236       9.6129      49.4763
 4684.4712       9.8910      47.7294
 4684.3188       9.9540      53.8503
 4684.1664       9.4906      71.4678
 4684.0140       9.4015      90.7759
 4683.8616      10.0432     106.0983
 4683.7092       9.6639     109.2171
 4683.5568       9.6651     115.4491
 4683.4044       9.3808     120.5249
 4683.2520       8.9869     121.6568
 4683.0996       8.9875     123.7177
 4682.9472       8.9969     125.1049
 4682.7948       8.9938     127.9387
 4682.6424       9.3759     127.8254
 4682.4900      10.6242     126.1598
 4682.3376      11.3054     122.5325
 4682.1852      11.2148     113.5944
 4682.0328      11.1412     115.5064
 4681.8804      10.6467     115.5181
 4681.7280      10.1666     119.4270
 4681.5756       9.9149     112.8110
 4681.4232       9.8359     110.7495
 4681.2708       9.9762     106.9940
 4681.1184       9.8550     106.8423
 4680.9660       9.8313     102.7711
 4680.8136       9.6681      94.5081
 4680.6612       9.2795      86.7132
 4680.5088       9.1868      89.3453
 4680.3564       9.1372     102.8807
 4680.2040       9.1345     110.4873
 4680.0516       9.1485     106.8117
 4679.8992       9.5791      96.8352
 4679.7468       9.5187      90.9559
 4679.5944       9.5135      90.6059
 4679.4420       9.4187      95.0399
 4679.2896       9.4517     101.4876
 4679.1372       9.9446      99.9707
 4678.9848       9.7379      86.7270
 4678.8324       9.9521      68.3190
 4678.6800       9.9507      52.0998
 4678.5276       9.8880      44.6320
 4678.3752      10.0622      38.0393
 4678.2228       9.9224      38.0976
 4678.0704       9.7926      37.8059
 4677.9180       9.6075      40.6859
 4677.7656       9.6084      42.1586
 4677.6132       9.8727      45.7175
 4677.4608       9.9136      50.3053
 4677.3084       9.6876      58.6006
 4677.1560       9.6739      65.5467
 4677.0036       9.3953      72.6061
 4676.8512       9.0917      71.7062
 4676.6988       9.0321      66.0490
 4676.5464       9.5904      55.2673
 4676.3940       9.4558      47.3327
 4676.2416       9.2631      40.2380
 4676.0892       8.8309      33.2835
 4675.9368       8.8217      27.5043
 4675.7844       8.8894      24.2171
 4675.6320       9.0234      23.8541
 4675.4796       8.8768      24.4992
 4675.3272       8.9007      25.5994
 4675.1748       8.8495      24.5622
 4675.0224       8.7901      23.3953
 4674.8700       8.6721      23.8037
 4674.7176       8.6894      26.4908
 4674.5652       8.6913      27.8910
 4674.4128       8.8148      29.8397
 4674.2604       8.8513      31.5399
 4674.1080       8.9291      33.7941
 4673.9556       8.7176      34.5274
 4673.8032       8.7296      35.2159
 4673.6508       8.6815      36.3456
 4673.4984       8.6829      36.7557
 4673.3460       8.6813      36.0673
 4673.1936       8.6822      35.9423
 4673.0412       8.6820      35.2522
 4672.8888       8.6820      36.1023
 4672.7364       8.7096      34.4364
 4672.5840       8.7475      35.3999
 4672.4316       8.7788      34.8881
 4672.2792       8.8026      35.6872
 4672.1268       8.8267      35.5306
 4671.9744       8.8470      35.5338
 4671.8220       8.8437      37.2507
 4671.6696       8.8396      33.8085
 4671.5172       8.8447      31.3841
 4671.3648       8.8473      28.3236
 4671.2124       8.8480      29.4854
 4671.0600       8.7739      32.1350
 4670.9076       8.7853      32.0784
 4670.7552       8.7804      33.1706
 4670.6028       8.7728      30.9569
 4670.4504       8.8114      31.3653
 4670.2980       8.8108      30.3947
 4670.1456       8.7556      29.1323
 4669.9932       8.7659      26.6819
 4669.8408       8.8064      24.4066
 4669.6884       8.8273      23.6252
 4669.5360       8.8525      23.9239
 4669.3836       8.8537      22.9622
 4669.2312       8.8795      22.5573
 4669.0788       8.8813      22.9586
 4668.9264       8.9014      25.3206
 4668.7740       8.9105      26.9225
 4668.6216       8.9213      27.0622
 4668.4692       8.9466      27.7040
 4668.3168       8.8751      28.6108
 4668.1644       8.8053      30.7147
 4668.0120       8.7473      32.0388
 4667.8596       8.7211      33.0890
 4667.7072       8.7218      35.6296
 4667.5548       8.6964      35.5306
 4667.4024       8.6824      34.4221
 4667.2500       8.6756      31.2065
 4667.0976       8.6407      30.8597
 4666.9452       8.6405      32.1649
 4666.7928       8.6948      31.2381
 4666.6404       8.7334      29.5079
 4666.4880       8.7958      27.3594
 4666.3356       8.7374      24.9338
 4666.1832       8.6584      22.5768
 4666.0308       8.6552      19.2012
 4665.8784       8.6502      19.0598
 4665.7260       8.6505      19.2348
 4665.5736       8.6920      19.7714
 4665.4212       8.8898      18.4101
 4665.2688       9.0777      16.0014
 4665.1164       9.0929      15.0379
 4664.9640       9.0755      15.0930
 4664.8116       9.0154      16.3399
 4664.6592       8.9433      16.2015
 4664.5068       8.9192      17.3911
 4664.3544       8.9426      17.2110
 4664.2020       8.8427      17.7361
 4664.0496       8.7743      17.7037
 4663.8972       8.7561      17.6570
 4663.7448       8.7507      17.0436
 4663.5924       8.7070      16.7681
 4663.4400       8.6541      18.2983
 4663.2876       8.6200      18.2416
 4663.1352       8.6175      17.1493
 4662.9828       8.6158      15.2344
 4662.8304       8.6049      16.6152
 4662.6780       8.6029      16.4119
 4662.5256       8.5992      17.0799
 4662.3732       8.5712      15.8125
 4662.2208       8.5582      16.2659
 4662.0684       8.5570      15.0190
 4661.9160       8.5567      16.2092
 4661.7636       8.5572      17.3594
 4661.6112       8.5571      16.9693
 4661.4588       8.5574      17.2269
 4661.3064       8.5562      17.3436
 4661.1540       8.5629      19.7357
