~VERSION INFORMATION
VERS.           2.0   :CWLS Log ASCII Standard - VERSION 2.0
WRAP.           NO    :One Line per depth step
PROD.  Schlumberger   :LAS Producer
PROG.  DLIS to ASCII 11C0-305                          :LAS Program name and version
CREA.        2003/11/16 09:47                          :LAS Creation date {YYYY/MM/DD hh:mm}
SOURCE.     AIT_MainPB1_027PUP.DLIS                    :DLIS File Name
FILE-ID.     AIT_MainPB1_027PUP                        :File Identification Number
#--------------------------------------------------
~WELL INFORMATION
#MNEM.UNIT      DATA             DESCRIPTION
#---- ------ --------------   -----------------------------
STRT .M      4869.0276       :START DEPTH     
STOP .M      3996.2328       :STOP DEPTH     
STEP .M        -0.1524       :STEP     
NULL .          -999.25      :NULL VALUE
COMP .        INPEX Browse, Ltd.                       :COMPANY
WELL .        ICHTHYS DEEP-1                           :WELL
FLD  .        WA-285-P                                 :FIELD
LOC  .        Datum: GDA94 Spheroid GRS80              :LOCATION
CNTY .        Ocean Bounty                             :COUNTY
STAT .        1:200                                    :STATE
CTRY .        Australia                                :COUNTRY
API  .                                                 :API NUMBER
UWI  .                                                 :UNIQUE WELL ID
DATE .        16-Nov-2003                              :LOG DATE {DD-MMM-YYYY}
SRVC .        Schlumberger                             :SERVICE COMPANY
LATI .DEG     13 51' 47.081" S                         :LATITUDE
LONG .DEG     123 13'  56.110" E                       :LONGITUDE
GDAT .                                                 :GeoDetic Datum
#-----------------------------------------------------------------------------
~PARAMETER INFORMATION
#MNEM.UNIT    VALUE                      DESCRIPTION
#---- -----   --------------------       ------------------------
RUN  .          Suite 3 Run 1            :RUN NUMBER
PDAT .        LAT                        :Permanent Datum
EPD  .M           0.000000               :Elevation of Permanent Datum above Mean Sea Level
EPD  .M           0.000000               :Elevation of tool zero above Mean Sea Level
LMF  .          Drill Floor              :Logging Measured From (Name of Logging Elevation Reference)
APD  .M          25.000000               :Elevation of Depth Reference (LMF) above Permanent Datum
#-----------------------------------------------------------------------------
~CURVE INFORMATION
#MNEM.UNIT   API CODE                                  DESCRIPTION
#---- -----  --------                                  -----------------------
DEPT .M                                                :DEPTH (BOREHOLE) {F10.4}
TENS .LBF                                              :Cable Tension {F13.4}
APLU .V/V                                              :APS Near/Array Uncorrected Limestone Porosity {F13.4}
RHOM .G/C3                                             :LDS Corrected Bulk Density {F13.4}
DRH  .G/C3                                             :LDS Bulk Density Correction {F13.4}
PEFL .                                                 :LDS Long-Spaced Corrected Photoelectric Effect {F13.4}
LCAL .IN                                               :LDS Caliper {F13.4}
HSGR .GAPI                                             :HNGS Standard Gamma Ray {F13.4}
CDF  .N                                                :Calibrated Downhole Force {F13.4}
APLC .V/V                                              :APS Near/Array Corrected Limestone Porosity {F13.4}
ATD2 .IN                                               :Array Induction Two Foot Outer Diameter of Invasion (D2) {F13.4}
ATD1 .IN                                               :Array Induction Two Foot Inner Diameter of Invasion(D1) {F13.4}
AOD2 .IN                                               :Array Induction One Foot Outer Diameter of Invasion (D2) {F13.4}
AOD1 .IN                                               :Array Induction One Foot Inner Diameter of Invasion (D1) {F13.4}
AT90 .OHMM                                             :Array Induction Two Foot Resistivity A90 {F13.4}
AT60 .OHMM                                             :Array Induction Two Foot Resistivity A60 {F13.4}
AT30 .OHMM                                             :Array Induction Two Foot Resistivity A30 {F13.4}
AT20 .OHMM                                             :Array Induction Two Foot Resistivity A20 {F13.4}
AT10 .OHMM                                             :Array Induction Two Foot Resistivity A10 {F13.4}
AO90 .OHMM                                             :Array Induction One Foot Resistivity A90 {F13.4}
AO60 .OHMM                                             :Array Induction One Foot Resistivity A60 {F13.4}
AO30 .OHMM                                             :Array Induction One Foot Resistivity A30 {F13.4}
AO20 .OHMM                                             :Array Induction One Foot Resistivity A20 {F13.4}
AO10 .OHMM                                             :Array Induction One Foot Resistivity A10 {F13.4}
SIGF .CU                                               :APS Formation Capture Cross-Section {F13.4}
ANEC .HZ                                               :APS Near Detector Count Rate {F13.4}
AFEC .HZ                                               :APS Far Detector Count Rate {F13.4}
A1EP .HZ                                               :APS Array-1 Detector Count Rate {F13.4}
A2EP .HZ                                               :APS Array-2 Detector Count Rate {F13.4}
AFTC .HZ                                               :APS Thermal Detector Count Rate {F13.4}
#-----------------------------------------------------------------------------
# 
#     DEPT        TENS         APLU         RHOM         DRH          PEFL         LCAL         HSGR         CDF          APLC         ATD2         ATD1         AOD2         AOD1         AT90         AT60         AT30         AT20         AT10         AO90         AO60         AO30         AO20         AO10         SIGF         ANEC         AFEC         A1EP         A2EP         AFTC
#
~A  
# ...
 4347.3624    5767.0000       0.0955       2.8139      -0.0079    -999.2500       8.5617      96.6964    5893.6646       0.0895       8.5609       8.5609      42.9276      22.3113       7.9123       7.9385       8.1375       8.3674       8.9847       7.1376       7.1231       7.8274       7.9933       8.5569      21.6455    2931.0000    1322.0000    2679.0000    2600.0000    3066.1155
 4347.2100    5743.0000       0.1155       2.8139      -0.0079    -999.2500       8.5603     103.3449    5896.8276       0.1100       8.5613       8.5613      27.5341      13.3454       7.1303       7.1346       7.2297       7.3236       7.8222       6.8253       6.8240       6.8305       6.9837       7.3727      23.5044    2941.0000    1282.0000    2501.0000    2416.0000    2799.7197
 4347.0576    5749.0000       0.1276       2.8139      -0.0079    -999.2500       8.5640     108.7411    5896.8276       0.1215       8.5615       8.5615      13.2463       8.5623       6.5312       6.5518       6.4531       6.6590       7.1377       6.0605       6.0645       6.3333       6.4526       6.7785      26.3943    2979.0000    1103.0000    2364.0000    2280.0000    2510.2700
 4346.9052    5788.0000       0.1285       2.8139      -0.0079    -999.2500       8.5591     110.3966    6012.2656       0.1201       8.5623       8.5623       9.3827       8.5859       6.0560       6.0900       6.1587       6.2337       6.7172       5.7847       5.7952       6.2226       6.3275       6.5373      27.2274    3008.0000    1129.0000    2484.0000    2371.0000    2525.6392
 4346.7528    5794.0000       0.1235       2.8139      -0.0079    -999.2500       8.5606     110.9223    6026.4976       0.1150       8.5606       8.5606       8.6080       8.6080       5.7298       5.7512       5.8311       6.0348       6.4950       5.7537       5.8051       6.1153       6.0261       6.3948      27.6035    3014.0000    1143.0000    2427.0000    2470.0000    2605.0457
 4346.6004    5821.0000       0.1236       2.8139      -0.0079    -999.2500       8.5609     110.2692    5966.4063       0.1156       8.5611       8.5611       8.8121       8.8121       5.5422       5.5793       5.7305       5.8575       6.1790       5.6639       5.7522       5.7676       5.7632       6.0498      28.1145    2945.0000    1164.0000    2455.0000    2427.0000    2551.2542
 4346.4480    5788.0000       0.1236       2.8139      -0.0079    -999.2500       8.5600     113.8801    5964.8252       0.1151       8.5617       8.5617       9.0871       9.0871       5.2133       5.2612       5.3497       5.4697       5.8657       5.3570       5.4140       5.4999       5.2381       6.3073      27.9028    3019.0000    1143.0000    2464.0000    2320.0000    2612.7300
 4346.2956    5770.0000       0.1263       2.8139      -0.0079    -999.2500       8.5663     119.8479    5972.7319       0.1177       8.5625       8.5625       9.0878       9.0878       4.3603       4.4132       4.5350       4.5896       4.8474       4.5059       4.5428       4.6363       4.1844       4.9259      27.8111    2904.0000    1083.0000    2418.0000    2373.0000    2341.2112
 4346.1432    5784.0000       0.1320       2.8139      -0.0079    -999.2500       8.5614     127.3871    5942.6860       0.1225       8.5623       8.5623       8.8139       8.8139       3.8118       3.8492       3.8489       3.8728       4.0546       3.7847       3.7979       3.9294       3.7144       3.9899      29.3814    2903.0000    1028.0000    2262.0000    2300.0000    2405.2485
 4345.9908    5769.0000       0.1379       2.8139      -0.0079    -999.2500       8.5606     132.4637    5952.1743       0.1268       8.5615       8.5615       8.6083       8.6083       3.4142       3.4458       3.3512       3.3955       3.5495       3.0610       3.0728       3.1068       3.0718       3.2483      30.1377    2771.0000     992.0000    2277.0000    2191.0000    2095.3071
 4345.8384    5760.0000       0.1436       2.8139      -0.0079    -999.2500       8.5603     135.3769    5967.9883       0.1296       8.5626       8.5626       8.5679       8.5678       3.2326       3.2538       3.1992       3.2616       3.3462       2.9997       2.9879       3.0729       3.1751       3.1681      31.1402    2799.0000     964.0000    2230.0000    2167.0000    2100.4299
 4345.6860    5785.0000       0.1421       2.8139      -0.0079    -999.2500       8.5623     134.8542    6012.2656       0.1274       8.5617       8.5617       8.5617       8.5617       3.3921       3.4102       3.3953       3.4248       3.5083       3.2962       3.2883       3.4213       3.6384       3.4444      31.7968    2788.0000     967.0000    2170.0000    2132.0000    1997.9700
 4345.5336    5693.0000       0.1472       2.8139      -0.0079    -999.2500       8.5626     134.6960    5974.3135       0.1350       8.5617       8.5617       8.5617       8.5617       3.6575       3.6721       3.6910       3.7092       3.7758       3.7486       3.7474       3.8930       4.0456       3.9325      31.2369    2795.0000     948.0000    2218.0000    2204.0000    2079.9380
 4345.3812    5672.0000       0.1445       2.8139      -0.0079    -999.2500       8.5591     132.0872    5936.3608       0.1334       8.5609       8.5609       8.5621       8.5621       3.8684       3.8800       3.8825       3.9675       4.0649       3.7540       3.7413       3.8217       4.0064       4.0815      30.7867    2809.0000     991.0000    2212.0000    2128.0000    2269.4890
 4345.2288    5702.0000       0.1416       2.8139      -0.0079    -999.2500       8.5606     131.3246    5907.8970       0.1312       8.5634       8.5634       8.5611       8.5611       3.8013       3.8116       3.8228       3.8596       3.9249       3.6857       3.6694       3.6619       3.8574       3.7810      31.0475    2846.0000    1009.0000    2202.0000    2194.0000    2292.5427
 4345.0764    5723.0000       0.1363       2.8139      -0.0079    -999.2500       8.5609     128.5878    5903.1528       0.1272       8.5604       8.5604       8.5626       8.5626       3.8013       3.8092       3.8291       3.8961       3.9368       3.9509       3.9254       3.9417       3.9383       3.8865      30.8536    2823.0000    1025.0000    2332.0000    2211.0000    2133.7295
 4344.9240    5731.0000       0.1362       2.8139      -0.0079    -999.2500       8.5591     128.6230    5907.8970       0.1271       8.5626       8.5626       8.5617       8.5617       3.7303       3.7349       3.7495       3.8231       3.8915       3.6884       3.6683       3.7534       3.8308       3.8304      30.6596    2837.0000     972.0000    2393.0000    2206.0000    2097.8687
 4344.7716    5700.0000       0.1314       2.8139      -0.0079    -999.2500       8.5623     128.2607    5884.1768       0.1211       8.5654       8.5654       8.5617       8.5617       3.6067       3.6088       3.6295       3.6917       3.7691       3.5064       3.4675       3.6513       3.7460       3.7443      29.8995    2902.0000     975.0000    2293.0000    2225.0000    2225.9436
 4344.6192    5766.0000       0.1340       2.8139      -0.0079    -999.2500       8.5606     128.2919    5888.9209       0.1253       8.5617       8.5617       8.5611       8.5611       3.5334       3.5368       3.5779       3.6746       3.7784       3.4788       3.4457       3.5545       3.6645       3.6224      29.0490    2923.0000     938.0000    2399.0000    2318.0000    2177.2749
 4344.4668    5793.0000       0.1324       2.8139      -0.0079    -999.2500       8.5611     129.9204    5901.5718       0.1241       8.5614       8.5614       8.5634       8.5634       3.7137       3.7128       3.7611       3.8510       3.9642       3.7598       3.7292       3.8182       3.9427       3.9055      29.0983    2883.0000    1039.0000    2315.0000    2280.0000    2197.7671
 4344.3144    5818.0000       0.1311       2.8139      -0.0079    -999.2500       8.5617     129.1399    5923.7100       0.1218       8.5615       8.5615       8.5615       8.5615       3.8489       3.8475       3.9275       4.0265       4.1759       3.7952       3.7470       3.9486       4.1631       4.1381      29.2468    2904.0000    1000.0000    2313.0000    2342.0000    2102.9917
