~VERSION INFORMATION
VERS.           2.0   :CWLS Log ASCII Standard - VERSION 2.0
WRAP.           NO    :One Line per depth step
PROD.  Schlumberger   :LAS Producer
PROG.  DLIS to ASCII 11C0-305                          :LAS Program name and version
CREA.        2003/11/19 08:49                          :LAS Creation date {YYYY/MM/DD hh:mm}
SOURCE.     AIT_LDL_APS_NGS_011PUP.DLIS                :DLIS File Name
FILE-ID.     AIT_LDL_APS_NGS_011PUP                    :File Identification Number
#--------------------------------------------------
~WELL INFORMATION
#MNEM.UNIT      DATA             DESCRIPTION
#---- ------ --------------   -----------------------------
STRT .M      4859.4264       :START DEPTH     
STOP .M      4018.3308       :STOP DEPTH     
STEP .M        -0.1524       :STEP     
NULL .          -999.25      :NULL VALUE
COMP .        INPEX Browse, Ltd.                       :COMPANY
WELL .        ICHTHYS DEEP-1                           :WELL
FLD  .        WA-285-P                                 :FIELD
LOC  .        Datum: GDA94 Spheroid GRS80              :LOCATION
CNTY .        Ocean Bounty                             :COUNTY
STAT .        1:200                                    :STATE
CTRY .        Australia                                :COUNTRY
API  .                                                 :API NUMBER
UWI  .                                                 :UNIQUE WELL ID
DATE .        16-Nov-2003                              :LOG DATE {DD-MMM-YYYY}
SRVC .        Schlumberger                             :SERVICE COMPANY
LATI .DEG     13 51' 47.081" S                         :LATITUDE
LONG .DEG     123 13'  56.110" E                       :LONGITUDE
GDAT .                                                 :GeoDetic Datum
#-----------------------------------------------------------------------------
~PARAMETER INFORMATION
#MNEM.UNIT    VALUE                      DESCRIPTION
#---- -----   --------------------       ------------------------
RUN  .          Suite 3 Run 1            :RUN NUMBER
PDAT .        LAT                        :Permanent Datum
EPD  .M           0.000000               :Elevation of Permanent Datum above Mean Sea Level
EPD  .M           0.000000               :Elevation of tool zero above Mean Sea Level
LMF  .          Drill Floor              :Logging Measured From (Name of Logging Elevation Reference)
APD  .M          25.000000               :Elevation of Depth Reference (LMF) above Permanent Datum
#-----------------------------------------------------------------------------
~CURVE INFORMATION
#MNEM.UNIT   API CODE                                  DESCRIPTION
#---- -----  --------                                  -----------------------
DEPT .M                                                :DEPTH (BOREHOLE) {F10.4}
RHOM .G/C3                                             :LDS Corrected Bulk Density {F13.4}
DRH  .G/C3                                             :LDS Bulk Density Correction {F13.4}
PEFL .                                                 :LDS Long-Spaced Corrected Photoelectric Effect {F13.4}
#-----------------------------------------------------------------------------
# 
#     DEPT        RHOM         DRH          PEFL
#
~A  
# ...
 4201.0584       2.5124       0.0363       2.2461
 4200.9060       2.5113       0.0347       2.2510
 4200.7536       2.5147       0.0394       2.2997
 4200.6012       2.5142       0.0353       2.3468
 4200.4488       2.5146       0.0372       2.3210
 4200.2964       2.5232       0.0390       2.3754
 4200.1440       2.5276       0.0442       2.2868
 4199.9916       2.5297       0.0438       2.2728
 4199.8392       2.5267       0.0462       2.2424
 4199.6868       2.5310       0.0452       2.2799
 4199.5344       2.5338       0.0437       2.2176
 4199.3820       2.5296       0.0430       2.2691
 4199.2296       2.5206       0.0424       2.3235
 4199.0772       2.5127       0.0416       2.4412
 4198.9248       2.5254       0.0472       2.4202
 4198.7724       2.5238       0.0445       2.3612
 4198.6200       2.5269       0.0447       2.3273
 4198.4676       2.5183       0.0421       2.3462
 4198.3152       2.5104       0.0358       2.3858
 4198.1628       2.5147       0.0361       2.4088
 4198.0104       2.5197       0.0394       2.3446
 4197.8580       2.5213       0.0392       2.3435
 4197.7056       2.5245       0.0430       2.3753
 4197.5532       2.5337       0.0465       2.3543
 4197.4008       2.5392       0.0487       2.3234
 4197.2484       2.5403       0.0540       2.3256
 4197.0960       2.5364       0.0621       2.3756
 4196.9436       2.5154       0.0670       2.4433
 4196.7912       2.5119       0.0886       2.6623
 4196.6388       2.5031       0.1004       2.9969
 4196.4864       2.5092       0.1125       3.5109
 4196.3340       2.5329       0.1335       3.7733
 4196.1816       2.5486       0.1415       3.8450
 4196.0292       2.5489       0.1493       3.5649
 4195.8768       2.5756       0.1854       3.5670
 4195.7244       2.5682       0.2083       3.7832
 4195.5720       2.5505       0.2205       4.2437
 4195.4196       2.5514       0.2410       4.2684
 4195.2672       2.5711       0.2643       4.3267
 4195.1148       2.5975       0.2780       4.3421
 4194.9624       2.6139       0.3051       4.5259
 4194.8100       2.6215       0.3275       4.5036
 4194.6576       2.6161       0.3470       4.6849
 4194.5052       2.6079       0.3514       4.7927
 4194.3528       2.6124       0.3541       5.0315
 4194.2004       2.6306       0.3686       5.0567
 4194.0480       2.6220       0.3725       5.2743
 4193.8956       2.5890       0.3732       5.7197
 4193.7432       2.5608       0.3622       5.2960
 4193.5908       2.5815       0.3761       4.7965
 4193.4384       2.5575       0.3427       4.2092
 4193.2860       2.5112       0.2884       4.2446
 4193.1336       2.4751       0.2331       4.2270
 4192.9812       2.4797       0.1821       4.1884
 4192.8288       2.4774       0.1280       3.9046
 4192.6764       2.4951       0.1061       3.8026
 4192.5240       2.5050       0.1064       3.6966
 4192.3716       2.4937       0.0987       3.7746
 4192.2192       2.4951       0.1251       3.8454
 4192.0668       2.4925       0.1557       3.9270
 4191.9144       2.4981       0.2104       4.3909
 4191.7620       2.4802       0.2504       5.1525
 4191.6096       2.4483       0.2820       6.3161
 4191.4572       2.4575       0.2963       6.5084
 4191.3048       2.4975       0.2959       6.0655
 4191.1524       2.5402       0.2581       4.7587
 4191.0000       2.5439       0.2131       3.9889
 4190.8476       2.5834       0.2220       3.6237
 4190.6952       2.5617       0.2158       3.8128
 4190.5428       2.4828       0.1951       4.4158
 4190.3904       2.4608       0.2135       5.2759
 4190.2380       2.4606       0.2196       5.9441
 4190.0856       2.4714       0.1879       5.7386
 4189.9332       2.4828       0.1680       4.9585
 4189.7808       2.4956       0.1542       4.7132
 4189.6284       2.4965       0.1577       4.8032
 4189.4760       2.4837       0.1757       5.4311
 4189.3236       2.4621       0.1999       5.9936
 4189.1712       2.4224       0.1941       5.9862
 4189.0188       2.4035       0.1967       5.8849
 4188.8664       2.3931       0.1699       5.7365
 4188.7140       2.4056       0.1586       5.6612
 4188.5616       2.4500       0.1716       5.6589
 4188.4092       2.4603       0.1763       5.0127
 4188.2568       2.4681       0.1860       4.5079
 4188.1044       2.5046       0.2029       4.1072
 4187.9520       2.5251       0.2051       4.1932
 4187.7996       2.5255       0.1884       4.2736
 4187.6472       2.5217       0.2118       4.5293
 4187.4948       2.5383       0.2382       4.9634
 4187.3424       2.5903       0.2915       6.0865
 4187.1900       2.5846       0.3190       6.7553
 4187.0376       2.5108       0.3350       7.0408
 4186.8852       2.4175       0.3301       6.8322
 4186.7328       2.3991       0.3319       6.7145
 4186.5804       2.4288       0.3233       6.4392
 4186.4280       2.4972       0.3312       5.9768
 4186.2756       2.5305       0.3212       5.8497
 4186.1232       2.5422       0.3160       5.6181
 4185.9708       2.5606       0.3178       5.4174
 4185.8184       2.5720       0.3133       4.9593
 4185.6660       2.6040       0.3248       4.7313
 4185.5136       2.6171       0.3238       4.5877
 4185.3612       2.6184       0.3071       4.5699
 4185.2088       2.5925       0.2527       3.9933
 4185.0564       2.5843       0.2104       3.4092
 4184.9040       2.6312       0.2156       3.0637
 4184.7516       2.6648       0.2393       3.1165
 4184.5992       2.6518       0.2538       3.3781
 4184.4468       2.6700       0.3149       3.6502
 4184.2944       2.6920       0.3637       3.9284
 4184.1420       2.6882       0.3631       3.9916
 4183.9896       2.6659       0.3485       3.9283
 4183.8372       2.6088       0.2864       3.9753
 4183.6848       2.5475       0.2011       3.6182
 4183.5324       2.5473       0.1381       3.2244
 4183.3800       2.5666       0.0855       2.8488
 4183.2276       2.5767       0.0258       2.9874
 4183.0752       2.6002       0.0237       3.4593
 4182.9228       2.5988       0.0320       3.3164
 4182.7704       2.5609       0.0300       2.8671
 4182.6180       2.5297       0.0317       2.4082
 4182.4656       2.5156       0.0359       2.2872
 4182.3132       2.5311       0.0638       2.2881
 4182.1608       2.5655       0.1081       2.5506
 4182.0084       2.5545       0.1199       2.9206
 4181.8560       2.5353       0.1162       3.1103
 4181.7036       2.5359       0.1174       2.8783
 4181.5512       2.5310       0.0910       2.6937
 4181.3988       2.5126       0.0437       2.5050
 4181.2464       2.5022       0.0300       2.4759
 4181.0940       2.4928       0.0303       2.4550
 4180.9416       2.4939       0.0548       2.4907
 4180.7892       2.5416       0.1265       2.7323
 4180.6368       2.5723       0.2017       3.1807
 4180.4844       2.5791       0.2483       3.8019
 4180.3320       2.5836       0.2615       3.7732
 4180.1796       2.6595       0.3173       3.2907
 4180.0272       2.6978       0.3263       3.0914
 4179.8748       2.6666       0.3084       3.2395
 4179.7224       2.6528       0.3159       3.7399
 4179.5700       2.6751       0.3585       3.8747
 4179.4176       2.6684       0.3505       3.9013
 4179.2652       2.5981       0.2850       3.8206
 4179.1128       2.5382       0.2107       4.0124
 4178.9604       2.5227       0.1507       3.6533
 4178.8080       2.5434       0.1076       3.1919
 4178.6556       2.5350       0.0543       2.6126
 4178.5032       2.5374       0.0469       2.3324
 4178.3508       2.5434       0.0511       2.3202
 4178.1984       2.5468       0.0503       2.3423
 4178.0460       2.5472       0.0467       2.3057
 4177.8936       2.5486       0.0464       2.2750
 4177.7412       2.5430       0.0412       2.2564
 4177.5888       2.5344       0.0424       2.2979
 4177.4364       2.5279       0.0430       2.3095
 4177.2840       2.5204       0.0402       2.3855
 4177.1316       2.5243       0.0411       2.4289
 4176.9792       2.5269       0.0444       2.4364
 4176.8268       2.5150       0.0354       2.3626
