~VERSION INFORMATION
VERS.           2.0   :CWLS Log ASCII Standard - VERSION 2.0
WRAP.           NO    :One Line per depth step
PROD.  Schlumberger   :LAS Producer
PROG.  DLIS to ASCII 11C0-305                          :LAS Program name and version
CREA.        2003/11/19 08:45                          :LAS Creation date {YYYY/MM/DD hh:mm}
SOURCE.     UBI_Mainpb1_036PUP.DLIS                    :DLIS File Name
FILE-ID.     UBI_Mainpb1_036PUP                        :File Identification Number
#--------------------------------------------------
~WELL INFORMATION
#MNEM.UNIT      DATA             DESCRIPTION
#---- ------ --------------   -----------------------------
STRT .M      4859.4264       :START DEPTH     
STOP .M      4016.0448       :STOP DEPTH     
STEP .M        -0.1524       :STEP     
NULL .          -999.25      :NULL VALUE
COMP .        INPEX Browse, Ltd.                       :COMPANY
WELL .        ICHTHYS DEEP-1                           :WELL
FLD  .        WA-285-P                                 :FIELD
LOC  .        Datum: GDA94 Spheroid GRS80              :LOCATION
CNTY .        Ocean Bounty                             :COUNTY
STAT .        1:200                                    :STATE
CTRY .        Australia                                :COUNTRY
API  .                                                 :API NUMBER
UWI  .                                                 :UNIQUE WELL ID
DATE .        16-Nov-2003                              :LOG DATE {DD-MMM-YYYY}
SRVC .        Schlumberger                             :SERVICE COMPANY
LATI .DEG     13 51' 47.081" S                         :LATITUDE
LONG .DEG     123 13'  56.110" E                       :LONGITUDE
GDAT .                                                 :GeoDetic Datum
#-----------------------------------------------------------------------------
~PARAMETER INFORMATION
#MNEM.UNIT    VALUE                      DESCRIPTION
#---- -----   --------------------       ------------------------
RUN  .          Suite 3 Run 1            :RUN NUMBER
PDAT .        LAT                        :Permanent Datum
EPD  .M           0.000000               :Elevation of Permanent Datum above Mean Sea Level
EPD  .M           0.000000               :Elevation of tool zero above Mean Sea Level
LMF  .          Drill Floor              :Logging Measured From (Name of Logging Elevation Reference)
APD  .M          25.000000               :Elevation of Depth Reference (LMF) above Permanent Datum
#-----------------------------------------------------------------------------
~CURVE INFORMATION
#MNEM.UNIT   API CODE                                  DESCRIPTION
#---- -----  --------                                  -----------------------
DEPT .M                                                :DEPTH (BOREHOLE) {F10.4}
LCAL .IN                                               :LDS Caliper {F13.4}
GR   .GAPI                                             :Gamma Ray {F13.4}
#-----------------------------------------------------------------------------
# 
#     DEPT        LCAL         GR
#
~A  
# ...
 4363.3644       8.5025     124.9695
 4363.2120       8.4990     114.1256
 4363.0596       8.5020     105.0421
 4362.9072       8.5004     101.2071
 4362.7548       8.4990     107.4390
 4362.6024       8.4999     110.9683
 4362.4500       8.4992     115.6050
 4362.2976       8.4957     115.1918
 4362.1452       8.4957     114.2661
 4361.9928       8.4918     109.4971
 4361.8404       8.4933     107.5547
 4361.6880       8.4924     104.6454
 4361.5356       8.4936     101.9757
 4361.3832       8.4940     100.6120
 4361.2308       8.4919     104.3892
 4361.0784       8.4922     105.6042
 4360.9260       8.4874     107.8523
 4360.7736       8.4867     105.5298
 4360.6212       8.4825     107.1663
 4360.4688       8.4827     105.0504
 4360.3164       8.4825     102.1658
 4360.1640       8.4811     101.5873
 4360.0116       8.4794      99.8433
 4359.8592       8.4804     102.5956
 4359.7068       8.4804     103.5461
 4359.5544       8.4811     112.1667
 4359.4020       8.4806     116.3985
 4359.2496       8.4787     118.6301
 4359.0972       8.4806     114.6628
 4358.9448       8.4816     107.2572
 4358.7924       8.4808     105.3975
 4358.6400       8.4794     105.7033
 4358.4876       8.4808     108.8772
 4358.3352       8.4794     109.8029
 4358.1828       8.4775     106.7388
 4358.0304       8.4816     106.0941
 4357.8780       8.4789     108.8712
 4357.7256       8.4781     110.9435
 4357.5732       8.4789     111.3154
 4357.4208       8.4808     108.1416
 4357.2684       8.4797     102.6865
 4357.1160       8.4794      99.5210
 4356.9636       8.4806      95.8182
 4356.8112       8.4792      98.1242
 4356.6588       8.4841      99.0499
 4356.5064       8.4985      93.5452
 4356.3540       8.5053      94.2147
 4356.2016       8.5075      96.1984
 4356.0492       8.5072     104.3809
 4355.8968       8.5053     108.6044
 4355.7444       8.5056     112.5717
 4355.5920       8.5075     112.4064
 4355.4396       8.5072     110.4228
 4355.2872       8.5061     106.0918
 4355.1348       8.5103     101.8600
 4354.9824       8.5141      99.8681
 4354.8300       8.5141      99.1739
 4354.6776       8.5117      99.6036
 4354.5252       8.5136      95.3801
 4354.3728       8.5136      88.9002
 4354.2204       8.5138      85.4289
 4354.0680       8.5124      86.2223
 4353.9156       8.5141      95.0082
 4353.7632       8.5141     104.3975
 4353.6108       8.5163     109.6872
 4353.4584       8.5335     112.9354
 4353.3060       8.5336     113.5883
 4353.1536       8.5317     115.0430
 4353.0012       8.5336     112.5304
 4352.8488       8.5334     113.0676
 4352.6964       8.5317     112.5387
 4352.5440       8.5336     112.6709
 4352.3916       8.5334     111.3485
 4352.2392       8.5343     116.3737
 4352.0868       8.5322     118.6053
 4351.9344       8.5320     120.1922
 4351.7820       8.5335     112.9188
 4351.6296       8.5329     106.7199
 4351.4772       8.5327     102.4882
 4351.3248       8.5334     101.9592
 4351.1724       8.5322     102.3311
 4351.0200       8.5339     103.5296
 4350.8676       8.5341     107.2324
 4350.7152       8.5320     111.3237
 4350.5628       8.5339     116.8696
 4350.4104       8.5339     116.7374
 4350.2580       8.5336     118.8863
 4350.1056       8.5320     112.0097
 4349.9532       8.5324     107.0671
 4349.8008       8.5335     106.4059
 4349.6484       8.5334     105.5050
 4349.4960       8.5325     111.1088
 4349.3436       8.5322     110.1831
 4349.1912       8.5341     109.4392
 4349.0388       8.5336     107.1911
 4348.8864       8.5306     106.2654
 4348.7340       8.5207     106.3232
 4348.5816       8.5223     104.7033
 4348.4292       8.5124     105.7612
 4348.2768       8.5108     108.6788
 4348.1244       8.5108     109.1086
 4347.9720       8.5086     102.7609
 4347.8196       8.5068     100.6368
 4347.6672       8.5070      97.3307
 4347.5148       8.5091      96.0083
 4347.3624       8.5058      96.5207
 4347.2100       8.5044      97.8432
 4347.0576       8.5014     103.0833
 4346.9052       8.4978     107.4638
 4346.7528       8.4990     110.8774
 4346.6004       8.4978     115.9522
 4346.4480       8.5006     116.8779
 4346.2956       8.5009     125.4985
 4346.1432       8.5012     129.8625
 4345.9908       8.4995     134.7224
 4345.8384       8.5006     138.2930
 4345.6860       8.5021     141.0040
 4345.5336       8.4988     144.7398
 4345.3812       8.5009     144.4505
 4345.2288       8.5061     139.4914
 4345.0764       8.5058     136.5821
 4344.9240       8.5063     135.1522
 4344.7716       8.5061     138.8550
 4344.6192       8.5058     138.4004
 4344.4668       8.5075     139.7228
 4344.3144       8.5075     136.2680
 4344.1620       8.5063     138.5740
 4344.0096       8.5081     131.8626
 4343.8572       8.5058     135.4403
 4343.7048       8.5061     128.6959
 4343.5524       8.5058     130.6796
 4343.4000       8.5058     126.4572
 4343.2476       8.5072     132.2594
 4343.0952       8.5075     134.8712
 4342.9428       8.5070     132.9123
 4342.7904       8.5061     128.1681
 4342.6380       8.5053     128.0358
 4342.4856       8.5082     129.9947
 4342.3332       8.5063     132.1106
 4342.1808       8.5080     131.3667
 4342.0284       8.5061     133.7471
 4341.8760       8.5094     137.1854
 4341.7236       8.5025     137.1854
 4341.5712       8.4995     131.4990
 4341.4188       8.4959     128.9863
 4341.2664       8.4962     131.4494
 4341.1140       8.4978     143.5826
 4340.9616       8.4959     151.3850
 4340.8092       8.4993     154.8729
 4340.6568       8.4992     151.0709
 4340.5044       8.4988     141.0039
 4340.3520       8.4983     133.0198
 4340.1996       8.4992     134.2099
 4340.0472       8.4976     146.9218
 4339.8948       8.4992     153.2695
 4339.7424       8.4959     154.4596
 4339.5900       8.4976     153.1537
 4339.4376       8.4997     150.2444
 4339.2852       8.4976     146.8309
 4339.1328       8.5004     136.6316
 4338.9804       8.4976     131.8792
 4338.8280       8.4931     130.3997
 4338.6756       8.4940     128.4160
 4338.5232       8.4940     129.9947
 4338.3708       8.4816     127.0854
 4338.2184       8.4742     127.2176
 4338.0660       8.4728     126.7547
 4337.9136       8.4742     122.3907
 4337.7612       8.4750     116.8365
 4337.6088       8.4728     113.8611
 4337.4564       8.4745     114.2578
 4337.3040       8.4748     114.2578
 4337.1516       8.4752     108.5714
 4336.9992       8.4745     108.1250
 4336.8468       8.4731     109.4475
 4336.6944       8.4728     114.2661
 4336.5420       8.4747     111.8030
 4336.3896       8.4747     109.1582
 4336.2372       8.4750     108.0424
 4336.0848       8.4728     111.0367
 4335.9324       8.4747     113.4750
 4335.7800       8.4750     114.7974
 4335.6276       8.4731     116.0348
 4335.4752       8.4728     119.2582
 4335.3228       8.4745     118.8615
 4335.1704       8.4752     117.0928
 4335.0180       8.4720     118.1755
 4334.8656       8.4728     125.7133
 4334.7132       8.4726     133.8298
 4334.5608       8.4742     132.5073
 4334.4084       8.4733     133.9620
 4334.2560       8.4750     131.1849
 4334.1036       8.4747     132.2924
 4333.9512       8.4745     125.1513
 4333.7988       8.4757     127.6226
 4333.6464       8.4748     132.3338
 4333.4940       8.4761     133.5240
 4333.3416       8.4745     134.3587
 4333.1892       8.4761     134.6232
 4333.0368       8.4750     136.3589
 4332.8844       8.4816     139.5327
 4332.7320       8.4811     146.2771
 4332.5796       8.4808     149.3766
 4332.4272       8.4813     142.1032
 4332.2748       8.4799     134.1686
 4332.1224       8.4846     131.7139
 4331.9700       8.4902     131.9784
 4331.8176       8.4898     128.5648
 4331.6652       8.4884     129.8873
 4331.5128       8.5009     132.1354
 4331.3604       8.5108     137.7144
 4331.2080       8.5256     141.2850
 4331.0556       8.5341     142.2850
 4330.9032       8.5327     139.3261
 4330.7508       8.5341     136.2845
 4330.5984       8.5348     137.0036
 4330.4460       8.5257     141.0783
