~VERSION INFORMATION
VERS.           2.0   :CWLS Log ASCII Standard - VERSION 2.0
WRAP.           NO    :One Line per depth step
PROD.  Schlumberger   :LAS Producer
PROG.  DLIS to ASCII 11C0-305                          :LAS Program name and version
CREA.        2003/11/19 08:49                          :LAS Creation date {YYYY/MM/DD hh:mm}
SOURCE.     AIT_LDL_APS_NGS_011PUP.DLIS                :DLIS File Name
FILE-ID.     AIT_LDL_APS_NGS_011PUP                    :File Identification Number
#--------------------------------------------------
~WELL INFORMATION
#MNEM.UNIT      DATA             DESCRIPTION
#---- ------ --------------   -----------------------------
STRT .M      4859.4264       :START DEPTH     
STOP .M      4018.3308       :STOP DEPTH     
STEP .M        -0.1524       :STEP     
NULL .          -999.25      :NULL VALUE
COMP .        INPEX Browse, Ltd.                       :COMPANY
WELL .        ICHTHYS DEEP-1                           :WELL
FLD  .        WA-285-P                                 :FIELD
LOC  .        Datum: GDA94 Spheroid GRS80              :LOCATION
CNTY .        Ocean Bounty                             :COUNTY
STAT .        1:200                                    :STATE
CTRY .        Australia                                :COUNTRY
API  .                                                 :API NUMBER
UWI  .                                                 :UNIQUE WELL ID
DATE .        16-Nov-2003                              :LOG DATE {DD-MMM-YYYY}
SRVC .        Schlumberger                             :SERVICE COMPANY
LATI .DEG     13 51' 47.081" S                         :LATITUDE
LONG .DEG     123 13'  56.110" E                       :LONGITUDE
GDAT .                                                 :GeoDetic Datum
#-----------------------------------------------------------------------------
~PARAMETER INFORMATION
#MNEM.UNIT    VALUE                      DESCRIPTION
#---- -----   --------------------       ------------------------
RUN  .          Suite 3 Run 1            :RUN NUMBER
PDAT .        LAT                        :Permanent Datum
EPD  .M           0.000000               :Elevation of Permanent Datum above Mean Sea Level
EPD  .M           0.000000               :Elevation of tool zero above Mean Sea Level
LMF  .          Drill Floor              :Logging Measured From (Name of Logging Elevation Reference)
APD  .M          25.000000               :Elevation of Depth Reference (LMF) above Permanent Datum
#-----------------------------------------------------------------------------
~CURVE INFORMATION
#MNEM.UNIT   API CODE                                  DESCRIPTION
#---- -----  --------                                  -----------------------
DEPT .M                                                :DEPTH (BOREHOLE) {F10.4}
RHOM .G/C3                                             :LDS Corrected Bulk Density {F13.4}
DRH  .G/C3                                             :LDS Bulk Density Correction {F13.4}
PEFL .                                                 :LDS Long-Spaced Corrected Photoelectric Effect {F13.4}
#-----------------------------------------------------------------------------
# 
#     DEPT        RHOM         DRH          PEFL
#
~A  
# ...
 4591.2024       2.6497       0.4218       6.1224
 4591.0500       2.6357       0.3958       6.0953
 4590.8976       2.5333       0.3633       6.7161
 4590.7452       2.4511       0.2921       6.8649
 4590.5928       2.4487       0.2497       5.6987
 4590.4404       2.5924       0.2605       4.3195
 4590.2880       2.6807       0.2413       3.5482
 4590.1356       2.6594       0.1468       3.8660
 4589.9832       2.7409       0.1471       4.9492
 4589.8308       2.7843       0.1205       5.3634
 4589.6784       2.8013       0.0547       5.3997
 4589.5260       2.8020       0.0194       5.0075
 4589.3736       2.7865       0.0198       4.7190
 4589.2212       2.7717       0.0234       4.5505
 4589.0688       2.7706       0.0654       4.5763
 4588.9164       2.7858       0.1421       5.5694
 4588.7640       2.7612       0.2207       6.8186
 4588.6116       2.6864       0.2591       8.0215
 4588.4592       2.6728       0.2939       7.6923
 4588.3068       2.6854       0.2900       7.2271
 4588.1544       2.7601       0.2768       7.4308
 4588.0020       2.7874       0.2173       7.6820
 4587.8496       2.8027       0.1915       7.5922
 4587.6972       2.8228       0.1965       6.8250
 4587.5448       2.8240       0.2184       6.7734
 4587.3924       2.8346       0.2539       7.6970
 4587.2400       2.8533       0.3208       8.9527
 4587.0876       2.7972       0.3577       8.7380
 4586.9352       2.7679       0.3915       8.2648
 4586.7828       2.7271       0.4109       8.5807
 4586.6304       2.6742       0.3847       9.0055
 4586.4780       2.6605       0.3828       9.2428
 4586.3256       2.6265       0.3476       8.8856
 4586.1732       2.6206       0.3271       9.1092
 4586.0208       2.5678       0.3157       9.3917
 4585.8684       2.4590       0.2889      10.1607
 4585.7160       2.4379       0.2823       9.8016
 4585.5636       2.5152       0.3278       8.5894
 4585.4112       2.6749       0.3860       7.8896
 4585.2588       2.7144       0.3878       7.2219
 4585.1064       2.7366       0.4169       7.7654
 4584.9540       2.7362       0.4304       7.6696
 4584.8016       2.7565       0.4363       8.0661
 4584.6492       2.8006       0.4276       7.9445
 4584.4968       2.8208       0.4367       6.7604
 4584.3444       2.6569       0.3934       6.8236
 4584.1920       2.4971       0.3372       6.1307
 4584.0396       2.4587       0.3147       5.6375
 4583.8872       2.5217       0.3227       4.5791
 4583.7348       2.5476       0.2970       4.1741
 4583.5824       2.4596       0.2356       3.8631
 4583.4300       2.5135       0.2504       3.9746
 4583.2776       2.6134       0.2692       4.3161
 4583.1252       2.7187       0.3243       4.8092
 4582.9728       2.7298       0.3695       6.1513
 4582.8204       2.7007       0.3814       5.4919
 4582.6680       2.7150       0.3762       5.3380
 4582.5156       2.7486       0.3569       5.0774
 4582.3632       2.7756       0.3396       5.5069
 4582.2108       2.8481       0.3416       5.9832
 4582.0584       2.8796       0.3855       6.2247
 4581.9060       2.8252       0.3830       6.2103
 4581.7536       2.7365       0.4071       6.8650
 4581.6012       2.6552       0.3899       7.4856
 4581.4488       2.5830       0.3316       7.9648
 4581.2964       2.5558       0.2457       6.8280
 4581.1440       2.6185       0.1910       5.9102
 4580.9916       2.6853       0.1369       4.9743
 4580.8392       2.7713       0.1448       4.7758
 4580.6868       2.8179       0.2176       5.0120
 4580.5344       2.7712       0.2667       5.7848
 4580.3820       2.6811       0.2500       6.6853
 4580.2296       2.6737       0.2423       6.0614
 4580.0772       2.7104       0.1943       5.2728
 4579.9248       2.7773       0.1481       4.6352
 4579.7724       2.8695       0.1948       4.6021
 4579.6200       2.9020       0.2638       4.6876
 4579.4676       2.8092       0.2402       4.5765
 4579.3152       2.8080       0.2805       4.1960
 4579.1628       2.8895       0.3650       4.3101
 4579.0104       2.7317       0.3304       4.8279
 4578.8580       2.5989       0.3227       6.7985
 4578.7056       2.5739       0.3977       7.9220
 4578.5532       2.6148       0.4475       8.6822
 4578.4008       2.5963       0.4443       8.9134
 4578.2484       2.5998       0.4379       8.7700
 4578.0960       2.5532       0.3558       7.5966
 4577.9436       2.5865       0.2807       6.5749
 4577.7912       2.6816       0.2219       5.8908
 4577.6388       2.7690       0.1576       5.3989
 4577.4864       2.8248       0.1143       5.0234
 4577.3340       2.8561       0.1506       4.9518
 4577.1816       2.8414       0.1617       5.2876
 4577.0292       2.8447       0.1788       6.0321
 4576.8768       2.8640       0.1917       6.7078
 4576.7244       2.8740       0.1858       6.8858
 4576.5720       2.8603       0.1499       6.2846
 4576.4196       2.8777       0.1513       5.6128
 4576.2672       2.8504       0.1336       5.6859
 4576.1148       2.8001       0.1266       4.6656
 4575.9624       2.7805       0.1540       4.3551
 4575.8100       2.8114       0.2331       3.9497
 4575.6576       2.7539       0.2807       4.4251
 4575.5052       2.6127       0.3100       5.6175
 4575.3528       2.4793       0.3293       7.8077
 4575.2004       2.4166       0.3399       8.4290
 4575.0480       2.3595       0.2833       8.0756
 4574.8956       2.4099       0.2400       7.2040
 4574.7432       2.6146       0.2800       6.6587
 4574.5908       2.8010       0.3360       6.3455
 4574.4384       2.7987       0.3448       6.2875
 4574.2860       2.7303       0.3844       6.4848
 4574.1336       2.7308       0.4309       6.4489
 4573.9812       2.7263       0.4311       6.2996
 4573.8288       2.7503       0.4071       6.3029
 4573.6764       2.8161       0.4012       6.4928
 4573.5240       2.8575       0.3799       6.6535
 4573.3716       2.7690       0.2880       6.4683
 4573.2192       2.6806       0.2003       5.0178
 4573.0668       2.6881       0.1627       4.0923
 4572.9144       2.7079       0.1120       3.4961
 4572.7620       2.7320       0.0874       3.6898
 4572.6096       2.7841       0.1431       3.9346
 4572.4572       2.7780       0.1979       4.3256
 4572.3048       2.7694       0.2698       4.0920
 4572.1524       2.7825       0.3541       4.3989
 4572.0000       2.7873       0.3988       4.7869
 4571.8476       2.7845       0.4122       4.9626
 4571.6952       2.7771       0.4036       4.9117
 4571.5428       2.7870       0.3941       4.5994
 4571.3904       2.7812       0.3489       4.4458
 4571.2380       2.7926       0.3315       4.0916
 4571.0856       2.7894       0.2913       3.9037
 4570.9332       2.7559       0.2407       3.6435
 4570.7808       2.7052       0.1530       3.6002
 4570.6284       2.6988       0.1234       3.3865
 4570.4760       2.7272       0.1133       3.2510
 4570.3236       2.7564       0.1392       3.1294
 4570.1712       2.7651       0.1765       3.2530
 4570.0188       2.7577       0.2210       3.6407
 4569.8664       2.7969       0.2949       4.0011
 4569.7140       2.8026       0.3240       4.2177
 4569.5616       2.7565       0.2864       4.0643
 4569.4092       2.7086       0.2249       3.9265
 4569.2568       2.7121       0.1842       3.6301
 4569.1044       2.7025       0.1175       3.3647
 4568.9520       2.6758       0.0579       3.0854
 4568.7996       2.6596       0.0314       3.0072
 4568.6472       2.6668       0.0260       3.0000
 4568.4948       2.7116       0.0254       3.3815
 4568.3424       2.7680       0.0302       4.0663
 4568.1900       2.8055       0.0259       4.7997
 4568.0376       2.8394       0.0247       5.2065
 4567.8852       2.8898       0.0261       5.3765
 4567.7328       2.9853       0.0335       7.0688
 4567.5804       3.0451       0.0386       7.5386
 4567.4280       3.0879       0.0502       6.8288
 4567.2756       3.0217       0.0189       6.5596
 4567.1232       3.0236       0.0149       6.7388
 4566.9708       3.0890       0.0295       8.2701
