~VERSION INFORMATION
VERS.           2.0   :CWLS Log ASCII Standard - VERSION 2.0
WRAP.           NO    :One Line per depth step
PROD.  Schlumberger   :LAS Producer
PROG.  DLIS to ASCII 11C0-305                          :LAS Program name and version
CREA.        2003/11/19 08:49                          :LAS Creation date {YYYY/MM/DD hh:mm}
SOURCE.     AIT_LDL_APS_NGS_011PUP.DLIS                :DLIS File Name
FILE-ID.     AIT_LDL_APS_NGS_011PUP                    :File Identification Number
#--------------------------------------------------
~WELL INFORMATION
#MNEM.UNIT      DATA             DESCRIPTION
#---- ------ --------------   -----------------------------
STRT .M      4859.4264       :START DEPTH     
STOP .M      4018.3308       :STOP DEPTH     
STEP .M        -0.1524       :STEP     
NULL .          -999.25      :NULL VALUE
COMP .        INPEX Browse, Ltd.                       :COMPANY
WELL .        ICHTHYS DEEP-1                           :WELL
FLD  .        WA-285-P                                 :FIELD
LOC  .        Datum: GDA94 Spheroid GRS80              :LOCATION
CNTY .        Ocean Bounty                             :COUNTY
STAT .        1:200                                    :STATE
CTRY .        Australia                                :COUNTRY
API  .                                                 :API NUMBER
UWI  .                                                 :UNIQUE WELL ID
DATE .        16-Nov-2003                              :LOG DATE {DD-MMM-YYYY}
SRVC .        Schlumberger                             :SERVICE COMPANY
LATI .DEG     13 51' 47.081" S                         :LATITUDE
LONG .DEG     123 13'  56.110" E                       :LONGITUDE
GDAT .                                                 :GeoDetic Datum
#-----------------------------------------------------------------------------
~PARAMETER INFORMATION
#MNEM.UNIT    VALUE                      DESCRIPTION
#---- -----   --------------------       ------------------------
RUN  .          Suite 3 Run 1            :RUN NUMBER
PDAT .        LAT                        :Permanent Datum
EPD  .M           0.000000               :Elevation of Permanent Datum above Mean Sea Level
EPD  .M           0.000000               :Elevation of tool zero above Mean Sea Level
LMF  .          Drill Floor              :Logging Measured From (Name of Logging Elevation Reference)
APD  .M          25.000000               :Elevation of Depth Reference (LMF) above Permanent Datum
#-----------------------------------------------------------------------------
~CURVE INFORMATION
#MNEM.UNIT   API CODE                                  DESCRIPTION
#---- -----  --------                                  -----------------------
DEPT .M                                                :DEPTH (BOREHOLE) {F10.4}
RHOM .G/C3                                             :LDS Corrected Bulk Density {F13.4}
DRH  .G/C3                                             :LDS Bulk Density Correction {F13.4}
PEFL .                                                 :LDS Long-Spaced Corrected Photoelectric Effect {F13.4}
#-----------------------------------------------------------------------------
# 
#     DEPT        RHOM         DRH          PEFL
#
~A  
# ...
 4420.5144       2.6626       0.0604       3.1161
 4420.3620       2.6682       0.0472       3.2552
 4420.2096       2.6655       0.0448       3.0663
 4420.0572       2.6810       0.0470       3.2753
 4419.9048       2.6613       0.0431       3.2544
 4419.7524       2.6492       0.0383       3.4889
 4419.6000       2.6434       0.0383       3.3878
 4419.4476       2.6656       0.0463       3.4418
 4419.2952       2.6870       0.0429       3.4522
 4419.1428       2.6944       0.0451       3.3755
 4418.9904       2.6838       0.0398       3.1813
 4418.8380       2.6641       0.0424       3.1709
 4418.6856       2.6477       0.0337       3.3602
 4418.5332       2.6492       0.0426       3.4312
 4418.3808       2.6431       0.0375       3.4473
 4418.2284       2.6681       0.0345       3.3469
 4418.0760       2.7226       0.0357       3.8698
 4417.9236       2.7869       0.0550       4.1600
 4417.7712       2.7667       0.0470       4.6993
 4417.6188       2.7302       0.0436       4.2793
 4417.4664       2.7305       0.0578       4.2499
 4417.3140       2.7279       0.0646       3.7944
 4417.1616       2.7150       0.0636       3.4454
 4417.0092       2.6912       0.0579       3.2360
 4416.8568       2.6710       0.0486       3.2492
 4416.7044       2.6512       0.0380       3.2951
 4416.5520       2.6406       0.0311       3.1993
 4416.3996       2.6497       0.0339       3.2630
 4416.2472       2.6726       0.0436       3.3081
 4416.0948       2.6772       0.0433       3.3747
 4415.9424       2.6746       0.0421       3.3034
 4415.7900       2.6618       0.0401       3.3537
 4415.6376       2.6627       0.0372       3.5063
 4415.4852       2.6614       0.0354       3.5028
 4415.3328       2.6705       0.0428       3.1964
 4415.1804       2.6608       0.0353       3.2676
 4415.0280       2.6551       0.0316       3.4090
 4414.8756       2.6565       0.0323       3.7219
 4414.7232       2.6563       0.0309       3.7025
 4414.5708       2.6570       0.0343       3.4778
 4414.4184       2.6591       0.0467       3.3241
 4414.2660       2.6622       0.0505       3.3389
 4414.1136       2.6627       0.0542       3.4151
 4413.9612       2.6700       0.0559       3.7274
 4413.8088       2.6542       0.0488       3.6222
 4413.6564       2.6540       0.0457       3.8345
 4413.5040       2.6487       0.0519       3.7053
 4413.3516       2.6555       0.0499       3.9011
 4413.1992       2.6410       0.0452       3.6576
 4413.0468       2.6504       0.0451       3.8117
 4412.8944       2.6288       0.0342       3.5744
 4412.7420       2.6280       0.0262       3.5142
 4412.5896       2.6517       0.0491       3.2650
 4412.4372       2.6700       0.0753       3.3812
 4412.2848       2.6435       0.0651       4.1035
 4412.1324       2.6399       0.0723       4.4906
 4411.9800       2.6613       0.0807       4.4207
 4411.8276       2.6502       0.0709       3.7731
 4411.6752       2.6173       0.0456       3.8717
 4411.5228       2.6055       0.0506       3.5656
 4411.3704       2.6070       0.0458       3.4430
 4411.2180       2.6214       0.0462       3.0718
 4411.0656       2.6177       0.0311       3.1088
 4410.9132       2.6416       0.0324       3.3031
 4410.7608       2.6548       0.0278       3.4946
 4410.6084       2.6797       0.0325       3.8382
 4410.4560       2.6640       0.0218       4.0641
 4410.3036       2.6387       0.0216       4.0367
 4410.1512       2.6071       0.0139       4.0066
 4409.9988       2.6074       0.0178       3.7474
 4409.8464       2.6194       0.0215       3.6416
 4409.6940       2.6266       0.0291       3.5418
 4409.5416       2.6105       0.0199       3.4827
 4409.3892       2.6252       0.0277       3.7073
 4409.2368       2.6380       0.0282       3.6477
 4409.0844       2.6483       0.0286       3.6069
 4408.9320       2.6480       0.0253       3.4646
 4408.7796       2.6523       0.0282       3.4912
 4408.6272       2.6385       0.0194       3.5140
 4408.4748       2.6298       0.0143       3.5850
 4408.3224       2.6288       0.0134       3.4943
 4408.1700       2.6450       0.0157       3.5661
 4408.0176       2.6726       0.0201       3.7494
 4407.8652       2.6956       0.0176       4.1392
 4407.7128       2.7146       0.0250       4.5586
 4407.5604       2.7444       0.0381       4.6240
 4407.4080       2.7274       0.0383       4.7151
 4407.2556       2.6969       0.0376       4.1595
 4407.1032       2.6621       0.0425       3.5195
 4406.9508       2.6538       0.0452       3.2136
 4406.7984       2.6672       0.0475       3.0463
 4406.6460       2.6736       0.0434       3.3160
 4406.4936       2.6697       0.0346       3.2215
 4406.3412       2.6767       0.0135       3.4565
 4406.1888       2.7435       0.0257       4.0249
 4406.0364       2.8002       0.0373       4.9322
 4405.8840       2.7811       0.0375       4.8528
 4405.7316       2.7156       0.0294       4.0440
 4405.5792       2.7071       0.0537       3.9475
 4405.4268       2.6946       0.0506       4.1715
 4405.2744       2.6964       0.0511       3.9264
 4405.1220       2.7000       0.0514       3.8229
 4404.9696       2.7054       0.0566       3.7369
 4404.8172       2.6916       0.0468       3.8317
 4404.6648       2.6821       0.0365       3.8272
 4404.5124       2.6956       0.0389       4.0362
 4404.3600       2.6955       0.0318       3.9564
 4404.2076       2.6870       0.0223       3.8635
 4404.0552       2.6852       0.0245       3.7181
 4403.9028       2.7193       0.0309       3.9627
 4403.7504       2.7322       0.0273       4.1103
 4403.5980       2.7344       0.0210       4.2600
 4403.4456       2.7326       0.0199       4.3352
 4403.2932       2.7409       0.0210       4.5822
 4403.1408       2.7378       0.0374       4.3273
 4402.9884       2.7041       0.0475       4.2688
 4402.8360       2.7148       0.0601       4.0997
 4402.6836       2.7930       0.0689       4.9746
 4402.5312       2.9167       0.0994       5.6586
 4402.3788       2.9353       0.1007       6.6180
 4402.2264       2.8351       0.0654       5.9465
 4402.0740       2.7520       0.0481       4.6451
 4401.9216       2.7067       0.0450       3.9898
 4401.7692       2.6844       0.0405       3.5576
 4401.6168       2.6833       0.0448       3.6836
 4401.4644       2.6860       0.0765       3.6623
 4401.3120       2.6714       0.0851       4.1210
 4401.1596       2.6399       0.0902       4.1537
 4401.0072       2.6581       0.1055       4.6374
 4400.8548       2.6565       0.0985       4.6594
 4400.7024       2.6592       0.0716       4.6236
 4400.5500       2.6679       0.0680       4.2543
 4400.3976       2.6725       0.0700       3.9063
 4400.2452       2.6669       0.0689       3.8011
 4400.0928       2.6944       0.1132       3.7190
 4399.9404       2.6852       0.1294       3.9847
 4399.7880       2.6261       0.1463       4.7036
 4399.6356       2.6191       0.1600       5.4862
 4399.4832       2.6042       0.1627       5.2132
 4399.3308       2.6103       0.1345       4.9164
 4399.1784       2.6173       0.1324       4.7638
 4399.0260       2.6542       0.1355       4.7274
 4398.8736       2.6586       0.1469       4.4805
 4398.7212       2.6427       0.1517       4.7588
 4398.5688       2.6006       0.1443       5.4358
 4398.4164       2.6069       0.1368       5.5870
 4398.2640       2.6307       0.1297       5.1963
 4398.1116       2.6559       0.1266       4.7192
 4397.9592       2.6354       0.1027       4.6550
 4397.8068       2.6304       0.1095       5.0243
 4397.6544       2.6318       0.1145       5.1950
 4397.5020       2.6016       0.0957       5.3558
 4397.3496       2.5996       0.0834       5.1621
 4397.1972       2.5829       0.0670       4.9549
 4397.0448       2.5972       0.0594       4.9236
 4396.8924       2.6104       0.0600       4.8059
 4396.7400       2.6113       0.0563       4.7991
 4396.5876       2.5801       0.0415       4.5747
 4396.4352       2.5652       0.0521       4.3321
 4396.2828       2.5634       0.0538       4.7588
