~VERSION INFORMATION
VERS.           2.0   :CWLS Log ASCII Standard - VERSION 2.0
WRAP.           NO    :One Line per depth step
PROD.  Schlumberger   :LAS Producer
PROG.  DLIS to ASCII 11C0-305                          :LAS Program name and version
CREA.        2003/11/03 06:15                          :LAS Creation date {YYYY/MM/DD hh:mm}
SOURCE.     AIT_mainPB1_064PUP.DLIS                    :DLIS File Name
FILE-ID.     AIT_mainPB1_064PUP                        :File Identification Number
#--------------------------------------------------
~WELL INFORMATION
#MNEM.UNIT      DATA             DESCRIPTION
#---- ------ --------------   -----------------------------
STRT .M      4280.0016       :START DEPTH     
STOP .M      3948.9888       :STOP DEPTH     
STEP .M        -0.1524       :STEP     
NULL .          -999.25      :NULL VALUE
COMP .        INPEX Browse, Ltd.                       :COMPANY
WELL .        ICHTHYS DEEP-1                           :WELL
FLD  .        WA-285-P                                 :FIELD
LOC  .        Datum: GDA94 Spheroid GRS80              :LOCATION
CNTY .        Ocean Bounty                             :COUNTY
STAT .        1:200                                    :STATE
CTRY .        Australia                                :COUNTRY
API  .                                                 :API NUMBER
UWI  .                                                 :UNIQUE WELL ID
DATE .        03-Nov-2003                              :LOG DATE {DD-MMM-YYYY}
SRVC .        Schlumberger                             :SERVICE COMPANY
LATI .DEG     13 51' 47.081" S                         :LATITUDE
LONG .DEG     123 13'  56.110" E                       :LONGITUDE
GDAT .                                                 :GeoDetic Datum
#-----------------------------------------------------------------------------
~PARAMETER INFORMATION
#MNEM.UNIT    VALUE                      DESCRIPTION
#---- -----   --------------------       ------------------------
RUN  .          Suite 2 Run 1            :RUN NUMBER
PDAT .        LAT                        :Permanent Datum
EPD  .M           0.000000               :Elevation of Permanent Datum above Mean Sea Level
EPD  .M           0.000000               :Elevation of tool zero above Mean Sea Level
LMF  .          Drill Floor              :Logging Measured From (Name of Logging Elevation Reference)
APD  .M          25.000000               :Elevation of Depth Reference (LMF) above Permanent Datum
#-----------------------------------------------------------------------------
~CURVE INFORMATION
#MNEM.UNIT   API CODE                                  DESCRIPTION
#---- -----  --------                                  -----------------------
DEPT .M                                                :DEPTH (BOREHOLE) {F10.4}
TENS .LBF                                              :Cable Tension {F13.4}
APLU .V/V                                              :APS Near/Array Uncorrected Limestone Porosity {F13.4}
RHOM .G/C3                                             :LDS Corrected Bulk Density {F13.4}
DRH  .G/C3                                             :LDS Bulk Density Correction {F13.4}
PEFL .                                                 :LDS Long-Spaced Corrected Photoelectric Effect {F13.4}
LCAL .IN                                               :LDS Caliper {F13.4}
HSGR .GAPI                                             :HNGS Standard Gamma Ray {F13.4}
CDF  .LBF                                              :Calibrated Downhole Force {F13.4}
APLC .V/V                                              :APS Near/Array Corrected Limestone Porosity {F13.4}
ATD2 .IN                                               :Array Induction Two Foot Outer Diameter of Invasion (D2) {F13.4}
ATD1 .IN                                               :Array Induction Two Foot Inner Diameter of Invasion(D1) {F13.4}
AOD2 .IN                                               :Array Induction One Foot Outer Diameter of Invasion (D2) {F13.4}
AOD1 .IN                                               :Array Induction One Foot Inner Diameter of Invasion (D1) {F13.4}
AT90 .OHMM                                             :Array Induction Two Foot Resistivity A90 {F13.4}
AT60 .OHMM                                             :Array Induction Two Foot Resistivity A60 {F13.4}
AT30 .OHMM                                             :Array Induction Two Foot Resistivity A30 {F13.4}
AT20 .OHMM                                             :Array Induction Two Foot Resistivity A20 {F13.4}
AT10 .OHMM                                             :Array Induction Two Foot Resistivity A10 {F13.4}
AO90 .OHMM                                             :Array Induction One Foot Resistivity A90 {F13.4}
AO60 .OHMM                                             :Array Induction One Foot Resistivity A60 {F13.4}
AO30 .OHMM                                             :Array Induction One Foot Resistivity A30 {F13.4}
AO20 .OHMM                                             :Array Induction One Foot Resistivity A20 {F13.4}
AO10 .OHMM                                             :Array Induction One Foot Resistivity A10 {F13.4}
SIGF .CU                                               :APS Formation Capture Cross-Section {F13.4}
ANEC .HZ                                               :APS Near Detector Count Rate {F13.4}
AFEC .HZ                                               :APS Far Detector Count Rate {F13.4}
A1EP .HZ                                               :APS Array-1 Detector Count Rate {F13.4}
A2EP .HZ                                               :APS Array-2 Detector Count Rate {F13.4}
AFTC .HZ                                               :APS Thermal Detector Count Rate {F13.4}
#-----------------------------------------------------------------------------
# 
#     DEPT        TENS         APLU         RHOM         DRH          PEFL         LCAL         HSGR         CDF          APLC         ATD2         ATD1         AOD2         AOD1         AT90         AT60         AT30         AT20         AT10         AO90         AO60         AO30         AO20         AO10         SIGF         ANEC         AFEC         A1EP         A2EP         AFTC
#
~A  
 4280.0016    5020.0000       0.1560       2.6852       0.0078       3.8167       1.5498      97.6787     850.3560       0.1192     240.0000     239.6327     240.0000     238.7374       5.6301       4.3074       8.7103      15.5257       7.1736       6.3607       4.8035       7.6691      15.5904       7.1646      21.3830    3512.0000    1180.0000    2572.0000    2772.0000    2899.6182
 4279.8492    5068.0000       0.1560       2.6852       0.0078       3.8167       1.5498      97.6787     880.5735       0.1192     240.0000     239.6178     240.0000     238.7723       5.6322       4.3089       8.7100      15.5229       7.1740       6.3622       4.8052       7.6691      15.5879       7.1648      21.3830    3512.0000    1180.0000    2572.0000    2772.0000    2899.6182
 4279.6968    5104.0000       0.1560       2.6852       0.0078       3.8167       1.5498      97.6787     916.1235       0.1192     240.0000     239.6462     240.0000     238.8405       5.6344       4.3105       8.7098      15.5205       7.1744       6.3636       4.8071       7.6691      15.5859       7.1650      21.3830    3512.0000    1180.0000    2572.0000    2772.0000    2899.6182
 4279.5444    5160.0000       0.1560       2.6852       0.0078       3.8167       1.5498      97.6787     961.2720       0.1192     240.0000     239.6727     240.0000     238.9459       5.6367       4.3122       8.7095      15.5178       7.1749       6.3654       4.8093       7.6693      15.5851       7.1655      21.3830    3512.0000    1180.0000    2572.0000    2772.0000    2899.6182
 4279.3920    5171.0000       0.1560       2.6852       0.0078       3.8167       1.5498      97.6787     996.1110       0.1192     240.0000     239.6481     240.0000     239.0335       5.6392       4.3140       8.7094      15.5152       7.1752       6.3674       4.8115       7.6697      15.5854       7.1659      21.3830    3512.0000    1180.0000    2572.0000    2772.0000    2899.6182
 4279.2396    5166.0000       0.1560       2.6852       0.0078       3.8167       1.5498      97.6787    1030.5945       0.1192     239.9189     239.6447     240.0000     239.0484       5.6418       4.3160       8.7088      15.5122       7.1756       6.3684       4.8132       7.6694      15.5849       7.1664      21.3830    3512.0000    1180.0000    2572.0000    2772.0000    2899.6182
 4279.0872    5283.0000       0.1560       2.6852       0.0078       3.8167       1.5498      97.6787    1066.1445       0.1192     239.8703     239.7322     240.0000     238.8858       5.6444       4.3179       8.7077      15.5070       7.1756       6.3699       4.8154       7.6705      15.5822       7.1675      21.3830    3512.0000    1180.0000    2572.0000    2772.0000    2899.6182
 4278.9348    5303.0000       0.1560       2.6852       0.0078       3.8167       1.5498      97.6787    1115.5591       0.1192     239.8848     239.8444     240.0000     238.6783       5.6470       4.3198       8.7070      15.5024       7.1756       6.3708       4.8172       7.6690      15.5715       7.1665      21.3830    3512.0000    1180.0000    2572.0000    2772.0000    2899.6182
 4278.7824    5300.0000       0.1560       2.6852       0.0078       3.8167       1.5498      97.6787    1144.3545       0.1192     239.8930     239.8627     240.0000     238.6043       5.6496       4.3218       8.7068      15.4959       7.1753       6.3725       4.8198       7.6686      15.5638       7.1655      21.3831    3512.0000    1180.0000    2572.0000    2772.0000    2899.6182
 4278.6300    5335.0000       0.1560       2.6852       0.0078       3.8167       1.5498      97.6787    1181.6820       0.1192     239.8993     239.8405     239.6772     238.5085       5.6526       4.3241       8.7058      15.4898       7.1749       6.3748       4.8227       7.6684      15.5583       7.1650      21.3831    3512.0000    1180.0000    2572.0000    2772.0000    2899.6182
 4278.4776    5313.0000       0.1560       2.6852       0.0078       3.8167       1.5498      97.6787    1226.1195       0.1192     239.9524     239.8014     239.4650     238.4316       5.6559       4.3266       8.7048      15.4837       7.1747       6.3782       4.8263       7.6690      15.5533       7.1653      21.3831    3512.0000    1180.0000    2572.0000    2772.0000    2899.6182
 4278.3252    5462.0000       0.1560       2.6852       0.0078       3.8167       1.5498      97.6787    1253.4930       0.1192     240.0000     239.7757     239.9038     238.5175       5.6594       4.3292       8.7040      15.4778       7.1739       6.3815       4.8299       7.6692      15.5510       7.1638      21.3831    3512.0000    1180.0000    2572.0000    2772.0000    2899.6182
 4278.1728    5490.0000       0.1560       2.6852       0.0078       3.8167       1.5498      97.6787    1290.1095       0.1192     240.0000     239.7963     240.0000     238.7176       5.6629       4.3318       8.7025      15.4717       7.1732       6.3840       4.8330       7.6679      15.5442       7.1631      21.3831    3512.0000    1180.0000    2572.0000    2772.0000    2899.6182
 4278.0204    5650.0000       0.1560       2.6852       0.0078       3.8167       1.5498      97.6787    1304.3296       0.1192     240.0000     239.8119     240.0000     238.7797       5.6663       4.3344       8.7000      15.4681       7.1725       6.3854       4.8357       7.6669      15.5382       7.1623      21.3831    3512.0000    1180.0000    2572.0000    2772.0000    2899.6182
 4277.8680    5653.0000       0.1560       2.6852       0.0078       3.8167       1.5498      97.6787    1303.2631       0.1192     240.0000     239.8372     240.0000     238.9247       5.6697       4.3370       8.6998      15.4610       7.1725       6.3855       4.8390       7.6651      15.5340       7.1621      21.3831    3512.0000    1180.0000    2572.0000    2772.0000    2899.6182
 4277.7156    5608.0000       0.1560       2.6852       0.0078       3.8167       1.5498      97.6787    1295.4420       0.1192     239.9891     239.8764     240.0000     239.1161       5.6736       4.3397       8.6962      15.4563       7.1729       6.3920       4.8420       7.6682      15.5373       7.1635      21.3831    3512.0000    1180.0000    2572.0000    2772.0000    2899.6182
 4277.5632    5627.0000       0.1560       2.6852       0.0078       3.8167       1.5498      97.6787    1299.3525       0.1192     240.0000     239.8600     240.0000     239.2326       5.6780       4.3433       8.6906      15.4431       7.1662       6.3835       4.8427       7.6589      15.5368       7.1566      21.3831    3512.0000    1180.0000    2572.0000    2772.0000    2899.6182
 4277.4108    5651.0000       0.1560       2.6852       0.0078       3.8167       1.5498      97.6787    1304.3296       0.1192     240.0000     239.7791     240.0000     239.2831       5.6840       4.3474       8.6952      15.4275       7.1631       6.3685       4.8392       7.6532      15.5490       7.1508      21.3831    3512.0000    1180.0000    2572.0000    2772.0000    2899.6182
 4277.2584    5647.0000       0.1560       2.6852       0.0078       3.8167       1.5498      97.6787    1311.0841       0.1192     240.0000     239.7505     239.9926     239.2653       5.6947       4.3542       8.7156      15.4741       7.1734       6.4060       4.8630       7.6994      15.6134       7.1797      21.3831    3512.0000    1180.0000    2572.0000    2772.0000    2899.6182
 4277.1060    5674.0000       0.1560       2.6852       0.0078       3.8167       1.5498      97.6787    1338.4575       0.1192     240.0000     239.7973     239.8555     239.1770       5.7054       4.3612       8.7163      15.4832       7.1640       6.4286       4.8834       7.6711      15.5562       7.1585      21.3831    3512.0000    1180.0000    2572.0000    2772.0000    2899.6182
 4276.9536    5665.0000       0.1560       2.6852       0.0078       3.8167       1.5498      97.6787    1317.1276       0.1192     240.0000     239.7908     239.7355     239.0813       5.7146       4.3686       8.7014      15.4267       7.1599       6.3702       4.8564       7.6401      15.5278       7.1458      21.3831    3512.0000    1180.0000    2572.0000    2772.0000    2899.6182
