~VERSION INFORMATION
VERS.           2.0   :CWLS Log ASCII Standard - VERSION 2.0
WRAP.           NO    :One Line per depth step
PROD.  Schlumberger   :LAS Producer
PROG.  DLIS to ASCII 11C0-305                          :LAS Program name and version
CREA.        2003/11/19 08:45                          :LAS Creation date {YYYY/MM/DD hh:mm}
SOURCE.     UBI_Mainpb1_036PUP.DLIS                    :DLIS File Name
FILE-ID.     UBI_Mainpb1_036PUP                        :File Identification Number
#--------------------------------------------------
~WELL INFORMATION
#MNEM.UNIT      DATA             DESCRIPTION
#---- ------ --------------   -----------------------------
STRT .M      4859.4264       :START DEPTH     
STOP .M      4016.0448       :STOP DEPTH     
STEP .M        -0.1524       :STEP     
NULL .          -999.25      :NULL VALUE
COMP .        INPEX Browse, Ltd.                       :COMPANY
WELL .        ICHTHYS DEEP-1                           :WELL
FLD  .        WA-285-P                                 :FIELD
LOC  .        Datum: GDA94 Spheroid GRS80              :LOCATION
CNTY .        Ocean Bounty                             :COUNTY
STAT .        1:200                                    :STATE
CTRY .        Australia                                :COUNTRY
API  .                                                 :API NUMBER
UWI  .                                                 :UNIQUE WELL ID
DATE .        16-Nov-2003                              :LOG DATE {DD-MMM-YYYY}
SRVC .        Schlumberger                             :SERVICE COMPANY
LATI .DEG     13 51' 47.081" S                         :LATITUDE
LONG .DEG     123 13'  56.110" E                       :LONGITUDE
GDAT .                                                 :GeoDetic Datum
#-----------------------------------------------------------------------------
~PARAMETER INFORMATION
#MNEM.UNIT    VALUE                      DESCRIPTION
#---- -----   --------------------       ------------------------
RUN  .          Suite 3 Run 1            :RUN NUMBER
PDAT .        LAT                        :Permanent Datum
EPD  .M           0.000000               :Elevation of Permanent Datum above Mean Sea Level
EPD  .M           0.000000               :Elevation of tool zero above Mean Sea Level
LMF  .          Drill Floor              :Logging Measured From (Name of Logging Elevation Reference)
APD  .M          25.000000               :Elevation of Depth Reference (LMF) above Permanent Datum
#-----------------------------------------------------------------------------
~CURVE INFORMATION
#MNEM.UNIT   API CODE                                  DESCRIPTION
#---- -----  --------                                  -----------------------
DEPT .M                                                :DEPTH (BOREHOLE) {F10.4}
LCAL .IN                                               :LDS Caliper {F13.4}
GR   .GAPI                                             :Gamma Ray {F13.4}
#-----------------------------------------------------------------------------
# 
#     DEPT        LCAL         GR
#
~A  
# ...
 4032.6564      12.6117     140.5351
 4032.5040      13.1248     140.4118
 4032.3516      12.7525     134.0854
 4032.1992      13.0431     132.0805
 4032.0468      12.6985     130.0969
 4031.8944      12.6533     132.2410
 4031.7420      12.5750     131.2054
 4031.5896      12.4705     129.8551
 4031.4372      12.3897     127.5765
 4031.2848      12.3434     128.2249
 4031.1324      12.2695     131.8505
 4030.9800      12.3487     132.3570
 4030.8276      12.0724     133.7059
 4030.6752      11.3449     130.9639
 4030.5228      10.6467     128.5256
 4030.3704      10.6471     123.1277
 4030.2180      10.1142     115.0764
 4030.0656       9.3588     105.5439
 4029.9132       9.0773     101.6583
 4029.7608       8.8426      97.7229
 4029.6084       8.7253      89.5472
 4029.4560       8.5822      76.1691
 4029.3036       8.5231      65.9857
 4029.1512       8.6222      66.1292
 4028.9988       8.6356      72.5159
 4028.8464       8.6377      77.8767
 4028.6940       8.6416      82.7908
 4028.5416       8.6523      82.1060
 4028.3892       8.6620      81.9995
 4028.2368       8.6629      78.6157
 4028.0844       8.6786      78.6844
 4027.9320       8.6854      79.9243
 4027.7796       8.6983      83.2499
 4027.6272       8.6981      84.4847
 4027.4748       8.6986      84.9381
 4027.3224       8.6998      84.3547
 4027.1700       8.6991      84.8348
 4027.0176       8.6992      83.6824
 4026.8652       8.6977      78.1508
 4026.7128       8.6904      73.7751
 4026.5604       8.6909      74.0773
 4026.4080       8.6946      77.4336
 4026.2556       8.6969      82.2177
 4026.1032       8.6983      86.1283
 4025.9508       8.6990      89.0754
 4025.7984       8.6992      90.1981
 4025.6460       8.6998      87.6683
 4025.4936       8.6966      84.1544
 4025.3412       8.7010      82.3900
 4025.1888       8.7016      82.5394
 4025.0364       8.6999      83.1061
 4024.8840       8.7006      80.6491
 4024.7316       8.7007      76.2884
 4024.5792       8.6981      76.7985
 4024.4268       8.7000      73.6865
 4024.2744       8.6990      75.9141
 4024.1220       8.7001      71.9858
 4023.9696       8.6988      74.5877
 4023.8172       8.7014      71.6200
 4023.6648       8.6990      73.6213
 4023.5124       8.6990      74.1964
 4023.3600       8.6982      74.9899
 4023.2076       8.6978      74.7898
 4023.0552       8.6991      71.4926
 4022.9028       8.6992      71.6325
 4022.7504       8.6989      71.1799
 4022.5980       8.7008      70.2182
 4022.4456       8.6977      71.4385
 4022.2932       8.6979      71.3076
 4022.1408       8.6997      73.4015
 4021.9884       8.6972      72.6880
 4021.8360       8.6995      71.9879
 4021.6836       8.6993      72.2985
 4021.5312       8.7005      72.9694
 4021.3788       8.6903      77.2267
 4021.2264       8.6835      79.6963
 4021.0740       8.6826      82.3509
 4020.9216       8.6841      84.3380
 4020.7692       8.6727      84.5397
 4020.6168       8.6646      85.1581
 4020.4644       8.6628      84.9231
 4020.3120       8.6617      87.9021
 4020.1596       8.6627      88.5344
 4020.0072       8.6602      89.7879
 4019.8548       8.6625      90.6878
 4019.7024       8.6616      89.7288
 4019.5500       8.6612      85.4799
 4019.3976       8.6613      79.9823
 4019.2452       8.6625      76.4551
 4019.0928       8.6629      76.1834
 4018.9404       8.6611      75.7636
 4018.7880       8.6615      75.8186
 4018.6356       8.6618      77.0332
 4018.4832       8.6617      77.3963
 4018.3308       8.6625      76.0844
 4018.1784       8.6620      71.1176
 4018.0260       8.6605      69.2340
 4017.8736       8.6634      68.0088
 4017.7212       8.6619      65.7518
 4017.5688       8.6623      62.9331
 4017.4164       8.6603      62.7727
 4017.2640       8.6534      66.7983
 4017.1116       8.6354      68.2751
 4016.9592       8.6363      70.1241
 4016.8068       8.6355      70.2258
 4016.6544       8.6362      72.5445
 4016.5020       8.6357      71.9644
 4016.3496       8.6362      72.1544
 4016.1972       8.6354      72.1403
 4016.0448       8.6356      72.8549
