~VERSION INFORMATION
VERS.           2.0   :CWLS Log ASCII Standard - VERSION 2.0
WRAP.           NO    :One Line per depth step
PROD.  Schlumberger   :LAS Producer
PROG.  DLIS to ASCII 11C0-305                          :LAS Program name and version
CREA.        2003/11/16 09:47                          :LAS Creation date {YYYY/MM/DD hh:mm}
SOURCE.     AIT_MainPB1_027PUP.DLIS                    :DLIS File Name
FILE-ID.     AIT_MainPB1_027PUP                        :File Identification Number
#--------------------------------------------------
~WELL INFORMATION
#MNEM.UNIT      DATA             DESCRIPTION
#---- ------ --------------   -----------------------------
STRT .M      4869.0276       :START DEPTH     
STOP .M      3996.2328       :STOP DEPTH     
STEP .M        -0.1524       :STEP     
NULL .          -999.25      :NULL VALUE
COMP .        INPEX Browse, Ltd.                       :COMPANY
WELL .        ICHTHYS DEEP-1                           :WELL
FLD  .        WA-285-P                                 :FIELD
LOC  .        Datum: GDA94 Spheroid GRS80              :LOCATION
CNTY .        Ocean Bounty                             :COUNTY
STAT .        1:200                                    :STATE
CTRY .        Australia                                :COUNTRY
API  .                                                 :API NUMBER
UWI  .                                                 :UNIQUE WELL ID
DATE .        16-Nov-2003                              :LOG DATE {DD-MMM-YYYY}
SRVC .        Schlumberger                             :SERVICE COMPANY
LATI .DEG     13 51' 47.081" S                         :LATITUDE
LONG .DEG     123 13'  56.110" E                       :LONGITUDE
GDAT .                                                 :GeoDetic Datum
#-----------------------------------------------------------------------------
~PARAMETER INFORMATION
#MNEM.UNIT    VALUE                      DESCRIPTION
#---- -----   --------------------       ------------------------
RUN  .          Suite 3 Run 1            :RUN NUMBER
PDAT .        LAT                        :Permanent Datum
EPD  .M           0.000000               :Elevation of Permanent Datum above Mean Sea Level
EPD  .M           0.000000               :Elevation of tool zero above Mean Sea Level
LMF  .          Drill Floor              :Logging Measured From (Name of Logging Elevation Reference)
APD  .M          25.000000               :Elevation of Depth Reference (LMF) above Permanent Datum
#-----------------------------------------------------------------------------
~CURVE INFORMATION
#MNEM.UNIT   API CODE                                  DESCRIPTION
#---- -----  --------                                  -----------------------
DEPT .M                                                :DEPTH (BOREHOLE) {F10.4}
TENS .LBF                                              :Cable Tension {F13.4}
APLU .V/V                                              :APS Near/Array Uncorrected Limestone Porosity {F13.4}
RHOM .G/C3                                             :LDS Corrected Bulk Density {F13.4}
DRH  .G/C3                                             :LDS Bulk Density Correction {F13.4}
PEFL .                                                 :LDS Long-Spaced Corrected Photoelectric Effect {F13.4}
LCAL .IN                                               :LDS Caliper {F13.4}
HSGR .GAPI                                             :HNGS Standard Gamma Ray {F13.4}
CDF  .N                                                :Calibrated Downhole Force {F13.4}
APLC .V/V                                              :APS Near/Array Corrected Limestone Porosity {F13.4}
ATD2 .IN                                               :Array Induction Two Foot Outer Diameter of Invasion (D2) {F13.4}
ATD1 .IN                                               :Array Induction Two Foot Inner Diameter of Invasion(D1) {F13.4}
AOD2 .IN                                               :Array Induction One Foot Outer Diameter of Invasion (D2) {F13.4}
AOD1 .IN                                               :Array Induction One Foot Inner Diameter of Invasion (D1) {F13.4}
AT90 .OHMM                                             :Array Induction Two Foot Resistivity A90 {F13.4}
AT60 .OHMM                                             :Array Induction Two Foot Resistivity A60 {F13.4}
AT30 .OHMM                                             :Array Induction Two Foot Resistivity A30 {F13.4}
AT20 .OHMM                                             :Array Induction Two Foot Resistivity A20 {F13.4}
AT10 .OHMM                                             :Array Induction Two Foot Resistivity A10 {F13.4}
AO90 .OHMM                                             :Array Induction One Foot Resistivity A90 {F13.4}
AO60 .OHMM                                             :Array Induction One Foot Resistivity A60 {F13.4}
AO30 .OHMM                                             :Array Induction One Foot Resistivity A30 {F13.4}
AO20 .OHMM                                             :Array Induction One Foot Resistivity A20 {F13.4}
AO10 .OHMM                                             :Array Induction One Foot Resistivity A10 {F13.4}
SIGF .CU                                               :APS Formation Capture Cross-Section {F13.4}
ANEC .HZ                                               :APS Near Detector Count Rate {F13.4}
AFEC .HZ                                               :APS Far Detector Count Rate {F13.4}
A1EP .HZ                                               :APS Array-1 Detector Count Rate {F13.4}
A2EP .HZ                                               :APS Array-2 Detector Count Rate {F13.4}
AFTC .HZ                                               :APS Thermal Detector Count Rate {F13.4}
#-----------------------------------------------------------------------------
# 
#     DEPT        TENS         APLU         RHOM         DRH          PEFL         LCAL         HSGR         CDF          APLC         ATD2         ATD1         AOD2         AOD1         AT90         AT60         AT30         AT20         AT10         AO90         AO60         AO30         AO20         AO10         SIGF         ANEC         AFEC         A1EP         A2EP         AFTC
#
~A  
# ...
 4635.3984    6098.0000       0.2395       2.4242       0.1519       4.8978      10.1349      42.9468    6200.4453       0.1932      21.3447      21.3240      40.9645      40.3533      32.9407      34.6361      35.4321      33.5889      57.2753      30.7428      32.2924      32.4593      47.6307      41.7118      13.4905    2932.0000     914.6667    1967.0000    1959.0000    2697.2598
 4635.2460    6087.0000       0.1938       2.4677       0.1537       4.1416       9.4166      23.2134    6203.6079       0.1684      22.9438      22.9358      42.7211      42.4100      52.7121      56.7549      55.8419      52.9393      97.5463      52.1062      56.0544      54.4959      68.1024      82.1794      12.8440    2894.0000     973.0000    2028.0000    2086.0000    2653.7141
 4635.0936    6057.0000       0.1069       2.4708       0.1335       3.5390       9.8056      17.1058    6334.8594       0.0729      23.6750      23.6719      37.1552      37.0856      96.7933     103.4809     110.6113     101.0261     151.9533      92.4853      96.9159      97.7559     122.9682     292.4598      10.4443    3149.0000    1355.0000    2462.0000    2474.0000    3580.9771
 4634.9412    6123.0000       0.0672       2.4188       0.0939       3.5220      10.0208      13.7985    6374.3926       0.0358      24.3125      24.3108      29.7122      29.6977     221.7039     210.4067     179.9676     224.2991     272.1579     235.5411     262.0496     314.0115     239.0633    1432.3195       8.1243    3204.0000    1994.0000    3308.0000    3219.0000    6429.3652
 4634.7888    6123.0000       0.0471       2.3777       0.0662       3.5145      10.0641      11.5619    6467.6919       0.0234      24.7645      24.7626      25.6842      25.6822     324.3856     305.4730     226.2948     351.5544    1162.6599     364.8006     412.9374     538.0943     220.1818    1950.0000       6.8798    3127.0000    2318.0000    3098.0000    3167.0000    7626.4395
 4634.6364    6183.0000       0.0441       2.3992       0.0732       3.6526       9.9730      10.4188    6660.6162       0.0253      24.1835      24.1778      23.6615      23.6589     326.3331     367.1328     380.9405     328.7115    1950.0000     344.0146     377.7783     502.7633     330.9319    1729.9053       7.2196    3204.0000    2350.6667    3336.0000    3201.3333    7021.0718
 4634.4840    6211.0000       0.0386       2.4199       0.0673       3.3481       9.8100      11.6201    6763.4033       0.0178      22.3244      22.3014      24.7703      24.0173     454.2552     604.5568     688.1320     353.5277    1950.0000     582.9617     771.1338    1270.5865     274.0692    1950.0000       6.1919    3155.0000    2325.0000    3383.0000    3376.0000    7210.6226
 4634.3316    6261.0000       0.0394       2.4190       0.0615       3.3396       9.8349      12.6120    6515.1323       0.0182      20.8672      20.7715      31.2744      26.5099     577.5632     870.0090    1146.4305     395.3199    1950.0000     525.7264     949.9703    1727.7838     366.2899    1950.0000       5.8208    3154.0000    2330.0000    3370.0000    3125.0000    7756.2222
 4634.1792    6243.0000       0.0500       2.4322       0.0674       3.4314       9.8563      12.3377    6225.7466       0.0264      22.5504      21.1528      49.6726      34.7883     551.9235     975.8772    1535.0039     436.1635    1950.0000     404.2204     586.8774    1731.0077     417.4684    1950.0000       5.9503    3043.0000    2500.0000    3283.0000    3115.0000    7664.0083
 4634.0268    6183.0000       0.0617       2.4463       0.0731       3.3769       9.7492      11.2622    6129.2852       0.0335      28.7537      20.5105      65.3902      40.1903     439.6248     815.4443    1578.6167     457.5487    1950.0000     238.0281     360.6389    1752.0049     413.2779    1950.0000       6.1242    3068.0000    2190.0000    3031.0000    2859.0000    7056.9326
 4633.8744    6080.0000       0.0614       2.4742       0.0858       3.1711       9.6117      11.1211    6067.6128       0.0325      45.7369      19.7354      60.3879      33.5352     314.4262     630.5804    1391.8190     474.6761    1950.0000     272.8438     463.0904    1249.1078     349.8320    1950.0000       6.0404    3136.0000    2187.0000    2957.3333    2982.6667    6485.7183
 4633.7220    6075.0000       0.0442       2.4875       0.1070       2.9165       9.6169      13.2340    5950.5933       0.0190      70.2998      22.3621      52.0671      24.4545     252.5151     452.5357    1092.6969     431.7005    1950.0000     213.2240     398.9594     886.3502     267.2769    1890.2985       5.9684    3318.0000    2285.3333    3225.0000    3310.0000    7405.2969
 4633.5696    6025.0000       0.0418       2.4704       0.1178       3.3173       9.6000      20.9885    6042.3110       0.0142      82.9819      37.3371      54.2019      19.9937     205.8870     354.8636     852.1460     408.4770    1819.9199     162.7135     395.1947     408.4696     303.4828    1783.1420       6.1774    3257.0000    2327.0000    3534.0000    3483.0000    7325.8901
 4633.4172    6045.0000       0.0620       2.4292       0.1234       3.6836       9.7669      24.6487    5955.3369       0.0321      79.7351      56.2277      67.7119      17.9621     169.6117     294.5523     624.1528     386.9257    1524.3660     186.5052     296.5226     636.5550     200.7021    1832.7040       8.1767    3010.0000    1883.0000    3034.0000    2952.0000    6360.2041
 4633.2648    5966.0000       0.1021       2.4160       0.1567       4.3806      10.0951      26.1463    5999.6147       0.0715      77.3461      70.6632      90.5710      18.5449     145.9860     242.4069     449.5936     355.7462    1030.6709     149.6520     227.5766     525.6928     257.5956    1199.5310      10.7710    2962.0000    1402.0000    2447.0000    2420.0000    4541.5396
 4633.1124    6002.0000       0.1208       2.4141       0.1731       4.4533      10.0992      22.8885    6111.8901       0.0851      81.0470      80.1258      98.7312      24.6080     132.7156     187.7755     342.3756     300.9594     539.3452     186.7569     207.0149     622.7278     216.5084    1950.0000      11.4423    2893.0000    1307.0000    2272.0000    2417.0000    4848.9194
 4632.9600    6036.0000       0.1041       2.4164       0.1751       4.5735      10.2897      22.5799    6021.7534       0.0503      84.4603      84.3094      92.6254      30.5585     114.0917     143.2473     252.5955     208.1085     287.2165     103.0060     142.1718     371.7686     180.2679     759.2759       9.3248    2948.0000    1368.0000    2468.0000    2591.0000    5259.6138
 4632.8076    5963.0000       0.0857       2.4103       0.1818       4.8545      10.5896      23.4740    6132.4473       0.0405      86.3863      86.2401      86.4482      27.5602      83.9522      92.0988     161.0329     127.3296     172.4921     127.3196     140.4069     320.6328     115.6080     370.5459       9.6462    3002.6667    1530.6666    2700.0000    2829.3333    5366.3428
 4632.6552    5996.0000       0.0770       2.3811       0.1913       5.2640      10.5315      26.8279    6140.3540       0.0298      88.6877      88.5455      98.5137      37.0426      59.7678      61.5735     129.8519      86.4085     110.0443      60.9060      64.3589     111.2840      58.6865     162.2905       8.9410    3079.0000    1671.0000    2738.0000    2753.0000    5484.1719
 4632.5028    5991.0000       0.1034       2.2971       0.1654       6.1902      11.0585      33.2219    6111.8901       0.0507      96.3258      96.1585     141.5482      76.6243      47.7237      47.5099      99.3533      65.2377      77.1391      36.3272      37.2674      59.4260      50.1533      73.4382       9.9765    2994.0000    1597.0000    2571.0000    2703.0000    4915.5186
 4632.3504    5991.0000       0.1523       2.2275       0.1590       7.0763      10.8751      33.9542    6178.3066       0.0942     125.2658     124.6040     164.8869     115.4788      39.6292      38.4020      89.1641      47.4219      51.2731      26.7139      27.0604      45.1647      32.3664      35.5198      11.8572    2723.0000    1273.0000    2063.0000    2085.0000    3737.2285
