~VERSION INFORMATION
VERS.           2.0   :CWLS Log ASCII Standard - VERSION 2.0
WRAP.           NO    :One Line per depth step
PROD.  Schlumberger   :LAS Producer
PROG.  DLIS to ASCII 11C0-305                          :LAS Program name and version
CREA.        2003/11/03 06:15                          :LAS Creation date {YYYY/MM/DD hh:mm}
SOURCE.     AIT_mainPB1_064PUP.DLIS                    :DLIS File Name
FILE-ID.     AIT_mainPB1_064PUP                        :File Identification Number
#--------------------------------------------------
~WELL INFORMATION
#MNEM.UNIT      DATA             DESCRIPTION
#---- ------ --------------   -----------------------------
STRT .M      4280.0016       :START DEPTH     
STOP .M      3948.9888       :STOP DEPTH     
STEP .M        -0.1524       :STEP     
NULL .          -999.25      :NULL VALUE
COMP .        INPEX Browse, Ltd.                       :COMPANY
WELL .        ICHTHYS DEEP-1                           :WELL
FLD  .        WA-285-P                                 :FIELD
LOC  .        Datum: GDA94 Spheroid GRS80              :LOCATION
CNTY .        Ocean Bounty                             :COUNTY
STAT .        1:200                                    :STATE
CTRY .        Australia                                :COUNTRY
API  .                                                 :API NUMBER
UWI  .                                                 :UNIQUE WELL ID
DATE .        03-Nov-2003                              :LOG DATE {DD-MMM-YYYY}
SRVC .        Schlumberger                             :SERVICE COMPANY
LATI .DEG     13 51' 47.081" S                         :LATITUDE
LONG .DEG     123 13'  56.110" E                       :LONGITUDE
GDAT .                                                 :GeoDetic Datum
#-----------------------------------------------------------------------------
~PARAMETER INFORMATION
#MNEM.UNIT    VALUE                      DESCRIPTION
#---- -----   --------------------       ------------------------
RUN  .          Suite 2 Run 1            :RUN NUMBER
PDAT .        LAT                        :Permanent Datum
EPD  .M           0.000000               :Elevation of Permanent Datum above Mean Sea Level
EPD  .M           0.000000               :Elevation of tool zero above Mean Sea Level
LMF  .          Drill Floor              :Logging Measured From (Name of Logging Elevation Reference)
APD  .M          25.000000               :Elevation of Depth Reference (LMF) above Permanent Datum
#-----------------------------------------------------------------------------
~CURVE INFORMATION
#MNEM.UNIT   API CODE                                  DESCRIPTION
#---- -----  --------                                  -----------------------
DEPT .M                                                :DEPTH (BOREHOLE) {F10.4}
TENS .LBF                                              :Cable Tension {F13.4}
APLU .V/V                                              :APS Near/Array Uncorrected Limestone Porosity {F13.4}
RHOM .G/C3                                             :LDS Corrected Bulk Density {F13.4}
DRH  .G/C3                                             :LDS Bulk Density Correction {F13.4}
PEFL .                                                 :LDS Long-Spaced Corrected Photoelectric Effect {F13.4}
LCAL .IN                                               :LDS Caliper {F13.4}
HSGR .GAPI                                             :HNGS Standard Gamma Ray {F13.4}
CDF  .LBF                                              :Calibrated Downhole Force {F13.4}
APLC .V/V                                              :APS Near/Array Corrected Limestone Porosity {F13.4}
ATD2 .IN                                               :Array Induction Two Foot Outer Diameter of Invasion (D2) {F13.4}
ATD1 .IN                                               :Array Induction Two Foot Inner Diameter of Invasion(D1) {F13.4}
AOD2 .IN                                               :Array Induction One Foot Outer Diameter of Invasion (D2) {F13.4}
AOD1 .IN                                               :Array Induction One Foot Inner Diameter of Invasion (D1) {F13.4}
AT90 .OHMM                                             :Array Induction Two Foot Resistivity A90 {F13.4}
AT60 .OHMM                                             :Array Induction Two Foot Resistivity A60 {F13.4}
AT30 .OHMM                                             :Array Induction Two Foot Resistivity A30 {F13.4}
AT20 .OHMM                                             :Array Induction Two Foot Resistivity A20 {F13.4}
AT10 .OHMM                                             :Array Induction Two Foot Resistivity A10 {F13.4}
AO90 .OHMM                                             :Array Induction One Foot Resistivity A90 {F13.4}
AO60 .OHMM                                             :Array Induction One Foot Resistivity A60 {F13.4}
AO30 .OHMM                                             :Array Induction One Foot Resistivity A30 {F13.4}
AO20 .OHMM                                             :Array Induction One Foot Resistivity A20 {F13.4}
AO10 .OHMM                                             :Array Induction One Foot Resistivity A10 {F13.4}
SIGF .CU                                               :APS Formation Capture Cross-Section {F13.4}
ANEC .HZ                                               :APS Near Detector Count Rate {F13.4}
AFEC .HZ                                               :APS Far Detector Count Rate {F13.4}
A1EP .HZ                                               :APS Array-1 Detector Count Rate {F13.4}
A2EP .HZ                                               :APS Array-2 Detector Count Rate {F13.4}
AFTC .HZ                                               :APS Thermal Detector Count Rate {F13.4}
#-----------------------------------------------------------------------------
# 
#     DEPT        TENS         APLU         RHOM         DRH          PEFL         LCAL         HSGR         CDF          APLC         ATD2         ATD1         AOD2         AOD1         AT90         AT60         AT30         AT20         AT10         AO90         AO60         AO30         AO20         AO10         SIGF         ANEC         AFEC         A1EP         A2EP         AFTC
#
~A  
# ...
 4193.5908    5644.0000       0.0690       2.4755      -0.0194       2.3608       8.6537      29.7565    1327.4370       0.0632       8.8215       8.8215      13.5119      13.5115      24.2523      24.6187      24.1884      23.6043      27.7263      24.7748      24.7900      24.1764      23.3716      27.6782      11.7828    3471.0000    1930.0000    3302.0000    3200.0000    6790.5366
 4193.4384    5659.0000       0.0692       2.4685      -0.0226       2.3528       8.6530      30.6453    1320.6825       0.0632       8.6588       8.6588      15.7176      15.7165      24.2208      24.6148      24.8954      24.0584      28.3576      25.3154      25.5008      25.7856      24.1003      29.2035      11.6830    3425.0000    1904.0000    3269.0000    3194.0000    6729.0605
 4193.2860    5672.0000       0.0723       2.4784      -0.0177       2.2695       8.6544      28.8445    1316.4165       0.0658       8.6550       8.6550      16.0746      16.0728      25.1268      25.6365      24.9619      24.5336      28.7773      25.5227      25.4914      25.0873      22.9046      29.5691      11.8470    3392.0000    1858.0000    3200.0000    3174.0000    6416.5576
 4193.1336    5670.0000       0.0775       2.4853      -0.0126       2.1916       8.6520      31.4902    1312.8616       0.0706       8.6533       8.6533      14.8860      14.8765      22.8449      23.3642      22.3391      21.9089      25.9435      24.2964      23.6985      23.4873      21.5460      27.4967      12.0166    3366.0000    1804.0000    3173.0000    3087.0000    6349.9590
 4192.9812    5684.0000       0.0849       2.4841      -0.0105       2.1800       8.6533      36.5731    1324.5930       0.0773       8.6662       8.6660      13.5164      13.4465      19.6530      20.1729      18.9736      18.2902      21.0651      19.1589      19.7328      19.1589      18.0741      20.6638      12.0143    3374.0000    1780.0000    3145.0000    2954.0000    5833.3892
 4192.8288    5682.0000       0.0895       2.4688      -0.0130       2.2780       8.6544      40.2645    1308.2400       0.0809       8.8311       8.8295      27.7556      27.4622      19.1656      19.7392      18.8425      17.8411      20.0424      19.7882      20.1326      18.9994      20.3758      18.9319      12.0957    3406.6667    1752.0000    2989.3333    3068.0000    5765.9365
 4192.6764    5615.0000       0.0871       2.4640      -0.0122       2.3235       8.6557      40.3670    1309.3065       0.0790       9.5708       9.5661      52.8126      52.2252      22.0991      22.7481      21.3938      20.3607      23.8428      23.5828      24.0734      22.1380      20.7712      23.9395      11.9246    3493.0000    1704.0000    3140.0000    3027.0000    5673.7227
 4192.5240    5655.0000       0.0845       2.4725      -0.0119       2.2777       8.6564      35.0586    1303.6185       0.0771      10.8496      10.8425      63.9221      63.3317      24.1702      25.1014      23.8225      22.9304      28.0040      29.8156      30.4915      27.2026      25.0123      29.7251      11.9927    3523.0000    1759.0000    3155.0000    3175.0000    6406.3115
 4192.3716    5634.0000       0.0834       2.4700      -0.0172       2.1765       8.6544      31.8230    1307.8845       0.0764      11.3381      11.3326      43.5191      43.2174      25.3314      25.9429      23.6883      23.0825      28.5657      28.5617      29.5543      26.1284      21.6792      29.9389      11.7651    3463.0000    1801.0000    3250.0000    3088.0000    6746.9912
 4192.2192    5620.0000       0.0820       2.4612      -0.0175       2.1687       8.6530      30.9786    1316.4165       0.0754      11.3169      11.3132      25.9052      25.8362      23.2614      23.7913      22.9127      21.8554      26.3057      25.3981      25.6943      23.6163      20.2661      26.3510      11.9965    3504.0000    1825.0000    3156.0000    3105.0000    6326.9053
 4192.0668    5675.0000       0.0816       2.4479      -0.0186       2.2158       8.6524      34.4029    1312.8616       0.0747      11.7969      11.7902      21.4126      21.4018      20.2304      20.6430      19.3318      18.0284      21.4896      19.6679      20.2087      19.8073      17.0684      22.5513      12.5048    3442.0000    1671.0000    3143.0000    3075.0000    6424.2422
 4191.9144    5615.0000       0.0880       2.4559      -0.0190       2.3825       8.6513      42.4749    1319.2605       0.0803      11.9014      11.8890      20.3111      20.3083      16.0162      16.2345      15.3541      14.5476      18.1732      14.1589      14.3769      15.5329      13.9129      17.8495      13.1875    3321.0000    1617.0000    3146.0000    3029.0000    6239.8145
 4191.7620    5707.0000       0.0979       2.4696      -0.0175       2.3368       8.6550      48.2454    1325.6595       0.0894      10.4087      10.3966      21.5091      21.5079      13.1984      13.3870      13.3487      12.9670      14.9359      11.5922      11.9371      12.2124      11.8473      13.9448      13.1488    3360.0000    1545.3334    2949.0000    2925.0000    5748.0059
 4191.6096    5646.0000       0.0979       2.4782      -0.0157       2.2948       8.6517      46.5625    1326.7261       0.0881       9.1223       9.1163      20.8060      20.4396      14.9336      15.1303      15.4549      15.0392      17.2826      16.4653      16.3468      15.7721      15.9424      16.7293      13.2116    3411.0000    1494.0000    2928.0000    2813.0000    5074.3315
 4191.4572    5687.0000       0.0932       2.4790      -0.0154       2.1712       8.6530      40.3739    1327.7926       0.0832       8.7053       8.7039      21.6075      19.2655      18.0988      18.4358      18.6431      18.2082      20.8645      17.8409      17.9418      17.9125      19.0368      20.1087      12.8307    3506.0000    1633.0000    3051.0000    3062.0000    5082.0161
 4191.3048    5679.0000       0.0870       2.4944      -0.0102       2.1906       8.6513      36.5690    1324.2375       0.0774       8.6550       8.6550      28.6061      21.4387      20.9263      21.3070      21.1706      20.2894      23.3433      20.5993      20.8463      21.7264      23.5201      25.4764      12.1181    3380.0000    1723.0000    3095.0000    3070.0000    5832.5361
 4191.1524    5644.0000       0.0869       2.4995      -0.0066       2.1554       8.6550      35.5220    1318.9050       0.0789       8.6530       8.6530      33.5054      21.4817      22.4498      22.8567      22.9012      22.3826      25.3156      20.9302      21.3342      21.9834      22.8069      25.2602      11.1800    3387.0000    1679.0000    3122.0000    3087.0000    5835.0972
 4191.0000    5651.0000       0.0796       2.4957      -0.0097       2.1648       8.6510      31.8840    1309.6620       0.0723       8.6532       8.6532      26.9971      17.6947      25.1364      25.5824      25.6430      25.0460      29.0281      24.0110      24.9536      24.8488      25.4915      29.2489      11.3311    3505.0000    1852.0000    3152.0000    3137.0000    6329.4668
 4190.8476    5668.0000       0.0721       2.4921      -0.0102       2.2352       8.6561      29.0792    1317.1276       0.0661       8.8249       8.6660      20.1414      16.4041      29.4883      29.9894      29.6399      29.3679      34.2429      36.0458      36.3275      38.7212      36.8906      42.5965      11.2568    3566.0000    1879.0000    3251.0000    3317.0000    6693.1992
 4190.6952    5649.0000       0.0664       2.4979      -0.0117       2.2656       8.6517      27.5447    1314.9945       0.0603      11.5490      10.1712      24.6034      23.7450      33.8167      34.4072      33.5731      31.8712      36.1574      42.2628      42.4100      41.1199      36.4143      42.6785      11.0578    3526.0000    1949.0000    3273.0000    3326.0000    7256.7300
 4190.5428    5631.0000       0.0668       2.5006      -0.0094       2.1576       8.6513      30.6941    1308.2400       0.0609      26.2875      20.4715      44.5464      43.6555      29.2187      29.8471      29.1918      27.3239      30.2361      31.1143      32.1396      30.2045      27.4714      31.7954      11.4854    3347.0000    1916.0000    3424.0000    3200.0000    6903.2427
