~VERSION INFORMATION
VERS.           2.0   :CWLS Log ASCII Standard - VERSION 2.0
WRAP.           NO    :One Line per depth step
PROD.  Schlumberger   :LAS Producer
PROG.  DLIS to ASCII 11C0-305                          :LAS Program name and version
CREA.        2003/11/16 09:47                          :LAS Creation date {YYYY/MM/DD hh:mm}
SOURCE.     AIT_MainPB1_027PUP.DLIS                    :DLIS File Name
FILE-ID.     AIT_MainPB1_027PUP                        :File Identification Number
#--------------------------------------------------
~WELL INFORMATION
#MNEM.UNIT      DATA             DESCRIPTION
#---- ------ --------------   -----------------------------
STRT .M      4869.0276       :START DEPTH     
STOP .M      3996.2328       :STOP DEPTH     
STEP .M        -0.1524       :STEP     
NULL .          -999.25      :NULL VALUE
COMP .        INPEX Browse, Ltd.                       :COMPANY
WELL .        ICHTHYS DEEP-1                           :WELL
FLD  .        WA-285-P                                 :FIELD
LOC  .        Datum: GDA94 Spheroid GRS80              :LOCATION
CNTY .        Ocean Bounty                             :COUNTY
STAT .        1:200                                    :STATE
CTRY .        Australia                                :COUNTRY
API  .                                                 :API NUMBER
UWI  .                                                 :UNIQUE WELL ID
DATE .        16-Nov-2003                              :LOG DATE {DD-MMM-YYYY}
SRVC .        Schlumberger                             :SERVICE COMPANY
LATI .DEG     13 51' 47.081" S                         :LATITUDE
LONG .DEG     123 13'  56.110" E                       :LONGITUDE
GDAT .                                                 :GeoDetic Datum
#-----------------------------------------------------------------------------
~PARAMETER INFORMATION
#MNEM.UNIT    VALUE                      DESCRIPTION
#---- -----   --------------------       ------------------------
RUN  .          Suite 3 Run 1            :RUN NUMBER
PDAT .        LAT                        :Permanent Datum
EPD  .M           0.000000               :Elevation of Permanent Datum above Mean Sea Level
EPD  .M           0.000000               :Elevation of tool zero above Mean Sea Level
LMF  .          Drill Floor              :Logging Measured From (Name of Logging Elevation Reference)
APD  .M          25.000000               :Elevation of Depth Reference (LMF) above Permanent Datum
#-----------------------------------------------------------------------------
~CURVE INFORMATION
#MNEM.UNIT   API CODE                                  DESCRIPTION
#---- -----  --------                                  -----------------------
DEPT .M                                                :DEPTH (BOREHOLE) {F10.4}
TENS .LBF                                              :Cable Tension {F13.4}
APLU .V/V                                              :APS Near/Array Uncorrected Limestone Porosity {F13.4}
RHOM .G/C3                                             :LDS Corrected Bulk Density {F13.4}
DRH  .G/C3                                             :LDS Bulk Density Correction {F13.4}
PEFL .                                                 :LDS Long-Spaced Corrected Photoelectric Effect {F13.4}
LCAL .IN                                               :LDS Caliper {F13.4}
HSGR .GAPI                                             :HNGS Standard Gamma Ray {F13.4}
CDF  .N                                                :Calibrated Downhole Force {F13.4}
APLC .V/V                                              :APS Near/Array Corrected Limestone Porosity {F13.4}
ATD2 .IN                                               :Array Induction Two Foot Outer Diameter of Invasion (D2) {F13.4}
ATD1 .IN                                               :Array Induction Two Foot Inner Diameter of Invasion(D1) {F13.4}
AOD2 .IN                                               :Array Induction One Foot Outer Diameter of Invasion (D2) {F13.4}
AOD1 .IN                                               :Array Induction One Foot Inner Diameter of Invasion (D1) {F13.4}
AT90 .OHMM                                             :Array Induction Two Foot Resistivity A90 {F13.4}
AT60 .OHMM                                             :Array Induction Two Foot Resistivity A60 {F13.4}
AT30 .OHMM                                             :Array Induction Two Foot Resistivity A30 {F13.4}
AT20 .OHMM                                             :Array Induction Two Foot Resistivity A20 {F13.4}
AT10 .OHMM                                             :Array Induction Two Foot Resistivity A10 {F13.4}
AO90 .OHMM                                             :Array Induction One Foot Resistivity A90 {F13.4}
AO60 .OHMM                                             :Array Induction One Foot Resistivity A60 {F13.4}
AO30 .OHMM                                             :Array Induction One Foot Resistivity A30 {F13.4}
AO20 .OHMM                                             :Array Induction One Foot Resistivity A20 {F13.4}
AO10 .OHMM                                             :Array Induction One Foot Resistivity A10 {F13.4}
SIGF .CU                                               :APS Formation Capture Cross-Section {F13.4}
ANEC .HZ                                               :APS Near Detector Count Rate {F13.4}
AFEC .HZ                                               :APS Far Detector Count Rate {F13.4}
A1EP .HZ                                               :APS Array-1 Detector Count Rate {F13.4}
A2EP .HZ                                               :APS Array-2 Detector Count Rate {F13.4}
AFTC .HZ                                               :APS Thermal Detector Count Rate {F13.4}
#-----------------------------------------------------------------------------
# 
#     DEPT        TENS         APLU         RHOM         DRH          PEFL         LCAL         HSGR         CDF          APLC         ATD2         ATD1         AOD2         AOD1         AT90         AT60         AT30         AT20         AT10         AO90         AO60         AO30         AO20         AO10         SIGF         ANEC         AFEC         A1EP         A2EP         AFTC
#
~A  
# ...
 4171.3404    5591.0000       0.0767       2.8139      -0.0079    -999.2500       8.7193      23.5815    5969.5693       0.0660      52.2739       8.8815      51.8578       8.8642      24.4800      25.0554      29.8001      34.5174      71.7637      24.6110      24.6483      29.6301      34.5687      72.0573       9.8441    2998.0000    1569.0000    2676.0000    2763.0000    6196.2686
 4171.1880    5573.0000       0.0794       2.8139      -0.0079    -999.2500       8.7208      23.5923    5961.6626       0.0695      51.8814       8.9210      50.9308       8.8941      24.5375      25.1206      29.7233      34.4814      71.8753      24.9492      25.0203      30.2052      34.5263      73.9170       9.6634    2948.0000    1607.0000    2794.0000    2736.0000    5776.1826
 4171.0356    5571.0000       0.0805       2.8139      -0.0079    -999.2500       8.7259      23.7464    5953.7559       0.0718      51.4750       8.9341      50.3850       8.7946      24.4898      25.1215      29.7532      34.4955      71.9047      24.5835      24.5983      29.8833      33.8881      72.5313       9.1633    3102.0000    1578.0000    2794.0000    2712.0000    5996.4717
 4170.8832    5561.0000       0.0797       2.8139      -0.0079    -999.2500       8.7205      24.8210    5942.6860       0.0727      51.2066       8.9429      50.3951       8.8066      24.3243      24.9722      29.2604      33.9008      71.5727      23.9092      24.1796      28.8156      32.4967      70.6702       9.2262    3021.0000    1699.0000    2730.0000    2713.0000    6193.7075
 4170.7308    5600.0000       0.0795       2.8139      -0.0079    -999.2500       8.7247      23.3629    5901.5718       0.0732      51.2781       8.9513      50.4556       8.7761      24.2864      24.9450      29.5231      34.1942      71.6872      24.4257      24.6335      30.4275      33.9049      72.4258       9.0641    3021.0000    1615.0000    2798.0000    2832.0000    6019.5254
 4170.5784    5555.0000       0.0753       2.8139      -0.0079    -999.2500       8.7236      23.5891    5855.7124       0.0692      51.3588       8.9436      50.5777       8.8377      24.2231      24.9232      29.5432      34.2252      71.5795      24.4506      24.6386      29.5685      33.2381      70.7495       8.8971    3056.0000    1662.0000    2861.0000    2685.0000    6221.8838
 4170.4260    5566.0000       0.0738       2.8139      -0.0079    -999.2500       8.7190      22.6917    5855.7124       0.0685      51.1890       8.9186      52.0211       8.8073      24.0618      24.7895      29.2170      33.8175      71.2500      23.9977      24.1568      29.0459      33.1595      69.5321       8.9048    2978.0000    1677.0000    2762.0000    2803.0000    6370.4512
 4170.2736    5528.0000       0.0738       2.8139      -0.0079    -999.2500       8.6819      24.2831    5868.3633       0.0684      51.5290       8.8047      53.2374       8.7740      23.9696      24.6649      29.1563      33.6180      72.0122      23.1556      23.3147      28.8370      33.1210      70.4954       9.2926    3015.0000    1670.0000    2823.0000    2859.0000    6529.2637
 4170.1212    5527.0000       0.0764       2.8139      -0.0079    -999.2500       8.6437      24.0356    5933.1982       0.0706      52.5852       8.7469      53.0798       8.7307      24.3263      25.0558      29.8125      34.6005      73.7493      25.1515      25.5505      30.5845      34.5330      74.4592       9.1070    2999.0000    1675.0000    2740.0000    2753.0000    6129.6699
 4169.9688    5538.0000       0.0826       2.8139      -0.0079    -999.2500       8.6417      26.1306    5936.3608       0.0769      53.5748       8.7638      52.6566       8.7237      24.5298      25.2675      30.3859      35.2924      75.2241      24.9735      25.3996      31.0784      35.0798      76.8485       9.0773    2972.0000    1614.0000    2712.0000    2776.0000    6045.1401
 4169.8164    5538.0000       0.0841       2.8139      -0.0079    -999.2500       8.6405      25.7629    5933.1982       0.0780      53.8801       8.8336      52.2156       8.7978      24.8890      25.6114      30.6576      35.6924      76.2115      24.4987      25.1481      30.4092      35.6212      76.6594       9.1981    3104.0000    1585.0000    2710.0000    2718.0000    6058.8013
 4169.6640    5490.0000       0.0837       2.8139      -0.0079    -999.2500       8.6505      24.6786    5926.8730       0.0770      53.9532       8.9309      51.6711       8.8329      25.0303      25.7527      30.7798      35.9832      76.7436      26.2952      26.0247      31.7112      35.1962      78.2210       9.1113    3016.0000    1623.0000    2729.3333    2736.0000    6244.9370
 4169.5116    5566.0000       0.0798       2.8139      -0.0079    -999.2500       8.6554      21.3730    5956.9185       0.0729      54.4767       8.9332      52.8728       8.7832      25.0698      25.7794      30.8573      36.0493      76.4706      25.1792      25.6424      30.6273      35.7275      76.7380       9.0255    3049.0000    1600.0000    2695.0000    2749.0000    5975.9795
 4169.3592    5536.0000       0.0794       2.8139      -0.0079    -999.2500       8.6589      21.4391    5890.5020       0.0722      55.7330       8.8737      54.8284       8.8191      25.0379      25.7338      30.8930      36.2630      75.9894      25.4320      25.5341      31.5446      35.5510      76.6312       9.2642    2947.0000    1516.0000    2810.0000    2754.0000    5904.2573
 4169.2068    5535.0000       0.0755       2.8139      -0.0079    -999.2500       8.6562      22.0055    5863.6196       0.0675      57.5646       8.8191      56.8608       9.1694      24.9670      25.6491      31.0250      36.6065      75.8234      24.3283      24.2931      30.7950      35.9239      75.8240       9.0415    2928.0000    1562.0000    2641.0000    2739.0000    5899.1343
 4169.0544    5606.0000       0.0780       2.8139      -0.0079    -999.2500       8.6560      22.2530    5939.5239       0.0702      59.4968       8.7987      56.4337      12.1848      25.0394      25.7047      31.2285      37.0418      75.3200      25.7891      25.3734      31.5470      36.0355      75.0336       9.2232    3006.0000    1526.0000    2806.0000    2765.0000    6040.0176
 4168.9020    5515.0000       0.0749       2.8139      -0.0079    -999.2500       8.6542      22.5225    5944.2681       0.0659      61.3954       9.0878      55.0364      18.5241      25.2241      25.8912      31.5859      37.2504      74.5419      24.9275      24.8555      30.8779      37.0716      73.8795       8.7034    2966.0000    1515.0000    2676.0000    2704.0000    6009.2793
 4168.7496    5460.0000       0.0797       2.8139      -0.0079    -999.2500       8.6534      23.3459    5925.2920       0.0712      63.9163      10.0914      51.0633      30.0632      25.2442      25.9603      31.1742      37.8298      72.9480      24.9876      25.2802      30.9988      39.0027      73.1310       8.7482    2997.0000    1594.0000    2770.0000    2718.0000    5883.7656
 4168.5972    5524.0000       0.0794       2.8139      -0.0079    -999.2500       8.6531      24.8960    5944.2681       0.0718      69.4220      13.4385      50.5655      37.9916      26.7905      27.4919      33.0978      38.4006      69.0022      25.6188      25.4365      33.0771      44.5048      73.8953       8.7569    2909.0000    1667.0000    2642.0000    2690.0000    5973.4180
 4168.4448    5497.0000       0.0825       2.8139      -0.0079    -999.2500       8.6523      24.3820    5967.9883       0.0751      77.3636      20.8506      55.2192      36.2787      27.0815      28.2148      34.3820      42.4556      68.0036      28.2022      28.2756      34.7548      49.6725      75.6615       9.5880    2925.0000    1568.0000    2653.0000    2731.0000    5888.8887
 4168.2924    5516.0000       0.0901       2.8139      -0.0079    -999.2500       8.6702      23.4289    5960.0811       0.0823      79.2636      31.4127      59.3302      29.6306      27.6436      28.5308      39.7603      44.3282      65.2655      27.3638      27.2958      43.3057      47.2106      84.7454      10.0870    2994.0000    1435.0000    2595.0000    2666.0000    6042.5786
