~VERSION INFORMATION
VERS.           2.0   :CWLS Log ASCII Standard - VERSION 2.0
WRAP.           NO    :One Line per depth step
PROD.  Schlumberger   :LAS Producer
PROG.  DLIS to ASCII 11C0-305                          :LAS Program name and version
CREA.        2003/11/16 09:47                          :LAS Creation date {YYYY/MM/DD hh:mm}
SOURCE.     AIT_MainPB1_027PUP.DLIS                    :DLIS File Name
FILE-ID.     AIT_MainPB1_027PUP                        :File Identification Number
#--------------------------------------------------
~WELL INFORMATION
#MNEM.UNIT      DATA             DESCRIPTION
#---- ------ --------------   -----------------------------
STRT .M      4869.0276       :START DEPTH     
STOP .M      3996.2328       :STOP DEPTH     
STEP .M        -0.1524       :STEP     
NULL .          -999.25      :NULL VALUE
COMP .        INPEX Browse, Ltd.                       :COMPANY
WELL .        ICHTHYS DEEP-1                           :WELL
FLD  .        WA-285-P                                 :FIELD
LOC  .        Datum: GDA94 Spheroid GRS80              :LOCATION
CNTY .        Ocean Bounty                             :COUNTY
STAT .        1:200                                    :STATE
CTRY .        Australia                                :COUNTRY
API  .                                                 :API NUMBER
UWI  .                                                 :UNIQUE WELL ID
DATE .        16-Nov-2003                              :LOG DATE {DD-MMM-YYYY}
SRVC .        Schlumberger                             :SERVICE COMPANY
LATI .DEG     13 51' 47.081" S                         :LATITUDE
LONG .DEG     123 13'  56.110" E                       :LONGITUDE
GDAT .                                                 :GeoDetic Datum
#-----------------------------------------------------------------------------
~PARAMETER INFORMATION
#MNEM.UNIT    VALUE                      DESCRIPTION
#---- -----   --------------------       ------------------------
RUN  .          Suite 3 Run 1            :RUN NUMBER
PDAT .        LAT                        :Permanent Datum
EPD  .M           0.000000               :Elevation of Permanent Datum above Mean Sea Level
EPD  .M           0.000000               :Elevation of tool zero above Mean Sea Level
LMF  .          Drill Floor              :Logging Measured From (Name of Logging Elevation Reference)
APD  .M          25.000000               :Elevation of Depth Reference (LMF) above Permanent Datum
#-----------------------------------------------------------------------------
~CURVE INFORMATION
#MNEM.UNIT   API CODE                                  DESCRIPTION
#---- -----  --------                                  -----------------------
DEPT .M                                                :DEPTH (BOREHOLE) {F10.4}
TENS .LBF                                              :Cable Tension {F13.4}
APLU .V/V                                              :APS Near/Array Uncorrected Limestone Porosity {F13.4}
RHOM .G/C3                                             :LDS Corrected Bulk Density {F13.4}
DRH  .G/C3                                             :LDS Bulk Density Correction {F13.4}
PEFL .                                                 :LDS Long-Spaced Corrected Photoelectric Effect {F13.4}
LCAL .IN                                               :LDS Caliper {F13.4}
HSGR .GAPI                                             :HNGS Standard Gamma Ray {F13.4}
CDF  .N                                                :Calibrated Downhole Force {F13.4}
APLC .V/V                                              :APS Near/Array Corrected Limestone Porosity {F13.4}
ATD2 .IN                                               :Array Induction Two Foot Outer Diameter of Invasion (D2) {F13.4}
ATD1 .IN                                               :Array Induction Two Foot Inner Diameter of Invasion(D1) {F13.4}
AOD2 .IN                                               :Array Induction One Foot Outer Diameter of Invasion (D2) {F13.4}
AOD1 .IN                                               :Array Induction One Foot Inner Diameter of Invasion (D1) {F13.4}
AT90 .OHMM                                             :Array Induction Two Foot Resistivity A90 {F13.4}
AT60 .OHMM                                             :Array Induction Two Foot Resistivity A60 {F13.4}
AT30 .OHMM                                             :Array Induction Two Foot Resistivity A30 {F13.4}
AT20 .OHMM                                             :Array Induction Two Foot Resistivity A20 {F13.4}
AT10 .OHMM                                             :Array Induction Two Foot Resistivity A10 {F13.4}
AO90 .OHMM                                             :Array Induction One Foot Resistivity A90 {F13.4}
AO60 .OHMM                                             :Array Induction One Foot Resistivity A60 {F13.4}
AO30 .OHMM                                             :Array Induction One Foot Resistivity A30 {F13.4}
AO20 .OHMM                                             :Array Induction One Foot Resistivity A20 {F13.4}
AO10 .OHMM                                             :Array Induction One Foot Resistivity A10 {F13.4}
SIGF .CU                                               :APS Formation Capture Cross-Section {F13.4}
ANEC .HZ                                               :APS Near Detector Count Rate {F13.4}
AFEC .HZ                                               :APS Far Detector Count Rate {F13.4}
A1EP .HZ                                               :APS Array-1 Detector Count Rate {F13.4}
A2EP .HZ                                               :APS Array-2 Detector Count Rate {F13.4}
AFTC .HZ                                               :APS Thermal Detector Count Rate {F13.4}
#-----------------------------------------------------------------------------
# 
#     DEPT        TENS         APLU         RHOM         DRH          PEFL         LCAL         HSGR         CDF          APLC         ATD2         ATD1         AOD2         AOD1         AT90         AT60         AT30         AT20         AT10         AO90         AO60         AO30         AO20         AO10         SIGF         ANEC         AFEC         A1EP         A2EP         AFTC
#
~A  
# ...
 4232.1480    5729.0000       0.0660       2.8139      -0.0079    -999.2500       8.6568      23.4891    5920.5479       0.0613      83.0736       9.9666      65.0532      23.3199      32.8516      35.6588      49.1645      61.8408     201.4519      32.1332      31.1175      53.4014      55.2594     149.9578       9.2806    3012.0000    1795.0000    2914.3999    2884.8000    6805.9058
 4231.9956    5715.0000       0.0648       2.8139      -0.0079    -999.2500       8.6608      24.4194    5896.8276       0.0600      83.2913       9.6695      64.0315      24.2090      33.7566      36.5992      50.2868      64.7412     201.1104      40.9801      40.3787      58.2467      53.6021     194.8485       9.3482    3062.0000    1797.0000    3003.0000    2847.0000    6629.1621
 4231.8432    5687.0000       0.0658       2.8139      -0.0079    -999.2500       8.6625      24.5229    6002.7773       0.0608      84.5004       9.4667      62.3602      26.0715      34.0156      37.2765      52.1103      65.6892     205.6457      28.9042      29.0115      42.9811      66.6975     176.9486       9.0837    3053.0000    1766.0000    2980.0000    2820.0000    6542.0713
 4231.6908    5665.0000       0.0697       2.8139      -0.0079    -999.2500       8.6565      23.1924    5964.8252       0.0645      85.2548       9.4130      66.8230      22.8708      34.6638      38.1153      52.6413      68.1936     210.6741      42.2692      45.1000      62.2769      60.4486     222.4121       9.2106    3007.0000    1746.0000    2823.0000    2828.0000    6575.3706
 4231.5384    5700.0000       0.0731       2.8139      -0.0079    -999.2500       8.6454      22.3813    5980.6387       0.0685      84.9056       9.3679      76.6752      16.0426      35.9135      39.8911      54.6619      69.7857     218.0352      34.6695      38.1735      49.0054      72.0606     197.2874       9.3506    3025.0000    1684.0000    2889.0000    2824.0000    6667.5850
 4231.3860    5665.0000       0.0741       2.8139      -0.0079    -999.2500       8.6416      20.9056    5990.1265       0.0696      82.4892       9.5781      84.2510      11.3694      37.6311      42.2500      57.3653      72.7376     229.1425      36.6964      39.0284      57.4519      69.8020     218.5548       9.4200    3082.0000    1747.0000    2818.0000    2766.0000    6672.7075
 4231.2336    5579.0000       0.0798       2.8139      -0.0079    -999.2500       8.6437      21.3794    6039.1484       0.0753      80.5308       9.7098      84.1790      11.9140      39.9835      45.4842      60.3904      74.7005     242.4181      36.5476      37.8155      56.4223      73.8361     229.7264       8.8363    3028.0000    1723.0000    2802.0000    2851.0000    6457.5410
 4231.0812    5594.0000       0.0811       2.8139      -0.0079    -999.2500       8.6435      21.1825    6035.9858       0.0766      83.0143      10.4725      77.0182      12.6082      43.9913      51.1331      66.3500      80.4218     247.2125      45.6836      49.9259      70.5633      81.4786     280.5352       8.5475    3103.0000    1610.4000    2779.0000    2635.0000    6480.5952
 4230.9288    5637.0000       0.0856       2.8139      -0.0079    -999.2500       8.6448      20.6402    5972.7319       0.0808      97.6702      15.1260      67.1192      14.3147      48.6893      57.7356      73.9423      85.0486     213.0267      47.0623      51.2226      77.2817      85.9426     355.8395       8.5806    2986.0000    1500.0000    2766.0000    2655.0000    6260.3062
 4230.7764    5622.0000       0.0895       2.8139      -0.0079    -999.2500       8.6426      19.4735    5920.5479       0.0837     118.2011      27.5390      54.0928      16.5503      53.9343      65.9592      83.2080      85.6351     147.5150      52.1078      59.0300      86.3222      73.7484     371.8105       8.5974    2935.0000    1480.0000    2748.0000    2642.0000    6247.4980
 4230.6240    5658.0000       0.0892       2.8139      -0.0079    -999.2500       8.6437      19.4098    5813.0161       0.0828     125.3091      39.4942      39.1370      18.1648      55.2505      67.9998      85.6314      85.8063     102.2128      70.9582      77.6466     117.6057      62.1311     318.6752       9.0366    3025.0000    1465.0000    2581.0000    2651.0000    6293.6060
 4230.4716    5585.0000       0.0919       2.8139      -0.0079    -999.2500       8.6434      22.2297    5854.1313       0.0843     109.4430      32.7416      27.1405      17.5099      44.4729      52.5203      58.0613      64.9126      77.0347      57.0150      63.9717      74.0908      48.2818      98.4005      10.0914    3029.0000    1484.0000    2677.0000    2578.0000    6380.6963
 4230.3192    5645.0000       0.0945       2.8139      -0.0079    -999.2500       8.6437      30.2959    5797.2031       0.0862      77.2112      17.3780      20.2161      14.9335      26.9868      30.2463      32.3693      34.6144      45.3923      27.9996      30.2203      32.7107      31.9902      51.1899      11.1579    2926.0000    1399.0000    2649.0000    2579.0000    5771.0596
 4230.1668    5638.0000       0.1152       2.8139      -0.0079    -999.2500       8.6517      51.6902    5814.5977       0.1063      40.7157      11.2969      17.0348      13.1591      16.1113      17.0829      17.1451      17.3337      22.1367      15.6186      16.3545      18.0381      15.5623      19.7271      12.8470    2941.0000    1346.0000    2501.0000    2374.0000    5535.4019
 4230.0144    5657.0000       0.1354       2.8139      -0.0079    -999.2500       8.6837      65.8488    5904.7339       0.1287      19.4842       9.5494      19.4831      13.2304      14.3036      15.1486      14.5207      14.4954      17.0381      15.3794      15.9777      17.0211      16.3327      15.3698      14.9171    2700.0000    1254.0000    2201.6001    2176.8000    4368.8940
 4229.8620    5750.0000       0.1074       2.8139      -0.0079    -999.2500       8.6822      72.0174    5901.5718       0.0993      11.2082       9.3173      24.4807      12.4994      17.6568      18.9380      17.7326      17.5152      19.3271      19.8723      20.6219      22.7132      20.0422      24.2036      16.6302    2923.0000    1081.0000    2274.0000    2189.0000    3263.3511
 4229.7096    5730.0000       0.0801       2.8139      -0.0079    -999.2500       8.6819      81.0353    5915.8037       0.0709       9.9366       8.7577      24.6603      10.5411      16.9206      17.9836      18.2045      17.6618      19.2002      15.7725      16.2595      16.5827      16.8419      19.3144      17.1078    2888.0000    1413.0000    2898.0000    2837.0000    4687.5454
 4229.5572    5727.0000       0.0749       2.8139      -0.0079    -999.2500       8.6846     108.5796    5955.3369       0.0640      14.5042       8.6788      17.4947       9.9402      15.1817      16.0574      14.7800      14.4035      15.9527      12.9494      13.4197      13.0768      12.6996      13.9102      15.9606    2893.0000    1447.0000    2701.0000    2711.0000    4431.3950
 4229.4048    5745.0000       0.1053       2.8139      -0.0079    -999.2500       8.6848     128.8138    5915.8037       0.0959      27.0605       9.2832      15.6711      13.5017      13.3867      13.9583      14.0054      13.6214      14.9513      12.4030      12.7182      12.2975      11.4061      12.6761      14.6652    2878.0000    1180.0000    2433.0000    2509.0000    2953.4097
 4229.2524    5659.0000       0.1243       2.8139      -0.0079    -999.2500       8.6823     109.4351    5887.3394       0.1154      35.6862       9.8728      35.5431      35.0813      14.2983      15.0188      16.2476      15.9185      17.4119      18.5724      18.9981      17.9475      16.4231      17.1616      12.7414    2906.0000    1140.0000    2231.0000    2194.0000    2548.6926
 4229.1000    5698.0000       0.1190       2.8139      -0.0079    -999.2500       8.6802      67.9501    5879.4326       0.1081      28.8304      10.4462      62.7692      61.4924      20.8075      22.0346      22.1691      21.2390      25.6711      21.4647      21.8979      25.3125      26.9988      25.6541      11.0475    2897.0000    1103.2000    2433.0000    2360.0000    2725.4360
