~VERSION INFORMATION
VERS.           2.0   :CWLS Log ASCII Standard - VERSION 2.0
WRAP.           NO    :One Line per depth step
PROD.  Schlumberger   :LAS Producer
PROG.  DLIS to ASCII 11C0-305                          :LAS Program name and version
CREA.        2003/11/03 06:15                          :LAS Creation date {YYYY/MM/DD hh:mm}
SOURCE.     AIT_mainPB1_064PUP.DLIS                    :DLIS File Name
FILE-ID.     AIT_mainPB1_064PUP                        :File Identification Number
#--------------------------------------------------
~WELL INFORMATION
#MNEM.UNIT      DATA             DESCRIPTION
#---- ------ --------------   -----------------------------
STRT .M      4280.0016       :START DEPTH     
STOP .M      3948.9888       :STOP DEPTH     
STEP .M        -0.1524       :STEP     
NULL .          -999.25      :NULL VALUE
COMP .        INPEX Browse, Ltd.                       :COMPANY
WELL .        ICHTHYS DEEP-1                           :WELL
FLD  .        WA-285-P                                 :FIELD
LOC  .        Datum: GDA94 Spheroid GRS80              :LOCATION
CNTY .        Ocean Bounty                             :COUNTY
STAT .        1:200                                    :STATE
CTRY .        Australia                                :COUNTRY
API  .                                                 :API NUMBER
UWI  .                                                 :UNIQUE WELL ID
DATE .        03-Nov-2003                              :LOG DATE {DD-MMM-YYYY}
SRVC .        Schlumberger                             :SERVICE COMPANY
LATI .DEG     13 51' 47.081" S                         :LATITUDE
LONG .DEG     123 13'  56.110" E                       :LONGITUDE
GDAT .                                                 :GeoDetic Datum
#-----------------------------------------------------------------------------
~PARAMETER INFORMATION
#MNEM.UNIT    VALUE                      DESCRIPTION
#---- -----   --------------------       ------------------------
RUN  .          Suite 2 Run 1            :RUN NUMBER
PDAT .        LAT                        :Permanent Datum
EPD  .M           0.000000               :Elevation of Permanent Datum above Mean Sea Level
EPD  .M           0.000000               :Elevation of tool zero above Mean Sea Level
LMF  .          Drill Floor              :Logging Measured From (Name of Logging Elevation Reference)
APD  .M          25.000000               :Elevation of Depth Reference (LMF) above Permanent Datum
#-----------------------------------------------------------------------------
~CURVE INFORMATION
#MNEM.UNIT   API CODE                                  DESCRIPTION
#---- -----  --------                                  -----------------------
DEPT .M                                                :DEPTH (BOREHOLE) {F10.4}
TENS .LBF                                              :Cable Tension {F13.4}
APLU .V/V                                              :APS Near/Array Uncorrected Limestone Porosity {F13.4}
RHOM .G/C3                                             :LDS Corrected Bulk Density {F13.4}
DRH  .G/C3                                             :LDS Bulk Density Correction {F13.4}
PEFL .                                                 :LDS Long-Spaced Corrected Photoelectric Effect {F13.4}
LCAL .IN                                               :LDS Caliper {F13.4}
HSGR .GAPI                                             :HNGS Standard Gamma Ray {F13.4}
CDF  .LBF                                              :Calibrated Downhole Force {F13.4}
APLC .V/V                                              :APS Near/Array Corrected Limestone Porosity {F13.4}
ATD2 .IN                                               :Array Induction Two Foot Outer Diameter of Invasion (D2) {F13.4}
ATD1 .IN                                               :Array Induction Two Foot Inner Diameter of Invasion(D1) {F13.4}
AOD2 .IN                                               :Array Induction One Foot Outer Diameter of Invasion (D2) {F13.4}
AOD1 .IN                                               :Array Induction One Foot Inner Diameter of Invasion (D1) {F13.4}
AT90 .OHMM                                             :Array Induction Two Foot Resistivity A90 {F13.4}
AT60 .OHMM                                             :Array Induction Two Foot Resistivity A60 {F13.4}
AT30 .OHMM                                             :Array Induction Two Foot Resistivity A30 {F13.4}
AT20 .OHMM                                             :Array Induction Two Foot Resistivity A20 {F13.4}
AT10 .OHMM                                             :Array Induction Two Foot Resistivity A10 {F13.4}
AO90 .OHMM                                             :Array Induction One Foot Resistivity A90 {F13.4}
AO60 .OHMM                                             :Array Induction One Foot Resistivity A60 {F13.4}
AO30 .OHMM                                             :Array Induction One Foot Resistivity A30 {F13.4}
AO20 .OHMM                                             :Array Induction One Foot Resistivity A20 {F13.4}
AO10 .OHMM                                             :Array Induction One Foot Resistivity A10 {F13.4}
SIGF .CU                                               :APS Formation Capture Cross-Section {F13.4}
ANEC .HZ                                               :APS Near Detector Count Rate {F13.4}
AFEC .HZ                                               :APS Far Detector Count Rate {F13.4}
A1EP .HZ                                               :APS Array-1 Detector Count Rate {F13.4}
A2EP .HZ                                               :APS Array-2 Detector Count Rate {F13.4}
AFTC .HZ                                               :APS Thermal Detector Count Rate {F13.4}
#-----------------------------------------------------------------------------
# 
#     DEPT        TENS         APLU         RHOM         DRH          PEFL         LCAL         HSGR         CDF          APLC         ATD2         ATD1         AOD2         AOD1         AT90         AT60         AT30         AT20         AT10         AO90         AO60         AO30         AO20         AO10         SIGF         ANEC         AFEC         A1EP         A2EP         AFTC
#
~A  
# ...
 4257.5988    5720.0000       0.1347       2.7246      -0.0129       4.4923       8.4386     157.3022    1292.5980       0.1165       8.4554       8.4554       8.4384       8.4384       5.8056       5.7731       5.8820       5.9264       5.8401       6.0499       5.9154       6.3085       6.4136       6.2824      33.1741    3472.0000    1172.0000    2789.7144    2650.8572    2699.8210
 4257.4464    5706.0000       0.1405       2.7102      -0.0132       4.2985       8.4383     156.4171    1296.8640       0.1250       8.5291       8.5291       8.4382       8.4381       5.5075       5.4961       5.4969       5.5709       5.5310       5.3004       5.1981       5.2645       5.3390       5.2516      33.1802    3354.3999    1176.8000    2706.3999    2649.6001    2491.8274
 4257.2940    5676.0000       0.1475       2.6988      -0.0107       3.9359       8.4370     156.1735    1313.5725       0.1322       8.5277       8.5277       8.4374       8.4374       5.1390       5.1375       5.1450       5.2409       5.2577       4.8642       4.7555       4.8106       4.8850       4.8435      33.5580    3344.8000    1173.0000    2694.3999    2528.0000    2479.5320
 4257.1416    5665.0000       0.1414       2.6751      -0.0116       3.6183       8.4361     158.2652    1316.4165       0.1232       8.4971       8.4971       8.4367       8.4367       5.2209       5.2209       5.2031       5.2993       5.2773       5.1990       5.0854       5.2769       5.4845       5.1722      33.1683    3411.2000    1132.0000    2696.0000    2554.3999    2756.1743
 4256.9892    5759.0000       0.1350       2.6762      -0.0087       3.7464       8.4370     158.3479    1306.4625       0.1141       8.4723       8.4723       8.4467       8.4467       5.8516       5.8498       5.7444       5.7844       5.7598       6.1990       6.0524       6.1633       6.0755       5.9775      32.0882    3408.0000    1163.0000    2741.0000    2713.0000    2618.8774
 4256.8368    5664.0000       0.1338       2.6774      -0.0093       3.9273       8.4365     157.8210    1310.3730       0.1117       8.4706       8.4706       8.4554       8.4554       6.1173       6.1193       5.9737       6.0257       6.0172       5.9972       5.8715       5.9418       5.7691       6.2172      32.7555    3375.2000    1155.2000    2724.0000    2768.8000    2607.6069
 4256.6844    5729.0000       0.1378       2.6877      -0.0102       3.8583       8.4224     155.8471    1304.3296       0.1157       8.4703       8.4703       8.5291       8.5291       5.6846       5.6976       5.5775       5.6595       5.6768       5.5840       5.4791       5.5445       5.6761       5.5856      31.9157    3413.0000    1180.0000    2701.0000    2575.0000    2735.6821
 4256.5320    5701.0000       0.1422       2.7095      -0.0077       4.2955       8.4235     155.4302    1291.5315       0.1217       8.4723       8.4723       8.5277       8.5277       5.6232       5.6338       5.5365       5.6093       5.6621       5.6007       5.4872       5.5549       5.9579       5.4948      33.1650    3335.2000    1083.0000    2701.6001    2653.6001    2612.7300
 4256.3796    5664.0000       0.1381       2.7194      -0.0028       3.7214       8.4255     156.6169    1287.2655       0.1178       8.4703       8.4703       8.4971       8.4971       5.7893       5.8020       5.8412       5.9151       5.8914       6.1218       6.0029       6.1169       6.1357       6.0899      32.8554    3450.6667    1086.6666    2714.6667    2636.0000    2510.2700
 4256.2272    5674.0000       0.1403       2.6948      -0.0065       4.0443       8.4255     156.8765    1296.5085       0.1191       8.4703       8.4703       8.4723       8.4723       5.6546       5.6796       5.6982       5.7785       5.7564       5.5871       5.4790       5.6834       5.7738       5.7284      33.4949    3413.0000    1139.0000    2796.0000    2641.0000    2284.8579
 4256.0748    5663.0000       0.1509       2.6731      -0.0060       3.5264       8.4232     156.1651    1297.2196       0.1327       8.4708       8.4708       8.4706       8.4706       5.5579       5.5842       5.5174       5.6254       5.6659       5.4655       5.4180       5.4366       5.5389       5.5203      31.8677    3400.0000    1090.0000    2621.0000    2585.0000    2448.7939
 4255.9224    5668.0000       0.1589       2.6473      -0.0101       3.8111       8.4249     154.6021    1300.4191       0.1406       8.4726       8.4726       8.4703       8.4703       5.6290       5.6608       5.5439       5.6162       5.6944       5.5894       5.5125       5.6200       5.7028       5.6765      33.0150    3340.0000    1160.0000    2526.0000    2529.0000    2433.4253
 4255.7700    5649.0000       0.1675       2.6666      -0.0110       3.9019       8.4322     154.5789    1297.2196       0.1483       8.4723       8.4723       8.4723       8.4723       5.7481       5.7672       5.6173       5.6374       5.7018       5.7226       5.6501       5.9470       5.8747       5.9445      31.0494    3374.0000    1063.0000    2559.0000    2500.0000    2361.7031
 4255.6176    5663.0000       0.1677       2.6925      -0.0114       4.3047       8.4467     156.0226    1292.9535       0.1461       8.4706       8.4706       8.4703       8.4703       5.6244       5.6406       5.5655       5.5854       5.6350       5.5304       5.4347       5.5012       5.5994       5.7766      31.6187    3305.0000    1015.2000    2547.0000    2389.0000    2361.7029
 4255.4652    5587.0000       0.1629       2.7385      -0.0067       4.5261       8.4554     157.6293    1292.5980       0.1386       8.4719       8.4719       8.4703       8.4703       5.3532       5.3673       5.2878       5.3530       5.4421       5.1961       5.0879       5.0141       5.1225       5.1117      31.5761    3378.0000    1045.0000    2466.0000    2464.0000    2423.1792
 4255.3128    5597.0000       0.1601       2.7336      -0.0185       4.6363       8.5291     158.4720    1302.9076       0.1372       8.4945       8.4945       8.4946       8.4946       5.3062       5.3423       5.3016       5.3572       5.4682       5.3935       5.2967       5.2836       5.4595       5.2054      32.4394    3268.0000    1072.0000    2515.0000    2517.0000    2341.2109
 4255.1604    5630.0000       0.1639       2.7251      -0.0194       4.3607       8.5277     155.4832    1308.9510       0.1429       8.5094       8.5094       8.5101       8.5100       5.4204       5.4651       5.6105       5.6544       5.7202       5.7056       5.6181       5.8865       5.9111       5.9167      32.3299    3176.0000    1021.0000    2515.0000    2450.0000    2387.3179
 4255.0080    5641.0000       0.1633       2.7131      -0.0237       4.1483       8.4971     150.3473    1316.7721       0.1444       8.5009       8.5009       8.5011       8.5011       5.5290       5.5640       5.6348       5.6946       5.8308       5.6967       5.6387       5.6638       5.7209       5.7810      31.7687    3317.6001     954.0000    2516.8000    2386.3999    2422.1543
 4254.8556    5689.0000       0.1559       2.7346      -0.0215       4.0933       8.4723     149.4902    1327.4370       0.1372       8.4862       8.4862       8.4862       8.4862       5.6416       5.6912       5.5806       5.7008       5.9132       5.3334       5.2639       5.4012       5.5392       5.4795      31.7179    3392.0000    1032.0000    2521.0000    2524.0000    2459.0400
 4254.7032    5712.0000       0.1548       2.7552      -0.0159       4.3458       8.4706     151.7051    1323.8821       0.1358       8.4752       8.4752       8.4749       8.4749       5.8747       5.9015       5.9138       6.0688       6.2454       6.1623       6.0555       6.2588       6.5372       6.5490      31.2063    3373.0000    1029.0000    2654.0000    2528.0000    2558.9385
 4254.5508    5769.0000       0.1583       2.7399      -0.0085       4.1700       8.4703     152.6828    1307.5291       0.1373       8.4790       8.4790       8.4719       8.4719       6.0506       6.0616       6.0636       6.2644       6.4897       5.8868       5.7943       6.2553       6.5525       6.5369      31.4471    3280.0000    1088.0000    2646.0000    2490.0000    2464.1631
