~VERSION INFORMATION
VERS.           2.0   :CWLS Log ASCII Standard - VERSION 2.0
WRAP.           NO    :One Line per depth step
PROD.  Schlumberger   :LAS Producer
PROG.  DLIS to ASCII 11C0-305                          :LAS Program name and version
CREA.        2003/11/03 06:15                          :LAS Creation date {YYYY/MM/DD hh:mm}
SOURCE.     AIT_mainPB1_064PUP.DLIS                    :DLIS File Name
FILE-ID.     AIT_mainPB1_064PUP                        :File Identification Number
#--------------------------------------------------
~WELL INFORMATION
#MNEM.UNIT      DATA             DESCRIPTION
#---- ------ --------------   -----------------------------
STRT .M      4280.0016       :START DEPTH     
STOP .M      3948.9888       :STOP DEPTH     
STEP .M        -0.1524       :STEP     
NULL .          -999.25      :NULL VALUE
COMP .        INPEX Browse, Ltd.                       :COMPANY
WELL .        ICHTHYS DEEP-1                           :WELL
FLD  .        WA-285-P                                 :FIELD
LOC  .        Datum: GDA94 Spheroid GRS80              :LOCATION
CNTY .        Ocean Bounty                             :COUNTY
STAT .        1:200                                    :STATE
CTRY .        Australia                                :COUNTRY
API  .                                                 :API NUMBER
UWI  .                                                 :UNIQUE WELL ID
DATE .        03-Nov-2003                              :LOG DATE {DD-MMM-YYYY}
SRVC .        Schlumberger                             :SERVICE COMPANY
LATI .DEG     13 51' 47.081" S                         :LATITUDE
LONG .DEG     123 13'  56.110" E                       :LONGITUDE
GDAT .                                                 :GeoDetic Datum
#-----------------------------------------------------------------------------
~PARAMETER INFORMATION
#MNEM.UNIT    VALUE                      DESCRIPTION
#---- -----   --------------------       ------------------------
RUN  .          Suite 2 Run 1            :RUN NUMBER
PDAT .        LAT                        :Permanent Datum
EPD  .M           0.000000               :Elevation of Permanent Datum above Mean Sea Level
EPD  .M           0.000000               :Elevation of tool zero above Mean Sea Level
LMF  .          Drill Floor              :Logging Measured From (Name of Logging Elevation Reference)
APD  .M          25.000000               :Elevation of Depth Reference (LMF) above Permanent Datum
#-----------------------------------------------------------------------------
~CURVE INFORMATION
#MNEM.UNIT   API CODE                                  DESCRIPTION
#---- -----  --------                                  -----------------------
DEPT .M                                                :DEPTH (BOREHOLE) {F10.4}
TENS .LBF                                              :Cable Tension {F13.4}
APLU .V/V                                              :APS Near/Array Uncorrected Limestone Porosity {F13.4}
RHOM .G/C3                                             :LDS Corrected Bulk Density {F13.4}
DRH  .G/C3                                             :LDS Bulk Density Correction {F13.4}
PEFL .                                                 :LDS Long-Spaced Corrected Photoelectric Effect {F13.4}
LCAL .IN                                               :LDS Caliper {F13.4}
HSGR .GAPI                                             :HNGS Standard Gamma Ray {F13.4}
CDF  .LBF                                              :Calibrated Downhole Force {F13.4}
APLC .V/V                                              :APS Near/Array Corrected Limestone Porosity {F13.4}
ATD2 .IN                                               :Array Induction Two Foot Outer Diameter of Invasion (D2) {F13.4}
ATD1 .IN                                               :Array Induction Two Foot Inner Diameter of Invasion(D1) {F13.4}
AOD2 .IN                                               :Array Induction One Foot Outer Diameter of Invasion (D2) {F13.4}
AOD1 .IN                                               :Array Induction One Foot Inner Diameter of Invasion (D1) {F13.4}
AT90 .OHMM                                             :Array Induction Two Foot Resistivity A90 {F13.4}
AT60 .OHMM                                             :Array Induction Two Foot Resistivity A60 {F13.4}
AT30 .OHMM                                             :Array Induction Two Foot Resistivity A30 {F13.4}
AT20 .OHMM                                             :Array Induction Two Foot Resistivity A20 {F13.4}
AT10 .OHMM                                             :Array Induction Two Foot Resistivity A10 {F13.4}
AO90 .OHMM                                             :Array Induction One Foot Resistivity A90 {F13.4}
AO60 .OHMM                                             :Array Induction One Foot Resistivity A60 {F13.4}
AO30 .OHMM                                             :Array Induction One Foot Resistivity A30 {F13.4}
AO20 .OHMM                                             :Array Induction One Foot Resistivity A20 {F13.4}
AO10 .OHMM                                             :Array Induction One Foot Resistivity A10 {F13.4}
SIGF .CU                                               :APS Formation Capture Cross-Section {F13.4}
ANEC .HZ                                               :APS Near Detector Count Rate {F13.4}
AFEC .HZ                                               :APS Far Detector Count Rate {F13.4}
A1EP .HZ                                               :APS Array-1 Detector Count Rate {F13.4}
A2EP .HZ                                               :APS Array-2 Detector Count Rate {F13.4}
AFTC .HZ                                               :APS Thermal Detector Count Rate {F13.4}
#-----------------------------------------------------------------------------
# 
#     DEPT        TENS         APLU         RHOM         DRH          PEFL         LCAL         HSGR         CDF          APLC         ATD2         ATD1         AOD2         AOD1         AT90         AT60         AT30         AT20         AT10         AO90         AO60         AO30         AO20         AO10         SIGF         ANEC         AFEC         A1EP         A2EP         AFTC
#
~A  
# ...
 4215.9936    5748.0000       0.0877       2.5590      -0.0082       2.7626       8.5811      84.0751    1333.1250       0.0822      15.5782      15.5540      53.1309      51.1018      15.9224      16.5431      15.2372      14.6399      16.7766      12.1454      12.4388      10.7078       9.8046      10.9058      12.8939    3442.0000    1773.0000    3022.0000    3063.0000    5845.3438
 4215.8412    5744.0000       0.0914       2.5496      -0.0080       2.6649       8.5772      66.4675    1334.5470       0.0859      11.0823      11.0581      40.9871      35.7673      15.0027      15.4599      15.2377      14.7772      15.8725      14.8646      14.9630      15.9087      20.2407      15.1044      12.7024    3464.0000    1603.0000    2936.0000    2836.8000    4426.2725
 4215.6888    5762.0000       0.0783       2.5257      -0.0097       2.5082       8.5741      43.1967    1334.5470       0.0726       9.3337       9.3140      31.6019      22.4169      27.6486      28.6556      27.8367      25.7050      26.4070      35.6127      35.8573      32.0857      34.7174      31.8718      11.6997    3499.0000    1894.0000    3378.0000    3231.0000    5773.6211
 4215.5364    5735.0000       0.0658       2.5029      -0.0118       2.3130       8.5822      30.4539    1341.6571       0.0595       8.9718       8.9578      38.3529      21.2369      38.5330      39.7329      41.4414      41.3161      42.0671      42.2274      42.6509      51.1122      57.6449      61.3893      11.2705    3590.0000    2096.0000    3447.0000    3359.0000    7679.3770
 4215.3840    5726.0000       0.0753       2.4932      -0.0116       2.4117       8.6114      26.7358    1342.7235       0.0683      11.8453      11.8019      52.3661      21.7563      39.3084      40.4406      39.7067      38.0767      39.4304      43.6466      43.6939      43.6809      39.5785      44.7238      11.6395    3438.0000    1875.0000    3289.0000    3203.0000    6877.6279
 4215.2316    5743.0000       0.0909       2.4888      -0.0067       2.6530       8.6211      31.3536    1341.3015       0.0831      31.1626      30.9870      65.0536      26.3538      27.7177      28.7605      27.5429      26.7505      29.4848      23.4076      23.9761      30.4654      25.5524      31.1044      11.6721    3413.0000    1717.0000    3016.0000    2931.0000    6337.1514
 4215.0792    5723.0000       0.0956       2.4827      -0.0087       2.5688       8.6362      37.0499    1337.0355       0.0864      73.7946      73.4408      59.1757      31.4922      22.5754      23.4125      21.4858      20.5401      22.6130      23.6133      24.2117      22.0109      19.9235      21.7855      11.3178    3396.0000    1701.0000    3004.0000    2943.0000    6068.1938
 4214.9268    5700.0000       0.0934       2.4816      -0.0084       2.5973       8.6547      37.9707    1319.6161       0.0824     106.8354     106.4821      36.2661      25.5518      24.7989      25.8347      21.2830      20.4704      22.4623      21.8729      22.1507      21.4380      23.6256      18.0967      10.8998    3481.0000    1692.0000    3078.0000    2997.0000    5338.1665
 4214.7744    5665.0000       0.0883       2.4869      -0.0085       2.3292       8.6544      31.6492    1318.1941       0.0772      87.8280      87.6414      16.8023      14.6929      30.9668      32.1957      28.6998      26.4511      29.1846      29.6761      30.2004      29.3623      29.5904      29.7283      10.0316    3402.0000    1779.0000    3085.0000    3037.0000    6706.0073
 4214.6220    5610.0000       0.0833       2.4831      -0.0099       2.3474       8.6553      25.8075    1323.8821       0.0739      44.1179      44.0702      13.3277      13.1909      38.8904      40.3772      38.7142      36.2955      40.1922      39.5846      40.2151      42.6652      40.6755      41.2186       9.6214    3501.0000    1890.0000    3234.0000    3198.0000    7302.8369
 4214.4696    5580.0000       0.0783       2.4948      -0.0127       2.5336       8.6537      21.8783    1323.8821       0.0704      15.9706      15.9643      16.0385      16.0373      45.8457      47.2289      45.8163      42.3704      47.9582      45.1333      45.7421      46.2903      46.2309      55.1082       9.4211    3625.0000    1935.0000    3251.0000    3253.0000    7079.9863
 4214.3172    5602.0000       0.0780       2.4968      -0.0124       2.5331       8.6567      21.8766    1321.3936       0.0702       9.2572       9.2571      17.6914      17.6899      44.9622      46.2364      45.9541      43.0012      48.7622      44.4450      45.0040      46.6122      42.8390      53.7770       9.3483    3553.0000    1934.0000    3276.0000    3289.0000    7494.9492
 4214.1648    5628.0000       0.0784       2.4925      -0.0142       2.5751       8.6601      20.5500    1322.4601       0.0709       8.6585       8.6585      16.9003      16.8987      40.9297      42.3628      42.2007      40.0200      46.0214      42.6080      43.3418      43.1247      38.4383      46.7479       9.7202    3631.0000    1978.0000    3309.0000    3237.0000    7446.2808
 4214.0124    5596.0000       0.0735       2.4868      -0.0161       2.3873       8.6587      21.3629    1324.2375       0.0661       8.6685       8.6685      13.7581      13.7571      37.5387      38.9330      38.6710      36.8045      42.7008      38.2788      38.4824      39.1451      35.8689      42.3313       9.9013    3483.0000    2011.0000    3266.0000    3232.0000    7382.2432
 4213.8600    5600.0000       0.0724       2.4822      -0.0170       2.4457       8.6577      21.2421    1322.4601       0.0649       8.9261       8.9260      10.8153      10.8149      36.4397      37.7450      36.7553      35.0061      40.4934      36.1298      36.2329      36.6943      33.4209      40.3215       9.7904    3520.0000    2048.8000    3394.0000    3279.0000    7538.4941
 4213.7076    5707.0000       0.0657       2.4897      -0.0142       2.4409       8.6567      21.1975    1322.4601       0.0579      10.6840      10.6838      11.3246      11.3243      34.9411      36.1850      34.7033      33.3686      39.6017      34.7803      34.5565      34.3688      32.2348      38.7252       9.7588    3459.0000    2063.0000    3382.0000    3263.0000    7351.5049
 4213.5552    5644.0000       0.0664       2.4767      -0.0165       2.5367       8.6537      22.6086    1318.5496       0.0592      15.1699      15.1691      14.2776      14.2772      34.0851      35.1889      34.0084      32.7799      39.2568      35.5473      36.4322      34.4771      32.1540      39.3203      10.1834    3580.0000    2018.0000    3430.0000    3232.0000    7374.5586
 4213.4028    5641.0000       0.0678       2.4717      -0.0178       2.4998       8.6587      23.9496    1320.3270       0.0608      19.7625      19.7609      17.6205      17.6200      33.2193      34.2446      33.3828      32.3377      39.2211      33.1571      34.2733      34.2091      31.2665      39.8334      10.2160    3411.0000    2043.0000    3394.0000    3233.0000    7266.9756
 4213.2504    5652.0000       0.0696       2.4668      -0.0154       2.3921       8.6533      26.8775    1317.8385       0.0625      20.5435      20.5414      19.1167      19.1162      31.2526      32.1088      31.5767      30.4226      37.4232      30.7552      30.7166      32.8728      29.6213      38.4772       9.8804    3485.0000    1980.0000    3205.0000    3297.0000    7371.9971
 4213.0980    5591.0000       0.0667       2.4757      -0.0142       2.2592       8.6581      29.5710    1317.8385       0.0600      19.9836      19.9811      16.2657      16.2645      29.6789      30.5071      29.1860      28.2177      35.8456      30.2535      31.0783      30.7116      27.4917      35.7961       9.9292    3478.0000    1968.0000    3309.0000    3267.0000    7354.0664
 4212.9456    5608.0000       0.0640       2.4834      -0.0143       2.2304       8.6567      29.4495    1312.5061       0.0574      21.7225      21.7181      12.6892      12.6846      28.1221      28.9335      27.5870      26.7907      33.7069      28.6895      28.9977      28.3717      26.5981      30.7430       9.7589    3483.0000    1961.0000    3395.0000    3349.0000    7341.2593
