~VERSION INFORMATION
VERS.           2.0   :CWLS Log ASCII Standard - VERSION 2.0
WRAP.           NO    :One Line per depth step
PROD.  Schlumberger   :LAS Producer
PROG.  DLIS to ASCII 11C0-305                          :LAS Program name and version
CREA.        2003/11/16 09:47                          :LAS Creation date {YYYY/MM/DD hh:mm}
SOURCE.     AIT_MainPB1_027PUP.DLIS                    :DLIS File Name
FILE-ID.     AIT_MainPB1_027PUP                        :File Identification Number
#--------------------------------------------------
~WELL INFORMATION
#MNEM.UNIT      DATA             DESCRIPTION
#---- ------ --------------   -----------------------------
STRT .M      4869.0276       :START DEPTH     
STOP .M      3996.2328       :STOP DEPTH     
STEP .M        -0.1524       :STEP     
NULL .          -999.25      :NULL VALUE
COMP .        INPEX Browse, Ltd.                       :COMPANY
WELL .        ICHTHYS DEEP-1                           :WELL
FLD  .        WA-285-P                                 :FIELD
LOC  .        Datum: GDA94 Spheroid GRS80              :LOCATION
CNTY .        Ocean Bounty                             :COUNTY
STAT .        1:200                                    :STATE
CTRY .        Australia                                :COUNTRY
API  .                                                 :API NUMBER
UWI  .                                                 :UNIQUE WELL ID
DATE .        16-Nov-2003                              :LOG DATE {DD-MMM-YYYY}
SRVC .        Schlumberger                             :SERVICE COMPANY
LATI .DEG     13 51' 47.081" S                         :LATITUDE
LONG .DEG     123 13'  56.110" E                       :LONGITUDE
GDAT .                                                 :GeoDetic Datum
#-----------------------------------------------------------------------------
~PARAMETER INFORMATION
#MNEM.UNIT    VALUE                      DESCRIPTION
#---- -----   --------------------       ------------------------
RUN  .          Suite 3 Run 1            :RUN NUMBER
PDAT .        LAT                        :Permanent Datum
EPD  .M           0.000000               :Elevation of Permanent Datum above Mean Sea Level
EPD  .M           0.000000               :Elevation of tool zero above Mean Sea Level
LMF  .          Drill Floor              :Logging Measured From (Name of Logging Elevation Reference)
APD  .M          25.000000               :Elevation of Depth Reference (LMF) above Permanent Datum
#-----------------------------------------------------------------------------
~CURVE INFORMATION
#MNEM.UNIT   API CODE                                  DESCRIPTION
#---- -----  --------                                  -----------------------
DEPT .M                                                :DEPTH (BOREHOLE) {F10.4}
TENS .LBF                                              :Cable Tension {F13.4}
APLU .V/V                                              :APS Near/Array Uncorrected Limestone Porosity {F13.4}
RHOM .G/C3                                             :LDS Corrected Bulk Density {F13.4}
DRH  .G/C3                                             :LDS Bulk Density Correction {F13.4}
PEFL .                                                 :LDS Long-Spaced Corrected Photoelectric Effect {F13.4}
LCAL .IN                                               :LDS Caliper {F13.4}
HSGR .GAPI                                             :HNGS Standard Gamma Ray {F13.4}
CDF  .N                                                :Calibrated Downhole Force {F13.4}
APLC .V/V                                              :APS Near/Array Corrected Limestone Porosity {F13.4}
ATD2 .IN                                               :Array Induction Two Foot Outer Diameter of Invasion (D2) {F13.4}
ATD1 .IN                                               :Array Induction Two Foot Inner Diameter of Invasion(D1) {F13.4}
AOD2 .IN                                               :Array Induction One Foot Outer Diameter of Invasion (D2) {F13.4}
AOD1 .IN                                               :Array Induction One Foot Inner Diameter of Invasion (D1) {F13.4}
AT90 .OHMM                                             :Array Induction Two Foot Resistivity A90 {F13.4}
AT60 .OHMM                                             :Array Induction Two Foot Resistivity A60 {F13.4}
AT30 .OHMM                                             :Array Induction Two Foot Resistivity A30 {F13.4}
AT20 .OHMM                                             :Array Induction Two Foot Resistivity A20 {F13.4}
AT10 .OHMM                                             :Array Induction Two Foot Resistivity A10 {F13.4}
AO90 .OHMM                                             :Array Induction One Foot Resistivity A90 {F13.4}
AO60 .OHMM                                             :Array Induction One Foot Resistivity A60 {F13.4}
AO30 .OHMM                                             :Array Induction One Foot Resistivity A30 {F13.4}
AO20 .OHMM                                             :Array Induction One Foot Resistivity A20 {F13.4}
AO10 .OHMM                                             :Array Induction One Foot Resistivity A10 {F13.4}
SIGF .CU                                               :APS Formation Capture Cross-Section {F13.4}
ANEC .HZ                                               :APS Near Detector Count Rate {F13.4}
AFEC .HZ                                               :APS Far Detector Count Rate {F13.4}
A1EP .HZ                                               :APS Array-1 Detector Count Rate {F13.4}
A2EP .HZ                                               :APS Array-2 Detector Count Rate {F13.4}
AFTC .HZ                                               :APS Thermal Detector Count Rate {F13.4}
#-----------------------------------------------------------------------------
# 
#     DEPT        TENS         APLU         RHOM         DRH          PEFL         LCAL         HSGR         CDF          APLC         ATD2         ATD1         AOD2         AOD1         AT90         AT60         AT30         AT20         AT10         AO90         AO60         AO30         AO20         AO10         SIGF         ANEC         AFEC         A1EP         A2EP         AFTC
#
~A  
 4869.0276    5099.0000       0.2203       2.6640      -0.0250       8.9860       2.3126      84.5947    1987.7480       0.1295      71.7483      70.1343      60.1085      59.8591      17.8811      12.1100      39.2611    1950.0000    1950.0000      20.8853      12.1388      37.7230    1950.0000    1950.0000      30.8198    3260.0000     684.0000    2292.0000    2144.0000    2418.0562
 4868.8752    5174.0000       0.2203       2.6640      -0.0250       8.9860       2.3126      84.5947    2115.8367       0.1295      74.0904      72.5713      61.9753      61.3043      17.8810      12.1111      39.2547    1950.0000    1950.0000      20.8833      12.1398      37.7287    1950.0000    1950.0000      30.8198    3260.0000     684.0000    2292.0000    2144.0000    2418.0562
 4868.7228    5206.0000       0.2203       2.6640      -0.0250       8.9860       2.3126      84.5947    2250.2510       0.1295      75.4890      74.3002      65.1695      63.7542      17.8801      12.1118      39.2458    1950.0000    1950.0000      20.8735      12.1379      37.7302    1950.0000    1950.0000      30.8198    3260.0000     684.0000    2292.0000    2144.0000    2418.0562
 4868.5704    5295.0000       0.2203       2.6640      -0.0250       8.9860       2.3126      84.5947    2357.7822       0.1295      74.6950      73.7926      67.5828      65.9935      17.8787      12.1123      39.2357    1950.0000    1950.0000      20.8581      12.1341      37.7219    1950.0000    1950.0000      30.8198    3260.0000     684.0000    2292.0000    2144.0000    2418.0562
 4868.4180    5311.0000       0.2203       2.6640      -0.0250       8.9860       2.3126      84.5947    2496.9404       0.1295      73.6862      73.0091      67.1855      66.0841      17.8773      12.1128      39.2260    1950.0000    1950.0000      20.8439      12.1310      37.7038    1950.0000    1950.0000      30.8198    3260.0000     684.0000    2292.0000    2144.0000    2418.0562
 4868.2656    5325.0000       0.2203       2.6640      -0.0250       8.9860       2.3126      84.5947    2639.2612       0.1295      72.9029      72.2877      65.4895      65.0432      17.8763      12.1136      39.2170    1950.0000    1950.0000      20.8391      12.1311      37.6870    1950.0000    1950.0000      30.8198    3260.0000     684.0000    2292.0000    2144.0000    2418.0562
 4868.1132    5351.0000       0.2203       2.6640      -0.0250       8.9860       2.3126      84.5947    2798.9771       0.1295      71.5049      70.9533      63.7003      63.5739      17.8762      12.1147      39.2081    1950.0000    1950.0000      20.8483      12.1359      37.6810    1950.0000    1950.0000      30.8198    3260.0000     684.0000    2292.0000    2144.0000    2418.0562
 4867.9608    5302.0000       0.2203       2.6640      -0.0250       8.9860       2.3126      84.5947    2991.9006       0.1295      71.0163      70.5153      63.7583      63.7056      17.8769      12.1162      39.1984    1950.0000    1950.0000      20.8653      12.1427      37.6801    1950.0000    1950.0000      30.8198    3260.0000     684.0000    2292.0000    2144.0000    2418.0562
 4867.8084    5330.0000       0.2203       2.6640      -0.0250       8.9860       2.3126      84.5947    3135.8030       0.1295      72.2470      71.6962      65.1995      65.1344      17.8781      12.1180      39.1879    1950.0000    1950.0000      20.8765      12.1470      37.6722    1950.0000    1950.0000      30.8198    3260.0000     684.0000    2292.0000    2144.0000    2418.0562
 4867.6560    5351.0000       0.2203       2.6640      -0.0250       8.9860       2.3126      84.5947    3281.2864       0.1295      73.4368      72.8370      64.4105      64.3409      17.8792      12.1195      39.1772    1950.0000    1950.0000      20.8749      12.1468      37.6565    1950.0000    1950.0000      30.8198    3260.0000     684.0000    2292.0000    2144.0000    2418.0562
 4867.5036    5444.0000       0.2203       2.6640      -0.0250       8.9860       2.3126      84.5947    3418.8630       0.1295      73.8920      72.9318      63.3507      63.2624      17.8791      12.1204      39.1660    1950.0000    1950.0000      20.8653      12.1444      37.6417    1950.0000    1950.0000      30.8198    3260.0000     684.0000    2292.0000    2144.0000    2418.0562
 4867.3512    5428.0000       0.2203       2.6640      -0.0250       8.9860       2.3126      84.5947    3558.0212       0.1295      74.7480      72.9551      64.7168      64.4249      17.8766      12.1200      39.1528    1950.0000    1950.0000      20.8545      12.1422      37.6335    1950.0000    1950.0000      30.8198    3260.0000     684.0000    2292.0000    2144.0000    2418.0562
 4867.1988    5488.0000       0.2203       2.6640      -0.0250       8.9860       2.3126      84.5947    3692.4355       0.1295      74.5418      72.6823      67.1483      66.2744      17.8713      12.1181      39.1364    1950.0000    1950.0000      20.8466      12.1412      37.6294    1950.0000    1950.0000      30.8198    3260.0000     684.0000    2292.0000    2144.0000    2418.0562
 4867.0464    5553.0000       0.2203       2.6640      -0.0250       8.9860       2.3126      84.5947    3785.7346       0.1295      73.1020      71.6337      67.7712      66.2720      17.8636      12.1147      39.1165    1950.0000    1950.0000      20.8414      12.1409      37.6218    1950.0000    1950.0000      30.8198    3260.0000     684.0000    2292.0000    2144.0000    2418.0562
 4866.8940    5534.0000       0.2203       2.6640      -0.0250       8.9860       2.3126      84.5947    3894.8474       0.1295      73.0856      71.8025      66.3932      64.9764      17.8539      12.1102      39.0958    1950.0000    1950.0000      20.8306      12.1380      37.6023    1950.0000    1950.0000      30.8198    3260.0000     684.0000    2292.0000    2144.0000    2418.0562
 4866.7416    5576.0000       0.2203       2.6640      -0.0250       8.9860       2.3126      84.5947    4051.4004       0.1295      74.9698      73.0035      63.9243      63.1773      17.8438      12.1054      39.0831    1950.0000    1950.0000      20.7982      12.1264      37.5680    1950.0000    1950.0000      30.8198    3260.0000     684.0000    2292.0000    2144.0000    2418.0562
 4866.5892    5622.0000       0.2203       2.6640      -0.0250       8.9860       2.3126      84.5947    4190.5586       0.1295      76.4393      73.8172      63.3329      63.0793      17.8358      12.1020      39.0913    1950.0000    1950.0000      20.7362      12.1034      37.5309    1950.0000    1950.0000      30.8198    3260.0000     684.0000    2292.0000    2144.0000    2418.0562
 4866.4368    5692.0000       0.2203       2.6640      -0.0250       8.9860       2.3126      84.5947    4317.0659       0.1295      76.5567      74.1733      64.9936      64.8296      17.8332      12.1017      39.1303    1950.0000    1950.0000      20.6784      12.0826      37.5394    1950.0000    1950.0000      30.8198    3260.0000     684.0000    2292.0000    2144.0000    2418.0562
 4866.2844    5690.0000       0.2203       2.6640      -0.0250       8.9860       2.3126      84.5947    4468.8745       0.1295      75.3959      73.9488      66.8681      66.6533      17.8372      12.1055      39.1976    1950.0000    1950.0000      20.6778      12.0869      37.6165    1950.0000    1950.0000      30.8198    3260.0000     684.0000    2292.0000    2144.0000    2418.0562
 4866.1320    5744.0000       0.2203       2.6640      -0.0250       8.9860       2.3126      84.5947    4671.2871       0.1295      73.5711      72.6460      67.6792      67.4484      17.8456      12.1125      39.2808    1950.0000    1950.0000      20.7263      12.1142      37.6875    1950.0000    1950.0000      30.8198    3260.0000     684.0000    2292.0000    2144.0000    2418.0562
 4865.9796    5841.0000       0.2203       2.6640      -0.0250       8.9860       2.3126      84.5947    4824.6768       0.1295      72.1356      71.2143      67.7519      67.4904      17.8547      12.1211      39.3675    1950.0000    1950.0000      20.7548      12.1346      37.6744    1950.0000    1950.0000      30.8198    3260.0000     684.0000    2292.0000    2144.0000    2418.0562
