~VERSION INFORMATION
VERS.           2.0   :CWLS Log ASCII Standard - VERSION 2.0
WRAP.           NO    :One Line per depth step
PROD.  Schlumberger   :LAS Producer
PROG.  DLIS to ASCII 11C0-305                          :LAS Program name and version
CREA.        2003/11/16 09:47                          :LAS Creation date {YYYY/MM/DD hh:mm}
SOURCE.     AIT_MainPB1_027PUP.DLIS                    :DLIS File Name
FILE-ID.     AIT_MainPB1_027PUP                        :File Identification Number
#--------------------------------------------------
~WELL INFORMATION
#MNEM.UNIT      DATA             DESCRIPTION
#---- ------ --------------   -----------------------------
STRT .M      4869.0276       :START DEPTH     
STOP .M      3996.2328       :STOP DEPTH     
STEP .M        -0.1524       :STEP     
NULL .          -999.25      :NULL VALUE
COMP .        INPEX Browse, Ltd.                       :COMPANY
WELL .        ICHTHYS DEEP-1                           :WELL
FLD  .        WA-285-P                                 :FIELD
LOC  .        Datum: GDA94 Spheroid GRS80              :LOCATION
CNTY .        Ocean Bounty                             :COUNTY
STAT .        1:200                                    :STATE
CTRY .        Australia                                :COUNTRY
API  .                                                 :API NUMBER
UWI  .                                                 :UNIQUE WELL ID
DATE .        16-Nov-2003                              :LOG DATE {DD-MMM-YYYY}
SRVC .        Schlumberger                             :SERVICE COMPANY
LATI .DEG     13 51' 47.081" S                         :LATITUDE
LONG .DEG     123 13'  56.110" E                       :LONGITUDE
GDAT .                                                 :GeoDetic Datum
#-----------------------------------------------------------------------------
~PARAMETER INFORMATION
#MNEM.UNIT    VALUE                      DESCRIPTION
#---- -----   --------------------       ------------------------
RUN  .          Suite 3 Run 1            :RUN NUMBER
PDAT .        LAT                        :Permanent Datum
EPD  .M           0.000000               :Elevation of Permanent Datum above Mean Sea Level
EPD  .M           0.000000               :Elevation of tool zero above Mean Sea Level
LMF  .          Drill Floor              :Logging Measured From (Name of Logging Elevation Reference)
APD  .M          25.000000               :Elevation of Depth Reference (LMF) above Permanent Datum
#-----------------------------------------------------------------------------
~CURVE INFORMATION
#MNEM.UNIT   API CODE                                  DESCRIPTION
#---- -----  --------                                  -----------------------
DEPT .M                                                :DEPTH (BOREHOLE) {F10.4}
TENS .LBF                                              :Cable Tension {F13.4}
APLU .V/V                                              :APS Near/Array Uncorrected Limestone Porosity {F13.4}
RHOM .G/C3                                             :LDS Corrected Bulk Density {F13.4}
DRH  .G/C3                                             :LDS Bulk Density Correction {F13.4}
PEFL .                                                 :LDS Long-Spaced Corrected Photoelectric Effect {F13.4}
LCAL .IN                                               :LDS Caliper {F13.4}
HSGR .GAPI                                             :HNGS Standard Gamma Ray {F13.4}
CDF  .N                                                :Calibrated Downhole Force {F13.4}
APLC .V/V                                              :APS Near/Array Corrected Limestone Porosity {F13.4}
ATD2 .IN                                               :Array Induction Two Foot Outer Diameter of Invasion (D2) {F13.4}
ATD1 .IN                                               :Array Induction Two Foot Inner Diameter of Invasion(D1) {F13.4}
AOD2 .IN                                               :Array Induction One Foot Outer Diameter of Invasion (D2) {F13.4}
AOD1 .IN                                               :Array Induction One Foot Inner Diameter of Invasion (D1) {F13.4}
AT90 .OHMM                                             :Array Induction Two Foot Resistivity A90 {F13.4}
AT60 .OHMM                                             :Array Induction Two Foot Resistivity A60 {F13.4}
AT30 .OHMM                                             :Array Induction Two Foot Resistivity A30 {F13.4}
AT20 .OHMM                                             :Array Induction Two Foot Resistivity A20 {F13.4}
AT10 .OHMM                                             :Array Induction Two Foot Resistivity A10 {F13.4}
AO90 .OHMM                                             :Array Induction One Foot Resistivity A90 {F13.4}
AO60 .OHMM                                             :Array Induction One Foot Resistivity A60 {F13.4}
AO30 .OHMM                                             :Array Induction One Foot Resistivity A30 {F13.4}
AO20 .OHMM                                             :Array Induction One Foot Resistivity A20 {F13.4}
AO10 .OHMM                                             :Array Induction One Foot Resistivity A10 {F13.4}
SIGF .CU                                               :APS Formation Capture Cross-Section {F13.4}
ANEC .HZ                                               :APS Near Detector Count Rate {F13.4}
AFEC .HZ                                               :APS Far Detector Count Rate {F13.4}
A1EP .HZ                                               :APS Array-1 Detector Count Rate {F13.4}
A2EP .HZ                                               :APS Array-2 Detector Count Rate {F13.4}
AFTC .HZ                                               :APS Thermal Detector Count Rate {F13.4}
#-----------------------------------------------------------------------------
# 
#     DEPT        TENS         APLU         RHOM         DRH          PEFL         LCAL         HSGR         CDF          APLC         ATD2         ATD1         AOD2         AOD1         AT90         AT60         AT30         AT20         AT10         AO90         AO60         AO30         AO20         AO10         SIGF         ANEC         AFEC         A1EP         A2EP         AFTC
#
~A  
# ...
 4753.8132    5995.0000       0.1509       2.3154       0.0482       3.8407      10.1696      30.3411    5969.5693       0.0824      17.2432      17.1875      21.7854      21.7842    1662.7662    1950.0000    1151.1846     394.7719    1950.0000    1328.8667    1209.7960    1473.1913     371.6192    1950.0000      10.3180    3063.0000    1211.0000    2248.0000    2166.0000    4200.8604
 4753.6608    5952.0000       0.1363       2.3417       0.0639       3.6963      10.2169      20.8234    5967.9883       0.0524      19.4248      19.2528      21.1344      21.1324    1690.0225    1950.0000    1364.6801     403.4866    1950.0000    1468.4073     845.0219    1701.9396     370.8660    1950.0000       5.6095    3223.0000    1495.0000    2694.0000    2586.0000    5294.6206
 4753.5084    5952.0000       0.1113       2.3865       0.0798       3.8829      10.2580      18.5957    6096.0767       0.0276      21.8785      21.3616      20.9749      20.9723    1867.8197    1950.0000    1449.5660     396.1367    1950.0000    1615.5743    1492.0989    1818.9277     360.4848    1950.0000       1.4555    3171.0000    1674.0000    2664.0000    2481.0000    5699.3379
 4753.3560    5948.0000       0.1173       2.3948       0.0644       4.0272      10.4844      17.5961    6178.3066       0.0328      22.5907      21.5231      20.2971      20.2942    1908.1617    1950.0000    1403.5575     379.1772    1950.0000    1335.6071    1506.5344    1628.4398     324.8320    1950.0000       2.7224    3075.0000    1502.0000    2702.0000    2561.0000    5302.3052
 4753.2036    5963.0000       0.1150       2.4027       0.0923       3.4626      10.8710      16.5376    6243.1416       0.0298      20.6423      19.2494      18.9724      18.9694    1870.9373    1950.0000    1228.4966     340.2034    1950.0000    1021.0621    1473.2781    1327.6376     280.8141    1950.0000       1.0461    3017.0000    1697.0000    2546.0000    2513.0000    5399.6426
 4753.0512    5984.0000       0.1326       2.3693       0.1114       3.6992      10.8849      18.1829    6160.9116       0.0466      17.2473      16.0623      18.5831      18.5802    1799.3245    1950.0000    1094.6992     312.6069    1950.0000     629.9756    1086.2611    1120.6189     262.1732    1950.0000       1.8605    3064.0000    1642.0000    2542.0000    2472.0000    5432.9419
 4752.8988    6034.0000       0.1518       2.2778       0.1000       4.2652      10.8789      22.9092    6149.8423       0.0651      15.8956      14.7608      19.3121      19.1661    1672.4310    1950.0000    1072.3071     313.2378    1950.0000     749.5957    1283.3206    1161.2441     250.1953    1950.0000       6.0522    3017.0000    1567.0000    2348.0000    2243.0000    5220.3369
 4752.7464    5988.0000       0.1674       2.2326       0.0879       5.3218      11.1670      25.1675    6051.7988       0.0801      18.3140      17.0434      21.2581      20.0019    1542.4443    1950.0000    1147.6602     330.9598    1950.0000     626.5531     998.3355    1220.0101     275.9189    1950.0000       7.8467    3089.0000    1338.0000    2275.0000    2176.0000    4293.0742
 4752.5940    5985.0000       0.1581       2.2585       0.0870       4.7581      11.1268      23.9069    5914.2222       0.0708      20.6534      19.7449      25.9200      20.6231    1400.5901    1950.0000    1245.6901     358.2485    1950.0000     492.5774     764.7332    1474.5031     314.6547    1950.0000       7.7994    3034.6667    1119.0000    2358.6667    2304.0000    4125.7227
 4752.4416    5963.0000       0.1331       2.3028       0.0699       4.4006      11.1199      19.0154    5915.8037       0.0611      20.7883      20.4399      31.0774      20.4154    1222.4403    1950.0000    1393.6957     408.6170    1950.0000     457.6929     734.4725    1783.9003     382.4536    1950.0000       8.1581    3079.0000    1453.0000    2518.0000    2443.0000    4920.6416
 4752.2892    5973.0000       0.1052       2.3121       0.0352       4.4696      10.6937      15.0059    5895.2461       0.0457      20.4813      20.3890      32.2626      20.5004    1073.9296    1887.1846    1627.5891     475.5900    1950.0000     521.5196     734.1414    1908.7274     452.5661    1950.0000       7.1687    3207.0000    1612.0000    2750.0000    2661.0000    5566.1392
 4752.1368    5994.0000       0.0780       2.3396       0.0588       4.2505      10.5546      12.7650    5888.9209       0.0293      21.3074      21.2827      30.3285      20.1366     952.6225    1653.8685    1642.2236     535.2850    1950.0000     697.9460     952.5580    1919.0500     489.2987    1950.0000       6.6540    3261.0000    2016.0000    3024.0000    2951.0000    6716.2529
 4751.9844    6044.0000       0.0570       2.3588       0.0637       4.0735      10.2589      11.3595    5896.8276       0.0180      23.8688      23.8445      40.4339      26.5643     665.0698    1163.7063    1396.9712     618.4866    1950.0000     447.0271     625.8358    1950.0000     467.8256    1950.0000       5.4538    3400.0000    2339.0000    3320.0000    3202.0000    6841.7666
 4751.8320    6087.0000       0.0449       2.4090       0.0798       3.7147       9.8841      11.3640    5899.9902       0.0209      28.9147      28.8552      61.7757      41.4333     481.3144     707.4269     944.9601     659.3918    1868.4691     331.2263     381.4884    1570.9513     420.6639    1950.0000       6.3318    3326.0000    2734.0000    3627.0000    3553.0000    8153.2544
 4751.6796    6135.0000       0.0305       2.4631       0.0716       3.3908       9.5380      11.8016    5920.5479       0.0154      35.1122      34.6686      80.4859      53.9582     392.9754     452.8175     594.3214     764.6130    1386.0258     169.8936     187.6911     933.8170     436.3266    1950.0000       6.1037    3525.0000    2646.6667    3789.0000    3750.0000    7794.6445
 4751.5272    6211.0000       0.0219       2.5263       0.0735       3.0104       9.1564      10.9716    5904.7339       0.0119      43.8486      39.3653      86.3723      50.7437     346.3513     541.8668     368.3395     806.8316    1938.3838     195.7915     220.3737    1191.8977     362.7990    1950.0000       6.2838    3752.0000    3173.0000    4160.0000    4145.0000    8581.0254
 4751.3748    6153.0000       0.0176       2.5397       0.0424       2.7347       9.0445      11.3540    5925.2920       0.0101      60.3827      41.4279      71.7649      36.3004     187.7650     254.2677     192.8914     444.3799     349.1124     317.8206     321.0082    1950.0000     228.9881    1950.0000       6.2305    3638.0000    3433.0000    4196.0000    4078.0000    9321.2988
 4751.2224    6106.0000       0.0226       2.5644       0.0611       2.8535       9.0653      12.0355    5937.9424       0.0160      78.0566      33.7412      46.2854      25.0978      98.2922     119.4904     146.1979     168.6440     142.7529     112.3580     113.2818     167.0852     131.8532     735.1000       7.2783    3503.0000    3382.0000    4201.0000    4140.0000    8965.2500
 4751.0700    6119.0000       0.0236       2.5473       0.0499       2.9455       9.0151      14.2235    6007.5215       0.0166      78.7840      22.0792      29.8147      22.3483      46.2993      49.9037      63.2366      64.4220      90.5549      56.4515      55.4370      66.5340      44.4641     109.0119       7.3070    3522.0000    3307.0000    4026.0000    3860.0000    8683.4844
 4750.9176    6153.0000       0.0281       2.5227       0.0318       3.1435       8.9541      14.7176    6017.0093       0.0208      50.9698      16.3091      30.1572      28.0580      32.5634      33.9008      33.8172      35.6867      53.7617      32.6981      31.8120      36.7348      28.3066      52.9357       7.4982    3672.0000    3126.0000    3919.0000    3985.0000    7950.8960
 4750.7652    6104.0000       0.0300       2.5189       0.0189       2.8922       8.8663      13.8889    5986.9644       0.0251      28.7487      14.7911      37.5483      33.9699      26.1793      26.8232      22.5192      23.4636      33.0874      17.3542      16.9242      18.6288      26.8707      23.3416       7.4985    3558.0000    2951.0000    3979.0000    3934.0000    7938.0889
