~VERSION INFORMATION
VERS.           2.0   :CWLS Log ASCII Standard - VERSION 2.0
WRAP.           NO    :One Line per depth step
PROD.  Schlumberger   :LAS Producer
PROG.  DLIS to ASCII 11C0-305                          :LAS Program name and version
CREA.        2003/11/03 06:15                          :LAS Creation date {YYYY/MM/DD hh:mm}
SOURCE.     AIT_mainPB1_064PUP.DLIS                    :DLIS File Name
FILE-ID.     AIT_mainPB1_064PUP                        :File Identification Number
#--------------------------------------------------
~WELL INFORMATION
#MNEM.UNIT      DATA             DESCRIPTION
#---- ------ --------------   -----------------------------
STRT .M      4280.0016       :START DEPTH     
STOP .M      3948.9888       :STOP DEPTH     
STEP .M        -0.1524       :STEP     
NULL .          -999.25      :NULL VALUE
COMP .        INPEX Browse, Ltd.                       :COMPANY
WELL .        ICHTHYS DEEP-1                           :WELL
FLD  .        WA-285-P                                 :FIELD
LOC  .        Datum: GDA94 Spheroid GRS80              :LOCATION
CNTY .        Ocean Bounty                             :COUNTY
STAT .        1:200                                    :STATE
CTRY .        Australia                                :COUNTRY
API  .                                                 :API NUMBER
UWI  .                                                 :UNIQUE WELL ID
DATE .        03-Nov-2003                              :LOG DATE {DD-MMM-YYYY}
SRVC .        Schlumberger                             :SERVICE COMPANY
LATI .DEG     13 51' 47.081" S                         :LATITUDE
LONG .DEG     123 13'  56.110" E                       :LONGITUDE
GDAT .                                                 :GeoDetic Datum
#-----------------------------------------------------------------------------
~PARAMETER INFORMATION
#MNEM.UNIT    VALUE                      DESCRIPTION
#---- -----   --------------------       ------------------------
RUN  .          Suite 2 Run 1            :RUN NUMBER
PDAT .        LAT                        :Permanent Datum
EPD  .M           0.000000               :Elevation of Permanent Datum above Mean Sea Level
EPD  .M           0.000000               :Elevation of tool zero above Mean Sea Level
LMF  .          Drill Floor              :Logging Measured From (Name of Logging Elevation Reference)
APD  .M          25.000000               :Elevation of Depth Reference (LMF) above Permanent Datum
#-----------------------------------------------------------------------------
~CURVE INFORMATION
#MNEM.UNIT   API CODE                                  DESCRIPTION
#---- -----  --------                                  -----------------------
DEPT .M                                                :DEPTH (BOREHOLE) {F10.4}
TENS .LBF                                              :Cable Tension {F13.4}
APLU .V/V                                              :APS Near/Array Uncorrected Limestone Porosity {F13.4}
RHOM .G/C3                                             :LDS Corrected Bulk Density {F13.4}
DRH  .G/C3                                             :LDS Bulk Density Correction {F13.4}
PEFL .                                                 :LDS Long-Spaced Corrected Photoelectric Effect {F13.4}
LCAL .IN                                               :LDS Caliper {F13.4}
HSGR .GAPI                                             :HNGS Standard Gamma Ray {F13.4}
CDF  .LBF                                              :Calibrated Downhole Force {F13.4}
APLC .V/V                                              :APS Near/Array Corrected Limestone Porosity {F13.4}
ATD2 .IN                                               :Array Induction Two Foot Outer Diameter of Invasion (D2) {F13.4}
ATD1 .IN                                               :Array Induction Two Foot Inner Diameter of Invasion(D1) {F13.4}
AOD2 .IN                                               :Array Induction One Foot Outer Diameter of Invasion (D2) {F13.4}
AOD1 .IN                                               :Array Induction One Foot Inner Diameter of Invasion (D1) {F13.4}
AT90 .OHMM                                             :Array Induction Two Foot Resistivity A90 {F13.4}
AT60 .OHMM                                             :Array Induction Two Foot Resistivity A60 {F13.4}
AT30 .OHMM                                             :Array Induction Two Foot Resistivity A30 {F13.4}
AT20 .OHMM                                             :Array Induction Two Foot Resistivity A20 {F13.4}
AT10 .OHMM                                             :Array Induction Two Foot Resistivity A10 {F13.4}
AO90 .OHMM                                             :Array Induction One Foot Resistivity A90 {F13.4}
AO60 .OHMM                                             :Array Induction One Foot Resistivity A60 {F13.4}
AO30 .OHMM                                             :Array Induction One Foot Resistivity A30 {F13.4}
AO20 .OHMM                                             :Array Induction One Foot Resistivity A20 {F13.4}
AO10 .OHMM                                             :Array Induction One Foot Resistivity A10 {F13.4}
SIGF .CU                                               :APS Formation Capture Cross-Section {F13.4}
ANEC .HZ                                               :APS Near Detector Count Rate {F13.4}
AFEC .HZ                                               :APS Far Detector Count Rate {F13.4}
A1EP .HZ                                               :APS Array-1 Detector Count Rate {F13.4}
A2EP .HZ                                               :APS Array-2 Detector Count Rate {F13.4}
AFTC .HZ                                               :APS Thermal Detector Count Rate {F13.4}
#-----------------------------------------------------------------------------
# 
#     DEPT        TENS         APLU         RHOM         DRH          PEFL         LCAL         HSGR         CDF          APLC         ATD2         ATD1         AOD2         AOD1         AT90         AT60         AT30         AT20         AT10         AO90         AO60         AO30         AO20         AO10         SIGF         ANEC         AFEC         A1EP         A2EP         AFTC
#
~A  
# ...
 4235.1960    5736.0000       0.0716       2.4767      -0.0098       2.1876       8.6103      21.6586    1307.1736       0.0639      26.3366      17.4157      27.2485      15.9300      29.0301      30.2979      31.5241      32.9182      54.7236      28.6045      30.0068      31.8450      32.6499      55.2653       9.5082    3458.0000    1961.0000    3389.0000    3208.0000    7474.4570
 4235.0436    5713.0000       0.0686       2.4847      -0.0086       2.1878       8.6047      22.0844    1310.0176       0.0607      26.0551      15.9589      28.6597      13.4356      29.4582      30.7945      31.8039      33.3426      56.3892      30.3870      32.0877      32.6494      33.2119      57.3878       9.2394    3521.0000    1966.0000    3370.0000    3260.0000    7515.4414
 4234.8912    5738.0000       0.0674       2.4794      -0.0069       2.4014       8.5929      21.6983    1319.2605       0.0589      26.4359      14.2777      31.4942      11.2337      29.5957      30.9664      32.1709      33.4286      57.1439      29.2435      29.6331      32.1234      33.2340      57.1973       9.2812    3493.0000    2024.0000    3320.0000    3270.0000    7638.3931
 4234.7388    5727.0000       0.0696       2.4712      -0.0041       2.6381       8.5781      22.4078    1319.2605       0.0605      28.1014      12.0662      34.2739       9.6915      29.6793      31.0855      32.2784      33.8505      57.8075      28.2378      28.3541      32.0502      33.7485      57.3469       9.1450    3485.0000    1950.0000    3302.0000    3290.0000    7840.7515
 4234.5864    5745.0000       0.0671       2.4606      -0.0055       2.6770       8.5677      21.1744    1325.6595       0.0582      30.3361      10.1364      34.2867      10.3746      29.1960      30.5907      32.4284      34.0850      58.4523      28.6999      29.6362      33.2542      34.2137      60.0533       9.1577    3454.0000    2133.6001    3315.0000    3243.0000    7633.2700
 4234.4340    5729.0000       0.0703       2.4680      -0.0056       2.4830       8.5663      22.3464    1319.9716       0.0614      31.3274       9.5722      31.6672      12.5408      29.0324      30.4085      32.8992      34.5528      59.0468      29.6617      30.6306      33.4341      33.4589      60.6972       9.2221    3505.0000    2060.0000    3351.0000    3331.0000    7441.1577
 4234.2816    5687.0000       0.0702       2.4769      -0.0063       2.2918       8.5643      21.6600    1310.0176       0.0622      30.8973      10.3332      29.6271      13.5440      29.1119      30.5048      32.0053      33.7169      57.8521      29.6299      30.5139      32.6160      33.0617      58.6120       9.2206    3475.0000    2170.0000    3245.0000    3200.0000    7638.3936
 4234.1292    5689.0000       0.0686       2.4853      -0.0065       2.2746       8.5674      23.4802    1310.0176       0.0618      29.8664      11.8872      28.6385      14.0023      28.3824      29.7063      31.3491      33.0163      56.4237      28.0137      28.7619      31.4352      32.0338      55.5391       9.1662    3532.0000    2138.0000    3389.0000    3322.0000    8242.9072
 4233.9768    5692.0000       0.0638       2.4912      -0.0078       2.2843       8.5670      22.8787    1302.9076       0.0581      29.5856      12.2247      28.7665      15.8368      28.0437      29.3660      30.7066      32.2135      54.7220      27.8684      28.4173      30.4307      31.7941      53.0880       9.4471    3609.0000    2107.0000    3519.0000    3485.0000    8143.0088
 4233.8244    5710.0000       0.0623       2.4917      -0.0094       2.2901       8.5476      22.3743    1304.3296       0.0574      29.8923      11.8928      29.4184      17.6800      27.9569      29.1701      30.4899      32.2198      55.2137      26.6714      27.5607      30.1456      31.3667      52.9694       9.0480    3648.0000    2165.0000    3354.0000    3390.0000    7743.4150
 4233.6720    5615.0000       0.0626       2.4915      -0.0123       2.2771       8.5324      22.1023    1305.0405       0.0580      30.0534      13.2773      29.1326      18.7282      27.7622      28.9401      30.4830      32.4871      56.5568      30.4029      31.5464      33.4345      32.8707      57.8707       9.1508    3486.0000    2085.0000    3417.0000    3416.0000    7935.5273
 4233.5196    5677.0000       0.0613       2.4835      -0.0134       2.2753       8.5566      20.5141    1298.6416       0.0562      29.7881      16.2844      28.8662      19.9573      27.6180      28.7453      30.8942      32.6391      57.0597      27.9376      28.2277      30.7608      32.1521      56.3249       9.2275    3493.0000    2120.0000    3444.0000    3482.0000    8199.3613
 4233.3672    5608.0000       0.0594       2.4855      -0.0156       2.3392       8.5727      20.4564    1300.7745       0.0542      28.7937      20.4336      29.9785      21.2530      28.7144      29.8877      31.3331      33.1614      58.1431      27.9036      28.5506      30.4235      32.7958      58.0241       9.1176    3477.0000    2174.0000    3413.0000    3314.0000    8322.3135
 4233.2148    5615.0000       0.0645       2.4871      -0.0154       2.1646       8.5767      19.8922    1293.3091       0.0591      27.8643      22.8409      31.9348      21.8228      29.3674      30.5434      31.3804      33.5515      59.3456      29.2024      29.8303      33.4663      32.5222      60.0205       9.0895    3522.0000    2090.0000    3416.0000    3463.0000    8069.7500
 4233.0624    5583.0000       0.0640       2.4937      -0.0142       2.1421       8.5761      20.4437    1287.2655       0.0581      28.3881      20.5796      32.1096      20.8523      29.2754      30.3922      31.5375      33.5480      59.8731      24.5235      25.1312      28.8304      35.3656      58.7839       9.1970    3582.3999    2138.0000    3470.3999    3249.6001    8191.6772
 4232.9100    5651.0000       0.0668       2.5015      -0.0064       2.1151       8.5795      20.1394    1294.3755       0.0604      30.9779      15.0418      31.2974      17.8653      29.4673      30.5366      33.0358      35.1073      61.9465      30.1326      30.8030      34.4830      32.6962      63.2042       9.0886    3600.0000    2119.0000    3462.0000    3406.0000    7997.0034
 4232.7576    5552.0000       0.0667       2.4936      -0.0074       2.1642       8.5744      20.8253    1292.5980       0.0606      33.5150      10.4852      32.3501      14.6990      29.7682      30.8243      33.3240      35.5455      62.9800      28.8816      29.2729      32.7618      35.4365      63.6727       9.2410    3584.0000    2151.0000    3440.0000    3365.0000    7925.2813
 4232.6052    5586.0000       0.0650       2.4990      -0.0043       2.2510       8.5734      21.3435    1296.1531       0.0585      34.5371       9.0069      34.1093      12.2236      29.6916      30.7854      33.3057      35.5620      63.2773      29.7723      29.6449      33.9527      35.1607      64.3284       9.1268    3571.0000    2121.0000    3445.0000    3326.0000    8017.4951
 4232.4528    5528.0000       0.0628       2.4985      -0.0022       2.2839       8.5711      22.6321    1297.9305       0.0565      34.8367       8.7540      34.7638      10.8875      29.7456      30.8891      33.3061      35.7018      63.3302      30.3246      30.9823      33.8990      35.4500      63.9220       8.9416    3568.0000    1988.0000    3382.0000    3431.0000    7889.4204
 4232.3004    5601.0000       0.0626       2.5006      -0.0039       2.3861       8.5667      22.5354    1298.2860       0.0565      35.0178       8.7203      36.0600      10.4539      29.7094      30.9195      33.1135      35.6800      62.8958      29.5320      30.5702      33.5119      35.2958      63.3985       8.9494    3434.0000    2059.0000    3338.0000    3455.0000    7648.6392
 4232.1480    5521.0000       0.0606       2.4872      -0.0064       2.3435       8.5630      23.4311    1305.0405       0.0551      35.1956       8.6799      34.3729      13.8696      29.6731      30.8925      33.2356      35.6436      62.5621      29.6088      30.4530      33.5090      35.2807      62.8747       8.7895    3466.0000    2125.0000    3446.0000    3367.0000    8078.9712
