~VERSION INFORMATION
VERS.           2.0   :CWLS Log ASCII Standard - VERSION 2.0
WRAP.           NO    :One Line per depth step
PROD.  Schlumberger   :LAS Producer
PROG.  DLIS to ASCII 11C0-305                          :LAS Program name and version
CREA.        2003/11/16 09:47                          :LAS Creation date {YYYY/MM/DD hh:mm}
SOURCE.     AIT_MainPB1_027PUP.DLIS                    :DLIS File Name
FILE-ID.     AIT_MainPB1_027PUP                        :File Identification Number
#--------------------------------------------------
~WELL INFORMATION
#MNEM.UNIT      DATA             DESCRIPTION
#---- ------ --------------   -----------------------------
STRT .M      4869.0276       :START DEPTH     
STOP .M      3996.2328       :STOP DEPTH     
STEP .M        -0.1524       :STEP     
NULL .          -999.25      :NULL VALUE
COMP .        INPEX Browse, Ltd.                       :COMPANY
WELL .        ICHTHYS DEEP-1                           :WELL
FLD  .        WA-285-P                                 :FIELD
LOC  .        Datum: GDA94 Spheroid GRS80              :LOCATION
CNTY .        Ocean Bounty                             :COUNTY
STAT .        1:200                                    :STATE
CTRY .        Australia                                :COUNTRY
API  .                                                 :API NUMBER
UWI  .                                                 :UNIQUE WELL ID
DATE .        16-Nov-2003                              :LOG DATE {DD-MMM-YYYY}
SRVC .        Schlumberger                             :SERVICE COMPANY
LATI .DEG     13 51' 47.081" S                         :LATITUDE
LONG .DEG     123 13'  56.110" E                       :LONGITUDE
GDAT .                                                 :GeoDetic Datum
#-----------------------------------------------------------------------------
~PARAMETER INFORMATION
#MNEM.UNIT    VALUE                      DESCRIPTION
#---- -----   --------------------       ------------------------
RUN  .          Suite 3 Run 1            :RUN NUMBER
PDAT .        LAT                        :Permanent Datum
EPD  .M           0.000000               :Elevation of Permanent Datum above Mean Sea Level
EPD  .M           0.000000               :Elevation of tool zero above Mean Sea Level
LMF  .          Drill Floor              :Logging Measured From (Name of Logging Elevation Reference)
APD  .M          25.000000               :Elevation of Depth Reference (LMF) above Permanent Datum
#-----------------------------------------------------------------------------
~CURVE INFORMATION
#MNEM.UNIT   API CODE                                  DESCRIPTION
#---- -----  --------                                  -----------------------
DEPT .M                                                :DEPTH (BOREHOLE) {F10.4}
TENS .LBF                                              :Cable Tension {F13.4}
APLU .V/V                                              :APS Near/Array Uncorrected Limestone Porosity {F13.4}
RHOM .G/C3                                             :LDS Corrected Bulk Density {F13.4}
DRH  .G/C3                                             :LDS Bulk Density Correction {F13.4}
PEFL .                                                 :LDS Long-Spaced Corrected Photoelectric Effect {F13.4}
LCAL .IN                                               :LDS Caliper {F13.4}
HSGR .GAPI                                             :HNGS Standard Gamma Ray {F13.4}
CDF  .N                                                :Calibrated Downhole Force {F13.4}
APLC .V/V                                              :APS Near/Array Corrected Limestone Porosity {F13.4}
ATD2 .IN                                               :Array Induction Two Foot Outer Diameter of Invasion (D2) {F13.4}
ATD1 .IN                                               :Array Induction Two Foot Inner Diameter of Invasion(D1) {F13.4}
AOD2 .IN                                               :Array Induction One Foot Outer Diameter of Invasion (D2) {F13.4}
AOD1 .IN                                               :Array Induction One Foot Inner Diameter of Invasion (D1) {F13.4}
AT90 .OHMM                                             :Array Induction Two Foot Resistivity A90 {F13.4}
AT60 .OHMM                                             :Array Induction Two Foot Resistivity A60 {F13.4}
AT30 .OHMM                                             :Array Induction Two Foot Resistivity A30 {F13.4}
AT20 .OHMM                                             :Array Induction Two Foot Resistivity A20 {F13.4}
AT10 .OHMM                                             :Array Induction Two Foot Resistivity A10 {F13.4}
AO90 .OHMM                                             :Array Induction One Foot Resistivity A90 {F13.4}
AO60 .OHMM                                             :Array Induction One Foot Resistivity A60 {F13.4}
AO30 .OHMM                                             :Array Induction One Foot Resistivity A30 {F13.4}
AO20 .OHMM                                             :Array Induction One Foot Resistivity A20 {F13.4}
AO10 .OHMM                                             :Array Induction One Foot Resistivity A10 {F13.4}
SIGF .CU                                               :APS Formation Capture Cross-Section {F13.4}
ANEC .HZ                                               :APS Near Detector Count Rate {F13.4}
AFEC .HZ                                               :APS Far Detector Count Rate {F13.4}
A1EP .HZ                                               :APS Array-1 Detector Count Rate {F13.4}
A2EP .HZ                                               :APS Array-2 Detector Count Rate {F13.4}
AFTC .HZ                                               :APS Thermal Detector Count Rate {F13.4}
#-----------------------------------------------------------------------------
# 
#     DEPT        TENS         APLU         RHOM         DRH          PEFL         LCAL         HSGR         CDF          APLC         ATD2         ATD1         AOD2         AOD1         AT90         AT60         AT30         AT20         AT10         AO90         AO60         AO30         AO20         AO10         SIGF         ANEC         AFEC         A1EP         A2EP         AFTC
#
~A  
# ...
 4462.5768    5860.0000       0.1947       2.8139      -0.0079    -999.2500       8.6400     137.2055    6007.5215       0.1806      12.4981       8.6288      10.3474       8.6345       9.8486      10.3742      10.5105      10.6638      10.8623      11.0129      11.4161      11.7716      10.9689      11.8739      30.3837    2868.0000     801.0000    2066.0000    2058.0000    1931.3710
 4462.4244    5900.0000       0.1881       2.8139      -0.0079    -999.2500       8.6397     136.4200    6007.5215       0.1727       8.9023       8.6294       8.8397       8.6421       9.0500       9.5114       9.4324       9.4695       9.7927       8.5209       8.5204       9.0000       8.9211       9.2300      31.1978    2808.0000     879.0000    2041.6000    2044.0000    1981.5765
 4462.2720    5918.0000       0.1955       2.8139      -0.0079    -999.2500       8.6399     136.9446    5958.5000       0.1841       8.6400       8.6400       8.6400       8.6400       8.2073       8.5701       8.4787       8.5532       8.8717       7.5458       7.6877       7.9996       7.8489       8.1989      30.9903    2910.6667     809.0000    1998.6666    2102.6667    2011.6313
 4462.1196    5936.0000       0.1999       2.8139      -0.0079    -999.2500       8.6402     137.5894    5998.0332       0.1893       8.6405       8.6405       8.6404       8.6404       8.2524       8.6082       8.6641       8.7110       8.9503       8.2477       8.4140       8.7822       9.1255       8.8803      31.8912    2791.0000     847.0000    2041.0000    2031.0000    1910.8792
 4461.9672    5922.0000       0.1970       2.8139      -0.0079    -999.2500       8.6421     139.5875    5982.2202       0.1871       8.7241       8.7241       8.6409       8.6409       8.9164       9.3280       9.4144       9.4326       9.8557       9.0528       9.2340       9.7540       9.6583       9.8658      31.6860    2977.0000     789.0000    2031.0000    2131.0000    2128.6067
 4461.8148    5886.0000       0.1824       2.8139      -0.0079    -999.2500       8.6407     134.1581    5996.4521       0.1722       8.6799       8.6799       8.6407       8.6407       9.6108      10.0747      10.1029      10.0922      10.7046      10.0185      10.3551      10.8841      10.7463      11.1694      32.8693    3056.0000     864.0000    2151.0000    2094.0000    2067.1306
 4461.6624    5914.0000       0.1719       2.8139      -0.0079    -999.2500       8.6399     129.5152    5961.6626       0.1617       8.6788       8.6788       8.6401       8.6401      10.1657      10.6933      10.9436      10.8778      11.5288      10.4745      10.7143      11.2539      11.3038      11.5585      33.7908    2910.0000     881.0000    2207.0000    2237.0000    2123.4836
 4461.5100    5917.0000       0.1593       2.8139      -0.0079    -999.2500       8.6385     120.5749    5947.4302       0.1476       8.6788       8.6788       8.7144       8.7136      11.1185      11.7051      11.8039      11.7387      12.3988      10.9735      11.2718      11.6798      12.1138      11.9689      34.3101    2983.0000     895.0000    2362.0000    2194.0000    2336.0879
 4461.3576    5851.0000       0.1526       2.8139      -0.0079    -999.2500       8.6402     116.8743    5947.4302       0.1420       8.6802       8.6802      10.1103       9.0856      12.8082      13.5608      13.6016      13.4345      13.8771      12.4379      12.7052      13.9146      14.4128      13.9273      33.0341    2958.0000     909.0000    2272.0000    2209.0000    2190.0825
 4461.2052    5819.0000       0.1608       2.8139      -0.0079    -999.2500       8.6291     116.2843    5926.8730       0.1498       8.6805       8.6805      17.6375      10.3451      14.9104      15.7668      15.9393      15.9662      16.5625      14.9178      15.3121      15.7306      16.9112      16.2414      34.2276    2890.0000     920.0000    2185.0000    2204.0000    2154.2217
 4461.0528    5849.0000       0.1758       2.8139      -0.0079    -999.2500       8.6274     125.7640    5925.2920       0.1660       8.6799       8.6799      40.4015      14.5742      17.2492      18.1994      18.9528      18.8734      19.2729      18.0525      18.2426      18.7943      19.0316      19.3707      32.6122    2809.0000     798.0000    2147.0000    2059.0000    1910.8792
 4460.9004    5822.0000       0.1981       2.8139      -0.0079    -999.2500       8.6288     132.4309    5920.5479       0.1898       8.6796       8.6796      66.3734      14.8744      17.6752      18.7202      19.2703      19.0448      19.8440      17.0329      17.2086      18.9908      19.2386      20.9016      32.1190    2761.0000     744.0000    1998.0000    2018.0000    1639.3601
 4460.7480    5798.0000       0.2144       2.8139      -0.0079    -999.2500       8.6285     133.0900    5939.5239       0.2059       8.6785       8.6785      65.4846      14.0417      15.8927      16.5378      17.5566      17.4074      18.4257      16.2237      16.1931      18.3356      16.9372      19.5525      32.6201    2857.0000     769.0000    1937.0000    1858.0000    1972.3551
 4460.5956    5793.0000       0.2296       2.8139      -0.0079    -999.2500       8.6280     132.4494    5952.1743       0.2197       8.6799       8.6799      49.9968       9.5074      14.4223      15.1018      16.2263      16.2379      17.1388      15.1919      15.2968      16.8926      15.7812      17.9330      31.9357    2810.0000     732.0000    1915.0000    1921.0000    1962.1091
 4460.4432    5813.0000       0.2223       2.8139      -0.0079    -999.2500       8.6288     131.2093    6100.8208       0.2067       8.6802       8.6802      26.6924       8.9605      13.7024      14.2576      15.1340      15.1922      15.9384      14.5402      14.4998      15.7075      14.6017      16.4166      31.8496    2812.0000     789.0000    1885.0000    1851.0000    1880.1410
 4460.2908    5769.0000       0.2219       2.8139      -0.0079    -999.2500       8.6294     131.2907    6358.5796       0.2045       8.6802       8.6802      13.5738       8.6799      12.9695      13.4625      13.6580      13.6151      14.2956      13.3935      13.2864      13.9711      13.0376      14.3383      32.4505    2793.0000     763.0000    1899.0000    1905.0000    1846.8414
 4460.1384    5870.0000       0.2197       2.8139      -0.0079    -999.2500       8.6274     128.9958    6504.0630       0.2012       8.6788       8.6788      13.6779       9.7007      12.2243      12.6192      12.4836      12.7620      13.2250      11.9988      11.8286      12.3341      11.8996      12.4552      32.4258    2627.0000     742.0000    1927.0000    1945.0000    2000.5315
 4459.9860    5862.0000       0.2111       2.8139      -0.0079    -999.2500       8.6288     133.4985    6347.5103       0.1874       8.6788       8.6788      30.7286      15.1452      11.3515      11.6964      11.6923      11.8864      12.2959      10.8261      10.7088      11.5147      11.2862      11.7970      30.9989    2892.0000     755.0000    1993.0000    1855.0000    1926.2480
 4459.8336    5953.0000       0.2023       2.8139      -0.0079    -999.2500       8.7241     139.3462    6056.5430       0.1777       8.7911       8.6802      60.6758      18.8186      10.6822      10.9766      10.9605      11.1960      11.5860       9.8787       9.7061      11.0657      10.9545      11.7649      31.4191    2890.0000     818.0000    1968.0000    1956.0000    1918.5636
 4459.6812    5866.0000       0.1997       2.8139      -0.0079    -999.2500       8.6799     143.8569    5969.5693       0.1806      10.0759       8.6808      86.1986      17.0775       9.8509      10.1017      10.3588      10.6502      11.2000       9.2748       9.1854      10.3153      10.1378      11.1522      30.3419    2780.0000     768.0000    2023.0000    2036.0000    2146.5371
 4459.5288    5799.0000       0.1943       2.8139      -0.0079    -999.2500       8.6788     142.5405    5865.2007       0.1756      17.3932       8.6688      86.4670      10.7459       8.7826       8.9861       9.3806       9.7110      10.3731       8.3672       8.3195       9.2668       9.2121      10.2402      30.2577    2820.0000     808.0000    2061.0000    2047.0000    2095.3071
