~VERSION INFORMATION
VERS.           2.0   :CWLS Log ASCII Standard - VERSION 2.0
WRAP.           NO    :One Line per depth step
PROD.  Schlumberger   :LAS Producer
PROG.  DLIS to ASCII 11C0-305                          :LAS Program name and version
CREA.        2003/11/16 09:47                          :LAS Creation date {YYYY/MM/DD hh:mm}
SOURCE.     AIT_MainPB1_027PUP.DLIS                    :DLIS File Name
FILE-ID.     AIT_MainPB1_027PUP                        :File Identification Number
#--------------------------------------------------
~WELL INFORMATION
#MNEM.UNIT      DATA             DESCRIPTION
#---- ------ --------------   -----------------------------
STRT .M      4869.0276       :START DEPTH     
STOP .M      3996.2328       :STOP DEPTH     
STEP .M        -0.1524       :STEP     
NULL .          -999.25      :NULL VALUE
COMP .        INPEX Browse, Ltd.                       :COMPANY
WELL .        ICHTHYS DEEP-1                           :WELL
FLD  .        WA-285-P                                 :FIELD
LOC  .        Datum: GDA94 Spheroid GRS80              :LOCATION
CNTY .        Ocean Bounty                             :COUNTY
STAT .        1:200                                    :STATE
CTRY .        Australia                                :COUNTRY
API  .                                                 :API NUMBER
UWI  .                                                 :UNIQUE WELL ID
DATE .        16-Nov-2003                              :LOG DATE {DD-MMM-YYYY}
SRVC .        Schlumberger                             :SERVICE COMPANY
LATI .DEG     13 51' 47.081" S                         :LATITUDE
LONG .DEG     123 13'  56.110" E                       :LONGITUDE
GDAT .                                                 :GeoDetic Datum
#-----------------------------------------------------------------------------
~PARAMETER INFORMATION
#MNEM.UNIT    VALUE                      DESCRIPTION
#---- -----   --------------------       ------------------------
RUN  .          Suite 3 Run 1            :RUN NUMBER
PDAT .        LAT                        :Permanent Datum
EPD  .M           0.000000               :Elevation of Permanent Datum above Mean Sea Level
EPD  .M           0.000000               :Elevation of tool zero above Mean Sea Level
LMF  .          Drill Floor              :Logging Measured From (Name of Logging Elevation Reference)
APD  .M          25.000000               :Elevation of Depth Reference (LMF) above Permanent Datum
#-----------------------------------------------------------------------------
~CURVE INFORMATION
#MNEM.UNIT   API CODE                                  DESCRIPTION
#---- -----  --------                                  -----------------------
DEPT .M                                                :DEPTH (BOREHOLE) {F10.4}
TENS .LBF                                              :Cable Tension {F13.4}
APLU .V/V                                              :APS Near/Array Uncorrected Limestone Porosity {F13.4}
RHOM .G/C3                                             :LDS Corrected Bulk Density {F13.4}
DRH  .G/C3                                             :LDS Bulk Density Correction {F13.4}
PEFL .                                                 :LDS Long-Spaced Corrected Photoelectric Effect {F13.4}
LCAL .IN                                               :LDS Caliper {F13.4}
HSGR .GAPI                                             :HNGS Standard Gamma Ray {F13.4}
CDF  .N                                                :Calibrated Downhole Force {F13.4}
APLC .V/V                                              :APS Near/Array Corrected Limestone Porosity {F13.4}
ATD2 .IN                                               :Array Induction Two Foot Outer Diameter of Invasion (D2) {F13.4}
ATD1 .IN                                               :Array Induction Two Foot Inner Diameter of Invasion(D1) {F13.4}
AOD2 .IN                                               :Array Induction One Foot Outer Diameter of Invasion (D2) {F13.4}
AOD1 .IN                                               :Array Induction One Foot Inner Diameter of Invasion (D1) {F13.4}
AT90 .OHMM                                             :Array Induction Two Foot Resistivity A90 {F13.4}
AT60 .OHMM                                             :Array Induction Two Foot Resistivity A60 {F13.4}
AT30 .OHMM                                             :Array Induction Two Foot Resistivity A30 {F13.4}
AT20 .OHMM                                             :Array Induction Two Foot Resistivity A20 {F13.4}
AT10 .OHMM                                             :Array Induction Two Foot Resistivity A10 {F13.4}
AO90 .OHMM                                             :Array Induction One Foot Resistivity A90 {F13.4}
AO60 .OHMM                                             :Array Induction One Foot Resistivity A60 {F13.4}
AO30 .OHMM                                             :Array Induction One Foot Resistivity A30 {F13.4}
AO20 .OHMM                                             :Array Induction One Foot Resistivity A20 {F13.4}
AO10 .OHMM                                             :Array Induction One Foot Resistivity A10 {F13.4}
SIGF .CU                                               :APS Formation Capture Cross-Section {F13.4}
ANEC .HZ                                               :APS Near Detector Count Rate {F13.4}
AFEC .HZ                                               :APS Far Detector Count Rate {F13.4}
A1EP .HZ                                               :APS Array-1 Detector Count Rate {F13.4}
A2EP .HZ                                               :APS Array-2 Detector Count Rate {F13.4}
AFTC .HZ                                               :APS Thermal Detector Count Rate {F13.4}
#-----------------------------------------------------------------------------
# 
#     DEPT        TENS         APLU         RHOM         DRH          PEFL         LCAL         HSGR         CDF          APLC         ATD2         ATD1         AOD2         AOD1         AT90         AT60         AT30         AT20         AT10         AO90         AO60         AO30         AO20         AO10         SIGF         ANEC         AFEC         A1EP         A2EP         AFTC
#
~A  
# ...
 4696.2060    6096.0000       0.3605       2.1562       0.0990       8.0767      12.3539     134.0508    6124.5410       0.2686      12.1284      12.1284      65.0761      15.1039      10.4119      10.7172      10.6810      10.7788      11.3952       9.7589       9.7172      10.6908      10.9213      11.3201      31.8947    2660.0000     624.0000    1574.0000    1478.0000    1834.0341
 4696.0536    6166.0000       0.3816       2.1460       0.0932       8.2247      12.9664     133.7159    6301.6514       0.2887      12.5613      12.5613      39.2711      18.1465      10.0763      10.2885      10.6632      10.8957      11.4580      10.2940      10.1801      10.6716      10.7855      11.3524      37.1953    2646.0000     576.0000    1567.0000    1464.0000    1772.5581
 4695.9012    6095.0000       0.3874       2.0855       0.0845       8.0231      12.9590     134.2177    6037.5669       0.2946      12.6942      12.6942      33.1339      29.0551      10.0513      10.2583      10.7639      10.9992      11.6009       9.9691       9.8676      10.8216      11.1240      11.5991      34.3064    2691.0000     578.6667    1530.0000    1468.0000    1749.5046
 4695.7488    6167.0000       0.3981       2.0103       0.0749       7.8694      12.3966     131.4436    6178.3066       0.3065      12.4525      12.4525      32.7862      31.6299      10.1366      10.3141      10.8646      11.3812      11.8412      10.1846      10.0783      11.2128      11.3952      11.8707      32.9302    2705.0000     637.0000    1492.0000    1452.0000    1723.8895
 4695.5964    6027.0000       0.4284       1.9885       0.0837       7.4290      11.9324     130.2451    6145.0981       0.3677      12.1074      12.1074      23.8236      23.3659      10.4046      10.5677      11.1055      11.3682      11.6588      10.1286       9.9637      10.8649      11.4731      11.5250      37.1247    2645.0000     594.0000    1525.0000    1479.0000    1734.1355
 4695.4440    6076.0000       0.4195       2.0204       0.0969       7.8086      11.5078     134.0527    6096.0767       0.3757      11.8237      11.8237      14.2449      14.1279      10.7941      10.9464      11.4639      11.7646      11.9042      10.7263      10.6700      11.4494      11.7605      11.8222      37.2290    2737.0000     528.0000    1453.0000    1401.0000    1613.7451
 4695.2916    6073.0000       0.3901       2.1538       0.1298       8.1584      11.7520     135.8479    6089.7510       0.3382      11.7438      11.7438      12.2847      12.2697      11.3396      11.4640      11.7694      11.9968      12.1056      12.0357      11.9335      12.0296      11.8951      12.0742      34.6693    2757.0000     528.0000    1566.0000    1480.0000    1793.0500
 4695.1392    6068.0000       0.3523       2.2071       0.1206       7.8301      11.7739     134.5507    5945.8491       0.2805      11.9440      11.9439      12.0360      12.0347      11.3314      11.4432      11.7350      12.0729      12.0647      11.7710      11.7098      11.5164      12.3954      11.8920      32.4473    2755.0000     564.0000    1625.0000    1609.0000    1667.5366
 4694.9868    5936.0000       0.3435       2.0992       0.0748       7.1157      11.8123     125.8790    5911.0596       0.2614      14.4574      14.4556      13.4108      13.3869      13.6502      13.8066      13.2624      13.2662      13.0423      14.3098      14.0507      13.5084      14.7739      13.2761      30.7347    2708.0000     592.0000    1639.0000    1607.0000    1782.8041
 4694.8344    5941.0000       0.3660       1.9808       0.0402       5.7567      11.2004     113.7648    5926.8730       0.3203      24.9913      24.9827      19.9514      19.8164      16.0952      16.3133      16.2417      16.2729      16.0136      14.7524      14.2732      14.5472      17.1179      14.4101      30.7864    2733.0000     628.0000    1603.0000    1591.0000    1885.2642
 4694.6820    5870.0000       0.3323       1.9694       0.0376       5.5057      10.6812     102.8845    5950.5933       0.2617      41.2133      40.8728      33.2949      32.7926      19.2203      19.5013      21.6016      23.3132      25.1375      25.2272      24.5587      24.2575      23.1684      23.1572      30.2078    2804.0000     597.0000    1507.0000    1470.0000    1611.1836
 4694.5296    5912.0000       0.3408       2.0480       0.0407       5.6167      10.3582      90.3552    5963.2441       0.2679      51.2784      48.5344      62.8934      61.8007      22.8749      23.1545      25.9264      27.7977      29.8662      17.9878      17.7394      20.9851      21.1750      32.9300      28.9483    2699.0000     640.0000    1724.0000    1687.0000    1875.0179
 4694.3772    5904.0000       0.3668       1.9430       0.0256       6.5886      10.3051      71.3768    5993.2896       0.3100      56.1152      44.7871      94.3014      92.5013      18.4745      18.7090      19.5675      19.9759      21.5776      11.9092      11.7954      13.2302      14.4743      17.1996      25.1265    2524.0000     710.0000    1462.6666    1464.0000    1796.4653
 4694.2248    5952.0000       0.4854       1.6802       0.0115       8.3333      10.8983      54.0607    6043.8926       0.4745      72.9065      50.8107     108.1340     103.7375      22.2701      22.6482      25.8775      26.5103      30.8164      19.8836      19.8555      25.4743      36.3147      27.0849      23.1814    2452.0000     599.0000    1314.0000    1342.0000    1672.6597
 4694.0724    5970.0000       0.5563       1.5016       0.0108       4.8067      11.3373      41.1829    6315.8833       0.5469      97.3210      75.1585      88.8469      76.0158      34.2994      35.4437      47.9380      49.7896      53.9834      41.1037      40.9558      52.3709      70.7166      62.2719      18.0827    2610.0000     525.0000    1236.0000    1241.0000    1539.4615
 4693.9200    5995.0000       0.5572       1.5013      -0.0015       3.5157      11.5627      37.6252    6404.4385       0.5479     110.1637      98.3579      66.6902      46.4586      58.9239      62.6739      96.7124      91.2766      87.6688     128.8671     130.2942     196.0799     209.3722     380.4549      14.3837    2583.0000     511.0000    1313.0000    1331.0000    1626.5525
 4693.7676    6038.0000       0.4036       1.6782      -0.0049       3.0302      10.8490      29.9706    6265.2803       0.3890     107.0090     101.1170      43.6248      27.7593     109.8130      97.6571     244.5940     185.7525     150.6460     272.3059     304.9731     467.3341     233.3187    1950.0000      12.7222    2750.0000     528.0000    1503.0000    1447.0000    2033.8311
 4693.6152    6129.0000       0.2271       2.0696       0.0166       2.8695      10.6220      22.4424    6078.6816       0.1754      86.9422      76.0261      33.3087      22.8695     160.9330     130.7614     228.6561     447.6680     374.7848     254.0479     323.9190     520.2310     218.1052    1286.1837      10.0707    3023.0000     638.6667    1869.0000    1961.0000    2717.7515
 4693.4628    6172.0000       0.1217       2.3561       0.0518       3.1161      10.5202      14.7524    6073.9380       0.0720      61.3445      44.1639      39.7281      22.8052     204.6348     252.0999     313.1805     317.7018     717.4634     207.6915     259.8805     507.4508     237.8706    1892.9398       8.0089    3213.0000     945.0000    2689.0000    2551.0000    5115.3159
 4693.3104    6108.0000       0.0726       2.3752       0.0260       3.1476      10.5212      11.8659    5990.1265       0.0302      41.4745      27.9100      49.8662      19.6004     270.0727     393.3989     456.2788     343.9207    1150.0818     211.8226     273.3310     973.6520     298.8603    1950.0000       5.7604    3229.0000    1577.0000    3099.0000    3117.0000    6465.2261
 4693.1580    6140.0000       0.0570       2.3635       0.0142       3.3431      10.4509      12.0231    6028.0786       0.0243      31.2922      25.6332      47.6254      17.9476     369.1965     560.5775     721.3255     435.7637    1667.3411     291.7046     405.7869    1134.6117     430.6690    1950.0000       6.1953    3324.0000    1915.0000    3475.0000    3126.0000    7364.3125
