~VERSION INFORMATION
VERS.           2.0   :CWLS Log ASCII Standard - VERSION 2.0
WRAP.           NO    :One Line per depth step
PROD.  Schlumberger   :LAS Producer
PROG.  DLIS to ASCII 11C0-305                          :LAS Program name and version
CREA.        2003/11/03 06:15                          :LAS Creation date {YYYY/MM/DD hh:mm}
SOURCE.     AIT_mainPB1_064PUP.DLIS                    :DLIS File Name
FILE-ID.     AIT_mainPB1_064PUP                        :File Identification Number
#--------------------------------------------------
~WELL INFORMATION
#MNEM.UNIT      DATA             DESCRIPTION
#---- ------ --------------   -----------------------------
STRT .M      4280.0016       :START DEPTH     
STOP .M      3948.9888       :STOP DEPTH     
STEP .M        -0.1524       :STEP     
NULL .          -999.25      :NULL VALUE
COMP .        INPEX Browse, Ltd.                       :COMPANY
WELL .        ICHTHYS DEEP-1                           :WELL
FLD  .        WA-285-P                                 :FIELD
LOC  .        Datum: GDA94 Spheroid GRS80              :LOCATION
CNTY .        Ocean Bounty                             :COUNTY
STAT .        1:200                                    :STATE
CTRY .        Australia                                :COUNTRY
API  .                                                 :API NUMBER
UWI  .                                                 :UNIQUE WELL ID
DATE .        03-Nov-2003                              :LOG DATE {DD-MMM-YYYY}
SRVC .        Schlumberger                             :SERVICE COMPANY
LATI .DEG     13 51' 47.081" S                         :LATITUDE
LONG .DEG     123 13'  56.110" E                       :LONGITUDE
GDAT .                                                 :GeoDetic Datum
#-----------------------------------------------------------------------------
~PARAMETER INFORMATION
#MNEM.UNIT    VALUE                      DESCRIPTION
#---- -----   --------------------       ------------------------
RUN  .          Suite 2 Run 1            :RUN NUMBER
PDAT .        LAT                        :Permanent Datum
EPD  .M           0.000000               :Elevation of Permanent Datum above Mean Sea Level
EPD  .M           0.000000               :Elevation of tool zero above Mean Sea Level
LMF  .          Drill Floor              :Logging Measured From (Name of Logging Elevation Reference)
APD  .M          25.000000               :Elevation of Depth Reference (LMF) above Permanent Datum
#-----------------------------------------------------------------------------
~CURVE INFORMATION
#MNEM.UNIT   API CODE                                  DESCRIPTION
#---- -----  --------                                  -----------------------
DEPT .M                                                :DEPTH (BOREHOLE) {F10.4}
TENS .LBF                                              :Cable Tension {F13.4}
APLU .V/V                                              :APS Near/Array Uncorrected Limestone Porosity {F13.4}
RHOM .G/C3                                             :LDS Corrected Bulk Density {F13.4}
DRH  .G/C3                                             :LDS Bulk Density Correction {F13.4}
PEFL .                                                 :LDS Long-Spaced Corrected Photoelectric Effect {F13.4}
LCAL .IN                                               :LDS Caliper {F13.4}
HSGR .GAPI                                             :HNGS Standard Gamma Ray {F13.4}
CDF  .LBF                                              :Calibrated Downhole Force {F13.4}
APLC .V/V                                              :APS Near/Array Corrected Limestone Porosity {F13.4}
ATD2 .IN                                               :Array Induction Two Foot Outer Diameter of Invasion (D2) {F13.4}
ATD1 .IN                                               :Array Induction Two Foot Inner Diameter of Invasion(D1) {F13.4}
AOD2 .IN                                               :Array Induction One Foot Outer Diameter of Invasion (D2) {F13.4}
AOD1 .IN                                               :Array Induction One Foot Inner Diameter of Invasion (D1) {F13.4}
AT90 .OHMM                                             :Array Induction Two Foot Resistivity A90 {F13.4}
AT60 .OHMM                                             :Array Induction Two Foot Resistivity A60 {F13.4}
AT30 .OHMM                                             :Array Induction Two Foot Resistivity A30 {F13.4}
AT20 .OHMM                                             :Array Induction Two Foot Resistivity A20 {F13.4}
AT10 .OHMM                                             :Array Induction Two Foot Resistivity A10 {F13.4}
AO90 .OHMM                                             :Array Induction One Foot Resistivity A90 {F13.4}
AO60 .OHMM                                             :Array Induction One Foot Resistivity A60 {F13.4}
AO30 .OHMM                                             :Array Induction One Foot Resistivity A30 {F13.4}
AO20 .OHMM                                             :Array Induction One Foot Resistivity A20 {F13.4}
AO10 .OHMM                                             :Array Induction One Foot Resistivity A10 {F13.4}
SIGF .CU                                               :APS Formation Capture Cross-Section {F13.4}
ANEC .HZ                                               :APS Near Detector Count Rate {F13.4}
AFEC .HZ                                               :APS Far Detector Count Rate {F13.4}
A1EP .HZ                                               :APS Array-1 Detector Count Rate {F13.4}
A2EP .HZ                                               :APS Array-2 Detector Count Rate {F13.4}
AFTC .HZ                                               :APS Thermal Detector Count Rate {F13.4}
#-----------------------------------------------------------------------------
# 
#     DEPT        TENS         APLU         RHOM         DRH          PEFL         LCAL         HSGR         CDF          APLC         ATD2         ATD1         AOD2         AOD1         AT90         AT60         AT30         AT20         AT10         AO90         AO60         AO30         AO20         AO10         SIGF         ANEC         AFEC         A1EP         A2EP         AFTC
#
~A  
# ...
 4062.3744    5532.0000       0.1018       2.4900       0.1474       7.3390      10.2984     113.6865    1365.4756       0.0880      27.6754      27.5319      96.7317      93.4796      24.6131      26.9472      28.3465      27.0199      26.6086      30.4665      31.4925      37.6577      27.4077      33.0775      17.1913    3370.6667    1629.0000    3014.6667    3004.0000    4849.7734
 4062.2220    5524.0000       0.1039       2.5259       0.1747       8.2902       9.8519     104.8826    1366.8976       0.0929      14.2890      13.1587      78.7290      68.5031      22.4952      24.3996      23.2427      22.6352      22.3011      22.0834      23.1145      24.0865      21.8423      23.2276      17.7734    3317.0000    1515.0000    2676.0000    2585.0000    3988.2556
 4062.0696    5546.0000       0.0950       2.4609       0.1363       8.6019       9.7759     111.0468    1347.7006       0.0846      14.9727      10.2087      79.3452      53.0271      20.5518      22.3515      20.2188      20.4666      21.9129      23.3994      24.7436      22.7108      22.0594      20.1997      19.0970    3519.0000    1432.0000    3156.0000    3030.0000    3537.4316
 4061.9172    5518.0000       0.0918       2.4596       0.1011       7.5843       9.7759     121.8818    1354.8105       0.0799      19.3232      10.0414      84.8286      45.3138      21.5142      23.1955      22.6705      23.4866      26.0899      24.1226      25.6666      24.0817      21.9217      30.2953      19.7286    3408.0000    1520.0000    3191.0000    3168.0000    4446.7642
 4061.7648    5480.0000       0.1158       2.4875       0.0519       5.8204       9.5069     137.1059    1344.8566       0.1036      19.6454      10.2014      77.5993      40.7821      18.2091      19.5441      19.7738      19.5325      20.6865      16.6145      17.6834      17.1715      17.1169      20.3163      22.1143    3337.0000    1364.0000    2723.0000    2612.0000    3632.2073
 4061.6124    5475.0000       0.1394       2.6102       0.0558       5.0853       9.1733     129.4899    1337.7466       0.1280      17.3540      12.3477      93.4624      58.3789      14.8639      15.7312      15.4558      15.1731      16.1109      11.8839      12.1945      14.3285      15.4869      15.9565      26.1476    3301.0000    1126.0000    2610.0000    2509.0000    2479.5320
 4061.4600    5364.0000       0.1409       2.6022       0.0469       4.8109       9.1737     106.8492    1354.0995       0.1259      30.2664      26.0542     114.3910      87.1079      14.2147      14.9999      14.8993      14.5967      15.8397      11.3222      11.6773      14.1095      14.8019      15.4791      23.6393    3301.0000    1151.0000    2628.0000    2647.0000    2663.9600
 4061.3076    5438.0000       0.1276       2.3682       0.0456       5.7127       9.1717      84.9172    1380.7621       0.1115      64.9947      48.9785     121.0175     106.7269      15.0429      15.9463      16.7853      16.6111      17.9824      15.8911      16.6845      18.4280      18.8987      16.3752      21.1187    3267.0000    1251.0000    2673.0000    2601.0000    2914.9871
 4061.1552    5500.0000       0.1002       2.1907       0.0565       8.2445      10.1413      82.7585    1381.8285       0.0842     103.3713      59.1041     101.3611      93.7637      20.6954      22.4685      24.3251      25.4071      27.4512      27.7299      29.8177      25.6073      23.9686      26.2082      20.6945    3401.0000    1321.0000    2813.0000    2845.0000    3112.2227
 4061.0028    5467.0000       0.0846       2.1428       0.0624       7.8820      11.1488      99.1970    1400.3146       0.0677     108.3325      34.3248      83.9063      75.0243      23.4359      25.6906      26.6708      28.8003      31.9480      20.8842      21.9948      23.1779      24.5299      32.6313      19.9071    3429.0000    1604.0000    3274.0000    3133.0000    3937.0254
 4060.8504    5430.0000       0.0920       2.2807       0.0952       6.6353      10.0854     120.2963    1386.4501       0.0767     104.2067      17.2318      93.5898      77.8680      17.2887      18.5762      19.1330      19.2415      21.3521      14.7385      15.7141      18.1037      17.9877      19.5282      19.5861    3354.0000    1579.2000    3092.0000    3041.0000    4505.6787
 4060.6980    5427.0000       0.1132       2.5070       0.1092       5.4952       9.2970     128.2051    1386.0946       0.1012     111.6202      12.2335     121.7415      78.5495      14.9785      15.8553      16.9813      16.9263      18.1989      15.5114      16.0891      17.9277      19.4635      16.8989      21.8316    3406.0000    1268.0000    2672.0000    2653.0000    3301.7739
 4060.5456    5379.0000       0.1211       2.6012       0.0877       4.2554       9.3690     124.7495    1380.4065       0.1073     127.7546      11.5470     142.1304      55.4958      16.7388      17.8560      19.1401      19.4102      21.2474      17.8520      19.0147      21.1545      20.8822      23.1752      24.3294    3307.0000    1308.0000    2726.0000    2663.0000    2932.9175
 4060.3932    5366.0000       0.1157       2.4857       0.0328       4.9886       9.7237     119.6360    1344.1455       0.0949     136.1872      12.1731     129.6550      25.3573      18.2318      19.5116      20.6840      20.1798      22.3908      16.8088      17.6054      20.5810      20.4440      22.6651      23.3553    3310.0000    1359.0000    2828.0000    2725.0000    3335.0732
 4060.2408    5335.0000       0.1194       2.3810       0.0124       7.3687       9.5418     116.6275    1329.9255       0.0948     135.6924      12.3440      87.1999      13.1977      17.6951      18.9792      20.4885      20.0444      22.4052      17.9097      18.6789      20.3410      19.9592      22.7343      22.7581    3151.0000    1256.0000    2623.0000    2589.0000    3286.4043
 4060.0884    5324.0000       0.1393       2.2946      -0.0263      11.4230      10.1761     107.6954    1372.5856       0.1124     122.8718      11.7055      40.2609      10.4811      16.9128      18.0771      19.9872      20.5081      23.2165      16.9037      17.3981      17.3917      16.5975      19.3847      22.3581    3038.0000    1333.3334    2478.0000    2455.0000    2886.8105
 4059.9360    5431.0000       0.1511       2.2926      -0.0083      10.7801      10.0530      90.5871    1383.2505       0.1209      84.5803      12.1922      18.4756      11.0810      19.3377      20.8850      21.6523      21.0930      24.2860      19.4905      20.5213      20.9834      20.2904      22.5828      19.9381    3092.0000    1146.0000    2402.0000    2300.0000    3004.6396
 4059.7836    5462.0000       0.1398       2.2997       0.0085      10.4578      10.0414      76.4627    1398.8926       0.1062      45.0658      13.0939      18.3161      12.3654      25.3988      27.7351      27.7602      25.8255      30.0137      30.5597      35.5898      35.0800      23.9921      35.1604      17.5930    3118.0000    1185.0000    2315.0000    2387.0000    3068.6772
 4059.6312    5515.0000       0.1196       2.3055       0.0437       9.2774       9.9966      80.9130    1412.4015       0.0858      28.3141      19.3412      25.8036      13.5525      22.3717      24.4116      24.8677      22.8604      25.9455      20.8974      22.3957      23.4065      21.2361      38.5989      17.3178    3138.0000    1191.0000    2587.0000    2683.0000    3224.9285
 4059.4788    5502.0000       0.1172       2.3215       0.0664      10.0736       9.6075      97.3269    1410.2686       0.0775      43.7825      42.3170      32.8524      16.8206      16.9008      17.8377      16.5986      16.5671      21.4340      14.5068      15.4399      17.7694      16.5856      20.7475      15.2370    3162.0000    1331.0000    2632.0000    2705.0000    4231.5986
 4059.3264    5485.0000       0.1522       2.3698       0.1148      10.1995      10.2835     101.2994    1353.0331       0.1216      67.9829      67.7161      40.1893      29.4916      19.1324      20.3613      16.4324      16.6980      18.2569      16.6623      18.0110      17.3491      20.4069      16.3368      15.3607    3007.0000    1184.0000    2322.0000    2402.0000    3668.0681
