~VERSION INFORMATION
VERS.           2.0   :CWLS Log ASCII Standard - VERSION 2.0
WRAP.           NO    :One Line per depth step
PROD.  Schlumberger   :LAS Producer
PROG.  DLIS to ASCII 11C0-305                          :LAS Program name and version
CREA.        2003/11/19 08:49                          :LAS Creation date {YYYY/MM/DD hh:mm}
SOURCE.     AIT_LDL_APS_NGS_011PUP.DLIS                :DLIS File Name
FILE-ID.     AIT_LDL_APS_NGS_011PUP                    :File Identification Number
#--------------------------------------------------
~WELL INFORMATION
#MNEM.UNIT      DATA             DESCRIPTION
#---- ------ --------------   -----------------------------
STRT .M      4859.4264       :START DEPTH     
STOP .M      4018.3308       :STOP DEPTH     
STEP .M        -0.1524       :STEP     
NULL .          -999.25      :NULL VALUE
COMP .        INPEX Browse, Ltd.                       :COMPANY
WELL .        ICHTHYS DEEP-1                           :WELL
FLD  .        WA-285-P                                 :FIELD
LOC  .        Datum: GDA94 Spheroid GRS80              :LOCATION
CNTY .        Ocean Bounty                             :COUNTY
STAT .        1:200                                    :STATE
CTRY .        Australia                                :COUNTRY
API  .                                                 :API NUMBER
UWI  .                                                 :UNIQUE WELL ID
DATE .        16-Nov-2003                              :LOG DATE {DD-MMM-YYYY}
SRVC .        Schlumberger                             :SERVICE COMPANY
LATI .DEG     13 51' 47.081" S                         :LATITUDE
LONG .DEG     123 13'  56.110" E                       :LONGITUDE
GDAT .                                                 :GeoDetic Datum
#-----------------------------------------------------------------------------
~PARAMETER INFORMATION
#MNEM.UNIT    VALUE                      DESCRIPTION
#---- -----   --------------------       ------------------------
RUN  .          Suite 3 Run 1            :RUN NUMBER
PDAT .        LAT                        :Permanent Datum
EPD  .M           0.000000               :Elevation of Permanent Datum above Mean Sea Level
EPD  .M           0.000000               :Elevation of tool zero above Mean Sea Level
LMF  .          Drill Floor              :Logging Measured From (Name of Logging Elevation Reference)
APD  .M          25.000000               :Elevation of Depth Reference (LMF) above Permanent Datum
#-----------------------------------------------------------------------------
~CURVE INFORMATION
#MNEM.UNIT   API CODE                                  DESCRIPTION
#---- -----  --------                                  -----------------------
DEPT .M                                                :DEPTH (BOREHOLE) {F10.4}
RHOM .G/C3                                             :LDS Corrected Bulk Density {F13.4}
DRH  .G/C3                                             :LDS Bulk Density Correction {F13.4}
PEFL .                                                 :LDS Long-Spaced Corrected Photoelectric Effect {F13.4}
#-----------------------------------------------------------------------------
# 
#     DEPT        RHOM         DRH          PEFL
#
~A  
# ...
 4639.9704       2.4365       0.2744       5.9015
 4639.8180       2.4367       0.2602       6.4238
 4639.6656       2.4389       0.2378       6.4577
 4639.5132       2.4828       0.2271       6.0779
 4639.3608       2.4972       0.2214       5.1502
 4639.2084       2.5247       0.2366       5.0248
 4639.0560       2.4988       0.2418       5.0462
 4638.9036       2.4884       0.2607       5.9619
 4638.7512       2.4636       0.2406       5.9866
 4638.5988       2.4803       0.2241       5.7754
 4638.4464       2.4837       0.1969       5.2766
 4638.2940       2.4454       0.1689       5.8465
 4638.1416       2.4186       0.1547       6.2360
 4637.9892       2.4422       0.1740       5.6105
 4637.8368       2.4678       0.1755       4.9769
 4637.6844       2.4805       0.1763       5.0552
 4637.5320       2.4908       0.1752       5.7312
 4637.3796       2.5107       0.2011       5.8267
 4637.2272       2.5081       0.2131       5.7451
 4637.0748       2.5017       0.2466       5.3560
 4636.9224       2.4644       0.2512       6.0588
 4636.7700       2.4117       0.2392       7.0428
 4636.6176       2.4074       0.2197       7.9762
 4636.4652       2.4507       0.2487       7.2670
 4636.3128       2.4821       0.2656       6.7150
 4636.1604       2.4486       0.2613       5.8222
 4636.0080       2.4720       0.3011       5.6022
 4635.8556       2.5082       0.3134       5.4481
 4635.7032       2.5025       0.2672       5.3710
 4635.5508       2.5253       0.2289       5.0266
 4635.3984       2.5588       0.2308       4.2610
 4635.2460       2.5320       0.1963       4.1164
 4635.0936       2.4932       0.1779       4.0792
 4634.9412       2.5127       0.1921       4.1006
 4634.7888       2.5295       0.2024       3.7916
 4634.6364       2.5364       0.1846       3.7791
 4634.4840       2.5290       0.1683       3.5024
 4634.3316       2.5694       0.1865       3.3331
 4634.1792       2.5755       0.1768       3.2022
 4634.0268       2.5886       0.1895       3.3265
 4633.8744       2.5821       0.2066       3.6815
 4633.7220       2.5491       0.2170       4.0152
 4633.5696       2.5045       0.2252       4.3440
 4633.4172       2.4959       0.2597       4.9890
 4633.2648       2.5052       0.2835       5.0076
 4633.1124       2.5211       0.2945       4.8629
 4632.9600       2.5611       0.3222       4.4247
 4632.8076       2.5014       0.3064       4.3274
 4632.6552       2.3396       0.2629       5.3828
 4632.5028       2.2860       0.2394       7.1321
 4632.3504       2.3070       0.2400       8.4196
 4632.1980       2.4086       0.2445       8.1140
 4632.0456       2.4284       0.2503       7.3784
 4631.8932       2.4305       0.2627       7.2774
 4631.7408       2.4067       0.2438       7.8127
 4631.5884       2.3761       0.2315       7.9487
 4631.4360       2.4964       0.2878       8.3114
 4631.2836       2.5914       0.3342       8.2226
 4631.1312       2.7200       0.3853       8.8689
 4630.9788       2.7581       0.4428       9.3185
 4630.8264       2.7903       0.4881       9.4469
 4630.6740       2.7974       0.4959       9.7064
 4630.5216       2.8221       0.4986      10.1659
 4630.3692       2.8902       0.5137      10.2192
 4630.2168       2.9299       0.5281       9.8036
 4630.0644       2.8906       0.4747       9.2650
 4629.9120       2.8190       0.3781       8.7439
 4629.7596       2.8657       0.3273       8.0059
 4629.6072       2.9234       0.2975       7.0117
 4629.4548       2.8967       0.2233       6.3225
 4629.3024       2.7990       0.1554       5.4385
 4629.1500       2.7597       0.1404       5.1124
 4628.9976       2.7621       0.1270       4.6848
 4628.8452       2.7472       0.0843       4.5869
 4628.6928       2.7221       0.0330       4.3743
 4628.5404       2.7313       0.0285       4.7274
 4628.3880       2.7640       0.0359       5.0714
 4628.2356       2.7935       0.0370       5.9941
 4628.0832       2.8135       0.0390       6.3715
 4627.9308       2.8095       0.0394       6.4925
 4627.7784       2.7922       0.0356       5.3027
 4627.6260       2.7905       0.0453       5.0615
 4627.4736       2.7979       0.0691       4.9013
 4627.3212       2.7999       0.0815       5.3970
 4627.1688       2.7586       0.0776       5.3003
 4627.0164       2.7505       0.0785       5.4616
 4626.8640       2.7448       0.0712       5.3827
 4626.7116       2.7576       0.0542       5.4747
 4626.5592       2.7741       0.0475       5.1948
 4626.4068       2.7879       0.0471       5.3758
 4626.2544       2.7870       0.0448       5.0113
 4626.1020       2.7741       0.0360       5.1137
 4625.9496       2.7675       0.0283       4.6865
 4625.7972       2.7622       0.0190       4.9856
 4625.6448       2.7716       0.0224       5.1131
 4625.4924       2.7683       0.0243       5.5896
 4625.3400       2.7953       0.0747       5.7023
 4625.1876       2.7483       0.0879       6.0120
 4625.0352       2.6718       0.1111       6.2907
 4624.8828       2.6672       0.1769       6.7083
 4624.7304       2.6974       0.2682       7.2193
 4624.5780       2.6785       0.3107       8.0126
 4624.4256       2.6231       0.3516       8.9161
 4624.2732       2.5558       0.3749       9.5050
 4624.1208       2.5754       0.3858       9.6287
 4623.9684       2.6422       0.3925       8.9946
 4623.8160       2.7303       0.3887       8.4599
 4623.6636       2.7149       0.3723       8.1087
 4623.5112       2.7117       0.3854       8.5846
 4623.3588       2.6946       0.3926       8.7973
 4623.2064       2.6721       0.4071       9.3076
 4623.0540       2.5975       0.4035       9.8119
 4622.9016       2.5696       0.4232      10.1848
 4622.7492       2.5583       0.4061      10.0062
 4622.5968       2.5867       0.3839       9.4938
 4622.4444       2.6662       0.3857       8.8650
 4622.2920       2.7171       0.3878       8.3655
 4622.1396       2.7335       0.3722       8.3980
 4621.9872       2.7265       0.3554       8.3552
 4621.8348       2.7457       0.3657       8.3153
 4621.6824       2.7250       0.3113       7.9790
 4621.5300       2.7126       0.2717       7.4495
 4621.3776       2.6941       0.2224       6.8512
 4621.2252       2.6582       0.2051       6.7324
 4621.0728       2.6262       0.2075       7.5142
 4620.9204       2.5924       0.2688       8.0604
 4620.7680       2.6490       0.3400       8.1014
 4620.6156       2.7303       0.4143       7.8642
 4620.4632       2.8436       0.4579       8.2043
 4620.3108       2.8692       0.4513       8.9395
 4620.1584       2.8748       0.4056       8.7080
 4620.0060       2.9005       0.3928       8.1962
 4619.8536       2.9248       0.3945       7.8368
 4619.7012       2.8929       0.4060       7.7328
 4619.5488       2.7904       0.4163       7.9468
 4619.3964       2.7240       0.4475       8.3207
 4619.2440       2.6301       0.4120       8.7485
 4619.0916       2.5707       0.3294       8.8462
 4618.9392       2.5893       0.2448       8.2938
 4618.7868       2.6583       0.1572       7.5857
 4618.6344       2.7670       0.0965       6.5034
 4618.4820       2.7651       0.0513       5.5857
 4618.3296       2.7511       0.0532       5.1600
 4618.1772       2.7246       0.0524       4.8181
 4618.0248       2.7465       0.0947       4.7284
 4617.8724       2.7628       0.1172       4.8710
 4617.7200       2.8054       0.1646       5.3210
 4617.5676       2.8392       0.2005       5.4704
 4617.4152       2.7875       0.2014       5.8352
 4617.2628       2.7032       0.1549       5.7334
 4617.1104       2.6683       0.1272       5.4843
 4616.9580       2.6994       0.1101       5.4930
 4616.8056       2.7600       0.1103       5.5934
 4616.6532       2.7514       0.1084       6.4814
 4616.5008       2.7038       0.1245       6.7193
 4616.3484       2.6855       0.1972       7.2319
 4616.1960       2.6748       0.2677       8.0139
 4616.0436       2.6966       0.3423       8.8433
 4615.8912       2.7150       0.4031       9.5630
 4615.7388       2.7196       0.4302       9.7592
