~VERSION INFORMATION
VERS.           2.0   :CWLS Log ASCII Standard - VERSION 2.0
WRAP.           NO    :One Line per depth step
PROD.  Schlumberger   :LAS Producer
PROG.  DLIS to ASCII 11C0-305                          :LAS Program name and version
CREA.        2003/11/03 06:15                          :LAS Creation date {YYYY/MM/DD hh:mm}
SOURCE.     AIT_mainPB1_064PUP.DLIS                    :DLIS File Name
FILE-ID.     AIT_mainPB1_064PUP                        :File Identification Number
#--------------------------------------------------
~WELL INFORMATION
#MNEM.UNIT      DATA             DESCRIPTION
#---- ------ --------------   -----------------------------
STRT .M      4280.0016       :START DEPTH     
STOP .M      3948.9888       :STOP DEPTH     
STEP .M        -0.1524       :STEP     
NULL .          -999.25      :NULL VALUE
COMP .        INPEX Browse, Ltd.                       :COMPANY
WELL .        ICHTHYS DEEP-1                           :WELL
FLD  .        WA-285-P                                 :FIELD
LOC  .        Datum: GDA94 Spheroid GRS80              :LOCATION
CNTY .        Ocean Bounty                             :COUNTY
STAT .        1:200                                    :STATE
CTRY .        Australia                                :COUNTRY
API  .                                                 :API NUMBER
UWI  .                                                 :UNIQUE WELL ID
DATE .        03-Nov-2003                              :LOG DATE {DD-MMM-YYYY}
SRVC .        Schlumberger                             :SERVICE COMPANY
LATI .DEG     13 51' 47.081" S                         :LATITUDE
LONG .DEG     123 13'  56.110" E                       :LONGITUDE
GDAT .                                                 :GeoDetic Datum
#-----------------------------------------------------------------------------
~PARAMETER INFORMATION
#MNEM.UNIT    VALUE                      DESCRIPTION
#---- -----   --------------------       ------------------------
RUN  .          Suite 2 Run 1            :RUN NUMBER
PDAT .        LAT                        :Permanent Datum
EPD  .M           0.000000               :Elevation of Permanent Datum above Mean Sea Level
EPD  .M           0.000000               :Elevation of tool zero above Mean Sea Level
LMF  .          Drill Floor              :Logging Measured From (Name of Logging Elevation Reference)
APD  .M          25.000000               :Elevation of Depth Reference (LMF) above Permanent Datum
#-----------------------------------------------------------------------------
~CURVE INFORMATION
#MNEM.UNIT   API CODE                                  DESCRIPTION
#---- -----  --------                                  -----------------------
DEPT .M                                                :DEPTH (BOREHOLE) {F10.4}
TENS .LBF                                              :Cable Tension {F13.4}
APLU .V/V                                              :APS Near/Array Uncorrected Limestone Porosity {F13.4}
RHOM .G/C3                                             :LDS Corrected Bulk Density {F13.4}
DRH  .G/C3                                             :LDS Bulk Density Correction {F13.4}
PEFL .                                                 :LDS Long-Spaced Corrected Photoelectric Effect {F13.4}
LCAL .IN                                               :LDS Caliper {F13.4}
HSGR .GAPI                                             :HNGS Standard Gamma Ray {F13.4}
CDF  .LBF                                              :Calibrated Downhole Force {F13.4}
APLC .V/V                                              :APS Near/Array Corrected Limestone Porosity {F13.4}
ATD2 .IN                                               :Array Induction Two Foot Outer Diameter of Invasion (D2) {F13.4}
ATD1 .IN                                               :Array Induction Two Foot Inner Diameter of Invasion(D1) {F13.4}
AOD2 .IN                                               :Array Induction One Foot Outer Diameter of Invasion (D2) {F13.4}
AOD1 .IN                                               :Array Induction One Foot Inner Diameter of Invasion (D1) {F13.4}
AT90 .OHMM                                             :Array Induction Two Foot Resistivity A90 {F13.4}
AT60 .OHMM                                             :Array Induction Two Foot Resistivity A60 {F13.4}
AT30 .OHMM                                             :Array Induction Two Foot Resistivity A30 {F13.4}
AT20 .OHMM                                             :Array Induction Two Foot Resistivity A20 {F13.4}
AT10 .OHMM                                             :Array Induction Two Foot Resistivity A10 {F13.4}
AO90 .OHMM                                             :Array Induction One Foot Resistivity A90 {F13.4}
AO60 .OHMM                                             :Array Induction One Foot Resistivity A60 {F13.4}
AO30 .OHMM                                             :Array Induction One Foot Resistivity A30 {F13.4}
AO20 .OHMM                                             :Array Induction One Foot Resistivity A20 {F13.4}
AO10 .OHMM                                             :Array Induction One Foot Resistivity A10 {F13.4}
SIGF .CU                                               :APS Formation Capture Cross-Section {F13.4}
ANEC .HZ                                               :APS Near Detector Count Rate {F13.4}
AFEC .HZ                                               :APS Far Detector Count Rate {F13.4}
A1EP .HZ                                               :APS Array-1 Detector Count Rate {F13.4}
A2EP .HZ                                               :APS Array-2 Detector Count Rate {F13.4}
AFTC .HZ                                               :APS Thermal Detector Count Rate {F13.4}
#-----------------------------------------------------------------------------
# 
#     DEPT        TENS         APLU         RHOM         DRH          PEFL         LCAL         HSGR         CDF          APLC         ATD2         ATD1         AOD2         AOD1         AT90         AT60         AT30         AT20         AT10         AO90         AO60         AO30         AO20         AO10         SIGF         ANEC         AFEC         A1EP         A2EP         AFTC
#
~A  
# ...
 4107.1800    5533.0000       0.0865       2.4461      -0.0160       2.4761       8.7484      26.5886    1346.2786       0.0711      43.5686      10.2389      33.5935      16.0638      93.4615      95.3993     112.4159     114.2552     198.2346     123.1334     119.1175     183.7903     125.9015     291.7252       9.8611    3465.0000    1710.4000    3219.0000    3126.0000    7164.5156
 4107.0276    5515.0000       0.0814       2.4533      -0.0160       2.5407       8.7893      25.8795    1306.1071       0.0666      34.3884      14.2040      27.9557      17.9721      99.5326     103.8312     115.7682     119.6612     226.8958     132.7894     127.0673     128.8224     116.4914     272.2390       9.4077    3477.0000    1797.3334    3100.0000    2985.0000    6572.8091
 4106.8752    5490.0000       0.0913       2.4507      -0.0189       2.3848       8.7903      25.4094    1306.1071       0.0782      27.7258      19.4128      24.9592      21.3492     103.6961     110.2062     115.2715     113.5516     227.2607     108.6459     105.4116     109.9046     111.0832     204.7489       9.6164    3353.0000    1727.2000    3067.0000    2987.0000    6644.5313
 4106.7228    5510.0000       0.0879       2.4578      -0.0211       2.3100       8.7926      24.3362    1303.2631       0.0740      25.3125      23.1267      24.6228      23.8320     107.1291     115.2245     114.6171     112.5006     225.8338     108.5083     118.3483     125.6566     109.3966     214.8606       9.7722    3292.0000    1638.6666    2960.0000    2935.0000    6219.3223
 4106.5704    5345.0000       0.0809       2.4588      -0.0205       2.2364       8.7930      23.1754    1308.9510       0.0657      25.4501      25.1495      25.7950      24.3558     108.5749     118.7459     117.3295     114.2130     230.3437     110.2345     134.4930     136.1567     114.7320     229.3554       9.5327    3413.0000    1686.0000    3084.0000    2872.0000    6375.5737
 4106.4180    5325.0000       0.0752       2.4632      -0.0183       2.1629       8.7930      22.1056    1331.7030       0.0576      26.2113      26.2010      30.8978      22.2806     113.1686     125.1334     122.3218     120.1371     237.5877     120.1934     128.0448     143.8522     120.6132     243.7496       8.8832    3186.0000    1670.0000    3122.0000    3071.0000    6511.3330
 4106.2656    5388.0000       0.0750       2.4606      -0.0162       2.1334       8.7926      21.3125    1357.2991       0.0571      25.5665      25.5610      47.6312      19.1479     121.6788     137.4978     130.6116     128.6812     232.4748     121.8518     113.1732     137.6626     124.7401     237.6132       8.7967    3290.0000    1654.0000    3129.0000    3003.0000    6311.5366
 4106.1132    5423.0000       0.0822       2.4584      -0.0161       2.0892       8.7675      18.8819    1370.0970       0.0653      24.4670      24.1575      76.6703      18.3999     139.5676     158.3638     144.0805     141.4324     226.1387      97.2431     103.9321     128.6114     154.1546     246.9267       9.0437    3294.0000    1708.0000    3042.0000    3035.0000    6257.7451
 4105.9608    5460.0000       0.0907       2.4643      -0.0111       2.1314       8.7236      18.4310    1346.6340       0.0741      27.3890      24.3340      91.6950      23.8998     160.2816     181.9882     168.1423     149.7774     204.1169     106.6950     114.2163     223.6571     164.3366     308.6630       9.5719    3390.0000    1690.0000    2933.0000    2893.0000    6565.1250
 4105.8084    5472.0000       0.0922       2.4659      -0.0081       2.2487       8.7105      20.1639    1315.7056       0.0758      41.7606      28.1070      80.7254      22.8412     151.6656     168.3708     179.6815     170.9650     199.7620     120.3034     119.1846     186.0792     138.1881     256.7648       9.7527    3425.0000    1686.0000    3018.0000    2917.0000    6529.2637
 4105.6560    5373.0000       0.0871       2.4680      -0.0026       2.4892       8.7115      26.8589    1336.6801       0.0710      63.8901      34.0784      61.7851      17.6823     100.6542     117.3341     118.2638     123.6924     153.3039      75.8281      81.1632     109.8184      93.3449     134.0008      10.3511    3402.0000    1726.0000    3098.0000    2974.0000    6698.3232
 4105.5036    5466.0000       0.0914       2.4780       0.0083       2.9663       8.7125      34.7443    1330.6366       0.0759      73.1439      37.6291      45.2675      18.4900      71.8625      81.2140      88.1365      85.6919      90.8139     101.0681     106.8526     104.1696      52.1566     125.0843      11.5066    3352.0000    1562.0000    3001.0000    3054.0000    6383.2588
 4105.3512    5474.0000       0.1008       2.4798       0.0169       2.9256       8.7034      44.8471    1350.1891       0.0829      62.5323      42.9304      42.8705      29.8064      57.0618      63.7417      60.8403      55.6763      53.8167      75.0649      81.0671      78.6896      56.9700      71.8974      12.2173    3278.0000    1644.0000    2784.0000    2845.0000    5717.2681
 4105.1988    5533.0000       0.1054       2.4753       0.0333       3.0979       8.7014      52.6510    1351.9666       0.0857      60.9287      55.7700      48.0373      44.5065      45.7800      51.4902      43.1924      39.1206      38.0625      40.9225      44.1383      31.7407      27.2085      26.4194      12.8914    3308.0000    1489.0000    2779.0000    2742.0000    5348.4121
 4105.0464    5557.0000       0.0947       2.4372       0.0647       3.3178       8.8301      55.5121    1339.8795       0.0666      70.3948      68.4398      56.7924      54.3897      49.8794      55.8532      36.1032      33.2854      34.3595      35.7258      36.6565      38.8630      33.0643      32.3107      13.0108    3311.0000    1468.0000    2750.0000    2798.0000    4554.3472
 4104.8940    5492.0000       0.1172       2.3263       0.0783       5.2030       9.2811      53.1894    1322.8156       0.0805      75.5301      74.6578      71.1204      60.7571      45.9577      50.4162      39.9807      34.7605      36.2214      47.5404      48.4800      37.3292      33.1440      34.4231      13.5632    3100.0000    1533.0000    2855.0000    2837.0000    4959.0645
 4104.7416    5480.0000       0.1491       2.3045       0.1113       7.2827       9.5144      50.6022    1307.5291       0.0998      82.5116      81.2183      91.7715      58.9796      45.3110      49.1493      39.2872      35.7689      38.2896      45.5828      46.9199      41.4690      34.7534      37.9105      12.6582    2978.0000    1442.0000    2215.0000    2184.0000    4188.0527
 4104.5892    5502.0000       0.1871       2.2864       0.1400       7.4544      10.2776      46.6118    1300.4191       0.1307      86.9807      84.8284     107.6553      50.6415      41.1009      44.3586      39.0902      34.7901      43.9584      32.1135      33.4371      43.0565      35.9421      44.5659      13.3143    3068.0000    1199.0000    2210.0000    2116.0000    3511.8164
 4104.4368    5455.0000       0.1909       2.2264       0.1137       7.2322      11.2135      45.0869    1299.7080       0.0964      66.1702      63.0290      94.5392      39.5938      42.0952      45.2583      41.8343      36.7462      46.3539      30.9244      31.9401      40.5327      37.8349      45.8020       9.0712    3112.0000    1141.0000    2270.0000    2220.0000    3591.2231
 4104.2844    5479.0000       0.2029       2.1795       0.0654       6.6110      10.5743      36.8793    1313.9281       0.1094      36.2591      31.9394      65.2042      29.4167      48.4741      52.6539      50.9771      45.6963      52.8897      38.8577      42.0850      41.1935      42.0221      42.8501       7.9744    3038.0000    1224.0000    2264.0000    2144.0000    4136.8228
 4104.1320    5496.0000       0.1911       2.2378       0.0326       5.2059       9.1371      29.5871    1311.0841       0.1683      20.0228      16.1663      50.4237      26.1994      71.0158      78.2755      74.0770      65.3165      73.6854      66.0925      76.2026      79.0764      69.3970      67.7864      10.0857    3201.0000    1314.0000    2256.0000    2205.0000    4280.2666
