~VERSION INFORMATION
VERS.           2.0   :CWLS Log ASCII Standard - VERSION 2.0
WRAP.           NO    :One Line per depth step
PROD.  Schlumberger   :LAS Producer
PROG.  DLIS to ASCII 11C0-305                          :LAS Program name and version
CREA.        2003/11/19 08:49                          :LAS Creation date {YYYY/MM/DD hh:mm}
SOURCE.     AIT_LDL_APS_NGS_011PUP.DLIS                :DLIS File Name
FILE-ID.     AIT_LDL_APS_NGS_011PUP                    :File Identification Number
#--------------------------------------------------
~WELL INFORMATION
#MNEM.UNIT      DATA             DESCRIPTION
#---- ------ --------------   -----------------------------
STRT .M      4859.4264       :START DEPTH     
STOP .M      4018.3308       :STOP DEPTH     
STEP .M        -0.1524       :STEP     
NULL .          -999.25      :NULL VALUE
COMP .        INPEX Browse, Ltd.                       :COMPANY
WELL .        ICHTHYS DEEP-1                           :WELL
FLD  .        WA-285-P                                 :FIELD
LOC  .        Datum: GDA94 Spheroid GRS80              :LOCATION
CNTY .        Ocean Bounty                             :COUNTY
STAT .        1:200                                    :STATE
CTRY .        Australia                                :COUNTRY
API  .                                                 :API NUMBER
UWI  .                                                 :UNIQUE WELL ID
DATE .        16-Nov-2003                              :LOG DATE {DD-MMM-YYYY}
SRVC .        Schlumberger                             :SERVICE COMPANY
LATI .DEG     13 51' 47.081" S                         :LATITUDE
LONG .DEG     123 13'  56.110" E                       :LONGITUDE
GDAT .                                                 :GeoDetic Datum
#-----------------------------------------------------------------------------
~PARAMETER INFORMATION
#MNEM.UNIT    VALUE                      DESCRIPTION
#---- -----   --------------------       ------------------------
RUN  .          Suite 3 Run 1            :RUN NUMBER
PDAT .        LAT                        :Permanent Datum
EPD  .M           0.000000               :Elevation of Permanent Datum above Mean Sea Level
EPD  .M           0.000000               :Elevation of tool zero above Mean Sea Level
LMF  .          Drill Floor              :Logging Measured From (Name of Logging Elevation Reference)
APD  .M          25.000000               :Elevation of Depth Reference (LMF) above Permanent Datum
#-----------------------------------------------------------------------------
~CURVE INFORMATION
#MNEM.UNIT   API CODE                                  DESCRIPTION
#---- -----  --------                                  -----------------------
DEPT .M                                                :DEPTH (BOREHOLE) {F10.4}
RHOM .G/C3                                             :LDS Corrected Bulk Density {F13.4}
DRH  .G/C3                                             :LDS Bulk Density Correction {F13.4}
PEFL .                                                 :LDS Long-Spaced Corrected Photoelectric Effect {F13.4}
#-----------------------------------------------------------------------------
# 
#     DEPT        RHOM         DRH          PEFL
#
~A  
# ...
 4079.1384       2.6027       0.0489       3.3131
 4078.9860       2.5295       0.0467       3.0208
 4078.8336       2.5043       0.0417       2.8613
 4078.6812       2.5230       0.0351       2.8815
 4078.5288       2.5691       0.0340       2.9208
 4078.3764       2.6128       0.0247       2.8869
 4078.2240       2.6405       0.0250       3.1906
 4078.0716       2.6460       0.0288       3.2159
 4077.9192       2.6157       0.0195       3.3185
 4077.7668       2.6049       0.0255       2.9085
 4077.6144       2.6183       0.0427       2.9766
 4077.4620       2.6333       0.0522       2.9986
 4077.3096       2.6220       0.0595       3.3252
 4077.1572       2.5699       0.0588       3.3068
 4077.0048       2.5187       0.0572       3.3906
 4076.8524       2.4952       0.0593       3.1820
 4076.7000       2.4922       0.0688       3.1876
 4076.5476       2.5005       0.0889       3.1295
 4076.3952       2.5055       0.1092       3.4193
 4076.2428       2.5106       0.1134       3.8106
 4076.0904       2.5279       0.1220       3.9732
 4075.9380       2.5454       0.1257       3.8342
 4075.7856       2.5405       0.1165       3.4660
 4075.6332       2.5572       0.1067       3.6567
 4075.4808       2.5711       0.0963       3.7695
 4075.3284       2.5791       0.0847       3.8944
 4075.1760       2.5446       0.0633       3.5848
 4075.0236       2.5154       0.0479       3.2945
 4074.8712       2.4958       0.0235       3.3588
 4074.7188       2.5563       0.0178       3.8163
 4074.5664       2.6739       0.0242       4.6042
 4074.4140       2.7943       0.0345       4.7812
 4074.2616       2.7779       0.0191       4.0327
 4074.1092       2.7086       0.0117       3.2408
 4073.9568       2.6564       0.0109       3.2022
 4073.8044       2.6392       0.0137       3.1444
 4073.6520       2.6548       0.0200       3.2446
 4073.4996       2.6712       0.0182       3.3237
 4073.3472       2.6832       0.0227       3.3651
 4073.1948       2.6940       0.0362       3.4081
 4073.0424       2.6891       0.0337       3.3212
 4072.8900       2.6893       0.0332       3.4875
 4072.7376       2.7021       0.0352       3.5506
 4072.5852       2.7111       0.0356       3.6557
 4072.4328       2.7094       0.0240       3.7673
 4072.2804       2.7191       0.0232       3.9253
 4072.1280       2.7379       0.0262       4.1018
 4071.9756       2.7470       0.0313       3.9605
 4071.8232       2.7362       0.0303       3.9085
 4071.6708       2.7325       0.0303       3.6649
 4071.5184       2.7267       0.0314       3.7370
 4071.3660       2.7226       0.0302       3.7810
 4071.2136       2.6969       0.0252       3.7699
 4071.0612       2.6894       0.0234       3.6416
 4070.9088       2.6840       0.0244       3.4447
 4070.7564       2.6796       0.0236       3.4064
 4070.6040       2.6857       0.0273       3.5537
 4070.4516       2.6884       0.0299       3.5651
 4070.2992       2.6977       0.0364       3.6064
 4070.1468       2.7123       0.0493       3.4229
 4069.9944       2.7085       0.0462       3.2205
 4069.8420       2.7183       0.0493       3.2600
 4069.6896       2.7214       0.0531       3.1966
 4069.5372       2.7218       0.0478       3.3527
 4069.3848       2.7002       0.0319       3.3297
 4069.2324       2.7079       0.0422       3.4228
 4069.0800       2.7010       0.0415       3.6864
 4068.9276       2.6944       0.0368       3.8133
 4068.7752       2.6996       0.0436       3.9001
 4068.6228       2.7132       0.0545       3.6146
 4068.4704       2.7136       0.0523       3.5917
 4068.3180       2.7218       0.0552       3.5043
 4068.1656       2.7194       0.0513       3.5714
 4068.0132       2.7179       0.0481       3.4243
 4067.8608       2.7109       0.0415       3.5070
 4067.7084       2.6985       0.0363       3.5253
 4067.5560       2.6935       0.0312       3.6978
 4067.4036       2.6891       0.0259       3.7001
 4067.2512       2.6934       0.0286       3.8605
 4067.0988       2.7036       0.0260       4.4244
 4066.9464       2.7104       0.0284       4.5840
 4066.7940       2.7263       0.0348       4.3096
 4066.6416       2.7257       0.0417       3.7145
 4066.4892       2.7274       0.0415       3.4491
 4066.3368       2.7256       0.0477       3.3978
 4066.1844       2.7060       0.0456       3.3597
 4066.0320       2.7037       0.0875       3.9696
 4065.8796       2.5886       0.0686       4.9809
 4065.7272       2.5179       0.0550       6.2322
 4065.5748       2.5497       0.0689       5.3199
 4065.4224       2.6490       0.0955       4.3379
 4065.2700       2.6705       0.0628       3.4197
 4065.1176       2.6641       0.0685       3.3228
 4064.9652       2.6703       0.0738       3.4504
 4064.8128       2.6596       0.0641       3.5731
 4064.6604       2.6656       0.0661       3.2799
 4064.5080       2.6870       0.1014       3.1341
 4064.3556       2.6741       0.1291       3.0585
 4064.2032       2.6250       0.1596       3.6380
 4064.0508       2.5999       0.2042       4.0708
 4063.8984       2.5883       0.2381       4.6823
 4063.7460       2.5137       0.2186       4.8947
 4063.5936       2.5342       0.2416       5.3645
 4063.4412       2.5427       0.2257       5.6289
 4063.2888       2.5483       0.1979       5.5711
 4063.1364       2.5810       0.2454       6.3043
 4062.9840       2.5717       0.2896       6.7566
 4062.8316       2.4679       0.2907       7.9370
 4062.6792       2.3730       0.2809       7.5443
 4062.5268       2.3604       0.2740       7.6982
 4062.3744       2.4251       0.2400       6.6341
 4062.2220       2.5532       0.2327       6.0827
 4062.0696       2.5602       0.1501       5.3615
 4061.9172       2.5994       0.1284       5.1622
 4061.7648       2.7274       0.1707       4.6751
 4061.6124       2.7966       0.2137       4.0466
 4061.4600       2.6109       0.1800       4.5310
 4061.3076       2.3788       0.1824       5.8668
 4061.1552       2.2564       0.2064       6.9956
 4061.0028       2.1855       0.1995       7.1624
 4060.8504       2.2507       0.2198       7.1834
 4060.6980       2.3569       0.2309       6.7614
 4060.5456       2.4621       0.2428       6.6106
 4060.3932       2.4677       0.2297       7.3670
 4060.2408       2.2998       0.2099      10.2140
 4060.0884       2.1522       0.1598      10.8844
 4059.9360       2.1214       0.1409       9.8056
 4059.7836       2.2741       0.1791       8.4378
 4059.6312       2.5264       0.2691       7.5951
 4059.4788       2.6183       0.2988       6.9251
 4059.3264       2.5920       0.2742       7.0334
 4059.1740       2.5988       0.2940       6.5233
 4059.0216       2.6340       0.3037       6.2358
 4058.8692       2.6092       0.3002       5.6996
 4058.7168       2.5681       0.3054       6.5147
 4058.5644       2.5370       0.3253       7.1324
 4058.4120       2.5547       0.3232       7.7950
 4058.2596       2.5800       0.3038       7.1832
 4058.1072       2.5602       0.2320       6.8579
 4057.9548       2.5211       0.1544       5.6837
 4057.8024       2.5415       0.1169       5.2354
 4057.6500       2.5922       0.0975       4.7234
 4057.4976       2.6280       0.0776       4.7361
 4057.3452       2.6852       0.1090       4.3587
 4057.1928       2.7502       0.1776       4.1405
 4057.0404       2.7256       0.2341       4.5275
 4056.8880       2.6467       0.2596       5.8358
 4056.7356       2.6298       0.3151       6.9629
 4056.5832       2.6687       0.3695       7.3001
 4056.4308       2.6733       0.3858       7.3208
 4056.2784       2.6680       0.3808       7.2836
 4056.1260       2.6893       0.3828       7.0474
 4055.9736       2.7450       0.3829       6.5196
 4055.8212       2.7475       0.3654       5.9533
 4055.6688       2.6804       0.3349       6.3985
 4055.5164       2.5428       0.3003       7.3892
 4055.3640       2.4859       0.3056       8.8364
 4055.2116       2.4795       0.3222       9.0236
 4055.0592       2.5252       0.3437       8.9335
 4054.9068       2.5894       0.3694       8.7395
