~VERSION INFORMATION
VERS.           2.0   :CWLS Log ASCII Standard - VERSION 2.0
WRAP.           NO    :One Line per depth step
PROD.  Schlumberger   :LAS Producer
PROG.  DLIS to ASCII 11C0-305                          :LAS Program name and version
CREA.        2003/11/03 06:15                          :LAS Creation date {YYYY/MM/DD hh:mm}
SOURCE.     AIT_mainPB1_064PUP.DLIS                    :DLIS File Name
FILE-ID.     AIT_mainPB1_064PUP                        :File Identification Number
#--------------------------------------------------
~WELL INFORMATION
#MNEM.UNIT      DATA             DESCRIPTION
#---- ------ --------------   -----------------------------
STRT .M      4280.0016       :START DEPTH     
STOP .M      3948.9888       :STOP DEPTH     
STEP .M        -0.1524       :STEP     
NULL .          -999.25      :NULL VALUE
COMP .        INPEX Browse, Ltd.                       :COMPANY
WELL .        ICHTHYS DEEP-1                           :WELL
FLD  .        WA-285-P                                 :FIELD
LOC  .        Datum: GDA94 Spheroid GRS80              :LOCATION
CNTY .        Ocean Bounty                             :COUNTY
STAT .        1:200                                    :STATE
CTRY .        Australia                                :COUNTRY
API  .                                                 :API NUMBER
UWI  .                                                 :UNIQUE WELL ID
DATE .        03-Nov-2003                              :LOG DATE {DD-MMM-YYYY}
SRVC .        Schlumberger                             :SERVICE COMPANY
LATI .DEG     13 51' 47.081" S                         :LATITUDE
LONG .DEG     123 13'  56.110" E                       :LONGITUDE
GDAT .                                                 :GeoDetic Datum
#-----------------------------------------------------------------------------
~PARAMETER INFORMATION
#MNEM.UNIT    VALUE                      DESCRIPTION
#---- -----   --------------------       ------------------------
RUN  .          Suite 2 Run 1            :RUN NUMBER
PDAT .        LAT                        :Permanent Datum
EPD  .M           0.000000               :Elevation of Permanent Datum above Mean Sea Level
EPD  .M           0.000000               :Elevation of tool zero above Mean Sea Level
LMF  .          Drill Floor              :Logging Measured From (Name of Logging Elevation Reference)
APD  .M          25.000000               :Elevation of Depth Reference (LMF) above Permanent Datum
#-----------------------------------------------------------------------------
~CURVE INFORMATION
#MNEM.UNIT   API CODE                                  DESCRIPTION
#---- -----  --------                                  -----------------------
DEPT .M                                                :DEPTH (BOREHOLE) {F10.4}
TENS .LBF                                              :Cable Tension {F13.4}
APLU .V/V                                              :APS Near/Array Uncorrected Limestone Porosity {F13.4}
RHOM .G/C3                                             :LDS Corrected Bulk Density {F13.4}
DRH  .G/C3                                             :LDS Bulk Density Correction {F13.4}
PEFL .                                                 :LDS Long-Spaced Corrected Photoelectric Effect {F13.4}
LCAL .IN                                               :LDS Caliper {F13.4}
HSGR .GAPI                                             :HNGS Standard Gamma Ray {F13.4}
CDF  .LBF                                              :Calibrated Downhole Force {F13.4}
APLC .V/V                                              :APS Near/Array Corrected Limestone Porosity {F13.4}
ATD2 .IN                                               :Array Induction Two Foot Outer Diameter of Invasion (D2) {F13.4}
ATD1 .IN                                               :Array Induction Two Foot Inner Diameter of Invasion(D1) {F13.4}
AOD2 .IN                                               :Array Induction One Foot Outer Diameter of Invasion (D2) {F13.4}
AOD1 .IN                                               :Array Induction One Foot Inner Diameter of Invasion (D1) {F13.4}
AT90 .OHMM                                             :Array Induction Two Foot Resistivity A90 {F13.4}
AT60 .OHMM                                             :Array Induction Two Foot Resistivity A60 {F13.4}
AT30 .OHMM                                             :Array Induction Two Foot Resistivity A30 {F13.4}
AT20 .OHMM                                             :Array Induction Two Foot Resistivity A20 {F13.4}
AT10 .OHMM                                             :Array Induction Two Foot Resistivity A10 {F13.4}
AO90 .OHMM                                             :Array Induction One Foot Resistivity A90 {F13.4}
AO60 .OHMM                                             :Array Induction One Foot Resistivity A60 {F13.4}
AO30 .OHMM                                             :Array Induction One Foot Resistivity A30 {F13.4}
AO20 .OHMM                                             :Array Induction One Foot Resistivity A20 {F13.4}
AO10 .OHMM                                             :Array Induction One Foot Resistivity A10 {F13.4}
SIGF .CU                                               :APS Formation Capture Cross-Section {F13.4}
ANEC .HZ                                               :APS Near Detector Count Rate {F13.4}
AFEC .HZ                                               :APS Far Detector Count Rate {F13.4}
A1EP .HZ                                               :APS Array-1 Detector Count Rate {F13.4}
A2EP .HZ                                               :APS Array-2 Detector Count Rate {F13.4}
AFTC .HZ                                               :APS Thermal Detector Count Rate {F13.4}
#-----------------------------------------------------------------------------
# 
#     DEPT        TENS         APLU         RHOM         DRH          PEFL         LCAL         HSGR         CDF          APLC         ATD2         ATD1         AOD2         AOD1         AT90         AT60         AT30         AT20         AT10         AO90         AO60         AO30         AO20         AO10         SIGF         ANEC         AFEC         A1EP         A2EP         AFTC
#
~A  
# ...
 4017.5688    5409.0000       0.3204       2.1473      -1.0544      69.5992       8.7031      68.2311    1271.6235       0.3065     141.8289     109.9812     212.0452     210.3218       4.1107       4.1610       5.5964       7.4310       7.1461       4.1809       4.0562       5.6280       8.0236       6.7007      34.4040    3216.0000     692.0000    1963.0000    1969.0000    1534.3386
 4017.4164    5370.0000       0.3093       2.3406      -1.0178      43.8397       8.7048      64.2904    1274.8230       0.2966     128.7269     115.0567     205.8282     205.4931       4.1106       4.1610       5.5963       7.4310       7.1461       4.1808       4.0562       5.6279       8.0236       6.7007      32.8717    3313.0000     710.0000    2026.0000    2040.0000    1511.2852
 4017.2640    5386.0000       0.2976       2.3885      -0.9938      42.1723       8.7380      65.3142    1272.6901       0.2832     122.3668     117.8109     208.7805     208.5057       4.1105       4.1609       5.5963       7.4310       7.1461       4.1808       4.0562       5.6279       8.0236       6.7007      35.9882    3436.0000     707.0000    2012.0000    2032.0000    1451.5167
 4017.1116    5384.0000       0.2977       2.2229      -1.0291      52.1200       8.7514      64.9405    1275.1786       0.2823     125.8847     118.6112     222.6743     222.1873       4.1104       4.1609       5.5963       7.4310       7.1461       4.1808       4.0561       5.6279       8.0236       6.7007      38.6387    3245.0000     759.0000    2020.0000    2017.0000    1142.4291
 4016.9592    5356.0000       0.3047       2.1765      -0.9471      70.5921       8.7517      68.2098    1275.5341       0.2899     136.0604     115.9526     234.7325     234.2539       4.1103       4.1608       5.5963       7.4310       7.1461       4.1807       4.0561       5.6279       8.0236       6.7007      37.7060    3223.0000     762.0000    2068.0000    2033.0000    1206.4666
 4016.8068    5382.0000       0.3029       2.1505      -0.9051      49.5240       8.7514      69.4366    1273.0455       0.2874     142.4364     114.1458     232.4236     232.1666       4.1103       4.1608       5.5963       7.4310       7.1461       4.1807       4.0561       5.6278       8.0236       6.7007      35.4576    3256.0000     740.0000    1942.0000    1947.0000    1554.8306
 4016.6544    5417.0000       0.3044       2.1252      -0.9113     378.2168       8.7497      76.1514    1275.1786       0.2872     136.2861     116.4869     224.8747     224.7825       4.1102       4.1607       5.5963       7.4310       7.1461       4.1807       4.0561       5.6278       8.0236       6.7007      37.5471    3244.0000     731.0000    1909.0000    1927.0000    1565.0765
 4016.5020    5458.0000       0.3170       2.1063      -0.9151      96.6247       8.7497      80.5766    1274.8230       0.3021     129.2715     117.9832     220.6139     220.5491       4.1102       4.1607       5.5963       7.4310       7.1461       4.1807       4.0561       5.6278       8.0236       6.7007      34.9834    3127.0000     723.0000    2082.0000    1887.0000    1483.1085
 4016.3496    5480.0000       0.3048       2.0941      -0.9183     184.0303       8.7497      81.0580    1275.8895       0.2906     137.1841     113.9571     219.1338     219.0220       4.1101       4.1607       5.5962       7.4310       7.1461       4.1806       4.0561       5.6278       8.0236       6.7007      32.3357    3096.0000     716.0000    1893.0000    1845.0000    1385.7715
 4016.1972    5473.0000       0.3106       2.1042      -0.9232    -999.2500       8.7447      78.9078    1276.9561       0.2977     164.9761     103.8184     217.0493     216.5932       4.1101       4.1607       5.5962       7.4310       7.1461       4.1806       4.0561       5.6278       8.0236       6.7007      32.7240    3246.0000     712.0000    2033.0000    1965.0000    1477.9855
 4016.0448    5441.0000       0.3077       2.1362      -0.9191    -124.3174       8.7430      75.8210    1274.4675       0.2942     194.2488      93.5382     224.9334     222.8279       4.1100       4.1607       5.5962       7.4310       7.1461       4.1806       4.0561       5.6278       8.0236       6.7007      34.2241    3251.0000     721.0000    1909.0000    2002.0000    1457.4937
 4015.8924    5417.0000       0.3298       2.1204      -0.9248     313.1489       8.7380      75.4923    1274.8230       0.3188     203.9816      91.0692     234.5296     229.7589       4.1100       4.1606       5.5962       7.4310       7.1461       4.1806       4.0560       5.6278       8.0236       6.7007      35.5867    3269.0000     713.0000    1921.0000    1946.0000    1408.8250
 4015.7400    5418.0000       0.3365       2.0843      -0.9408      27.5717       8.7363      75.7754    1267.0021       0.3256     195.4221      94.4971     234.3580     227.3164       4.1100       4.1606       5.5962       7.4310       7.1461       4.1805       4.0560       5.6278       8.0236       6.7007      36.9198    3248.0000     701.0000    1920.0000    1927.0000    1503.6006
 4015.5876    5396.0000       0.3532       2.0683      -0.9426      34.8499       8.7380      77.5597    1268.7795       0.3423     166.8705     105.1578     222.0785     213.9799       4.1100       4.1606       5.5962       7.4310       7.1461       4.1805       4.0560       5.6277       8.0236       6.7007      38.6570    3277.0000     668.0000    1867.0000    1931.0000    1380.6484
 4015.4352    5391.0000       0.3606       2.0639      -0.9448      30.7849       8.7383      78.8690    1267.0021       0.3497     139.0253     114.8129     207.6443     201.0259       4.1099       4.1606       5.5962       7.4310       7.1461       4.1805       4.0560       5.6277       8.0236       6.7007      40.9313    3200.0000     695.0000    1827.0000    1838.0000    1380.6486
 4015.2828    5392.0000       0.3683       2.0356      -0.9551      65.4574       8.7358      77.6925    1269.8461       0.3572     129.6287     118.5189     203.9771     200.7819       4.1099       4.1606       5.5962       7.4310       7.1461       4.1805       4.0560       5.6277       8.0236       6.7007      40.8228    3251.0000     664.0000    1844.0000    1842.0000    1439.5631
 4015.1304    5392.0000       0.3608       2.0059      -0.9584     100.0799       8.7380      74.7328    1270.2015       0.3499     138.3154     115.1467     210.5104     209.4594       4.1099       4.1606       5.5962       7.4310       7.1461       4.1805       4.0560       5.6277       8.0236       6.7007      40.6304    3160.0000     667.0000    1892.0000    1779.0000    1385.7715
 4014.9780    5331.0000       0.3706       2.0004      -0.9578    -456.9386       8.7380      75.2178    1272.3346       0.3596     150.2056     108.7865     220.6218     219.7924       4.1099       4.1606       5.5962       7.4310       7.1461       4.1805       4.0560       5.6277       8.0236       6.7007      39.0757    3184.0000     695.0000    1850.0000    1801.0000    1416.5095
 4014.8256    5367.0000       0.3771       2.0205      -0.9636      85.3728       8.7383      77.0357    1272.3346       0.3659     155.6933     102.0172     228.5762     227.8235       4.1099       4.1606       5.5962       7.4310       7.1461       4.1805       4.0560       5.6277       8.0236       6.7007      37.4157    3142.0000     633.0000    1747.0000    1817.0000    1483.1085
 4014.6732    5311.0000       0.3675       2.0451      -0.9549      60.2003       8.7366      78.3737    1271.6235       0.3565     158.4484      95.4668     223.7321     223.1189       4.1099       4.1606       5.5962       7.4310       7.1461       4.1805       4.0560       5.6277       8.0236       6.7007      36.3959    3172.0000     677.0000    1789.0000    1809.0000    1385.7715
 4014.5208    5347.0000       0.3608       2.0676      -0.9447      42.2979       8.7358      79.8842    1272.6901       0.3499     162.5049      94.7990     218.9145     218.1788       4.1099       4.1606       5.5962       7.4310       7.1461       4.1805       4.0560       5.6277       8.0236       6.7007      37.2577    3237.0000     689.0000    1919.0000    1834.0000    1411.3865
