~VERSION INFORMATION
VERS.           2.0   :CWLS Log ASCII Standard - VERSION 2.0
WRAP.           NO    :One Line per depth step
PROD.  Schlumberger   :LAS Producer
PROG.  DLIS to ASCII 11C0-305                          :LAS Program name and version
CREA.        2003/11/03 06:15                          :LAS Creation date {YYYY/MM/DD hh:mm}
SOURCE.     AIT_mainPB1_064PUP.DLIS                    :DLIS File Name
FILE-ID.     AIT_mainPB1_064PUP                        :File Identification Number
#--------------------------------------------------
~WELL INFORMATION
#MNEM.UNIT      DATA             DESCRIPTION
#---- ------ --------------   -----------------------------
STRT .M      4280.0016       :START DEPTH     
STOP .M      3948.9888       :STOP DEPTH     
STEP .M        -0.1524       :STEP     
NULL .          -999.25      :NULL VALUE
COMP .        INPEX Browse, Ltd.                       :COMPANY
WELL .        ICHTHYS DEEP-1                           :WELL
FLD  .        WA-285-P                                 :FIELD
LOC  .        Datum: GDA94 Spheroid GRS80              :LOCATION
CNTY .        Ocean Bounty                             :COUNTY
STAT .        1:200                                    :STATE
CTRY .        Australia                                :COUNTRY
API  .                                                 :API NUMBER
UWI  .                                                 :UNIQUE WELL ID
DATE .        03-Nov-2003                              :LOG DATE {DD-MMM-YYYY}
SRVC .        Schlumberger                             :SERVICE COMPANY
LATI .DEG     13 51' 47.081" S                         :LATITUDE
LONG .DEG     123 13'  56.110" E                       :LONGITUDE
GDAT .                                                 :GeoDetic Datum
#-----------------------------------------------------------------------------
~PARAMETER INFORMATION
#MNEM.UNIT    VALUE                      DESCRIPTION
#---- -----   --------------------       ------------------------
RUN  .          Suite 2 Run 1            :RUN NUMBER
PDAT .        LAT                        :Permanent Datum
EPD  .M           0.000000               :Elevation of Permanent Datum above Mean Sea Level
EPD  .M           0.000000               :Elevation of tool zero above Mean Sea Level
LMF  .          Drill Floor              :Logging Measured From (Name of Logging Elevation Reference)
APD  .M          25.000000               :Elevation of Depth Reference (LMF) above Permanent Datum
#-----------------------------------------------------------------------------
~CURVE INFORMATION
#MNEM.UNIT   API CODE                                  DESCRIPTION
#---- -----  --------                                  -----------------------
DEPT .M                                                :DEPTH (BOREHOLE) {F10.4}
TENS .LBF                                              :Cable Tension {F13.4}
APLU .V/V                                              :APS Near/Array Uncorrected Limestone Porosity {F13.4}
RHOM .G/C3                                             :LDS Corrected Bulk Density {F13.4}
DRH  .G/C3                                             :LDS Bulk Density Correction {F13.4}
PEFL .                                                 :LDS Long-Spaced Corrected Photoelectric Effect {F13.4}
LCAL .IN                                               :LDS Caliper {F13.4}
HSGR .GAPI                                             :HNGS Standard Gamma Ray {F13.4}
CDF  .LBF                                              :Calibrated Downhole Force {F13.4}
APLC .V/V                                              :APS Near/Array Corrected Limestone Porosity {F13.4}
ATD2 .IN                                               :Array Induction Two Foot Outer Diameter of Invasion (D2) {F13.4}
ATD1 .IN                                               :Array Induction Two Foot Inner Diameter of Invasion(D1) {F13.4}
AOD2 .IN                                               :Array Induction One Foot Outer Diameter of Invasion (D2) {F13.4}
AOD1 .IN                                               :Array Induction One Foot Inner Diameter of Invasion (D1) {F13.4}
AT90 .OHMM                                             :Array Induction Two Foot Resistivity A90 {F13.4}
AT60 .OHMM                                             :Array Induction Two Foot Resistivity A60 {F13.4}
AT30 .OHMM                                             :Array Induction Two Foot Resistivity A30 {F13.4}
AT20 .OHMM                                             :Array Induction Two Foot Resistivity A20 {F13.4}
AT10 .OHMM                                             :Array Induction Two Foot Resistivity A10 {F13.4}
AO90 .OHMM                                             :Array Induction One Foot Resistivity A90 {F13.4}
AO60 .OHMM                                             :Array Induction One Foot Resistivity A60 {F13.4}
AO30 .OHMM                                             :Array Induction One Foot Resistivity A30 {F13.4}
AO20 .OHMM                                             :Array Induction One Foot Resistivity A20 {F13.4}
AO10 .OHMM                                             :Array Induction One Foot Resistivity A10 {F13.4}
SIGF .CU                                               :APS Formation Capture Cross-Section {F13.4}
ANEC .HZ                                               :APS Near Detector Count Rate {F13.4}
AFEC .HZ                                               :APS Far Detector Count Rate {F13.4}
A1EP .HZ                                               :APS Array-1 Detector Count Rate {F13.4}
A2EP .HZ                                               :APS Array-2 Detector Count Rate {F13.4}
AFTC .HZ                                               :APS Thermal Detector Count Rate {F13.4}
#-----------------------------------------------------------------------------
# 
#     DEPT        TENS         APLU         RHOM         DRH          PEFL         LCAL         HSGR         CDF          APLC         ATD2         ATD1         AOD2         AOD1         AT90         AT60         AT30         AT20         AT10         AO90         AO60         AO30         AO20         AO10         SIGF         ANEC         AFEC         A1EP         A2EP         AFTC
#
~A  
# ...
 4039.9716    5417.0000       0.2747       2.6331      -0.0132       3.8748      13.3226      38.3256    1260.2476       0.1745     210.4664     208.7293     176.6419     172.2743      22.7049      28.4414      37.9332      43.2285      38.8624      26.4293      31.4643      43.5194      43.5276      40.3124      22.5108    2796.0000     710.0000    1781.0000    1734.0000    2123.4836
 4039.8192    5419.0000       0.2739       2.6151      -0.0178       3.7625      13.3703      38.3379    1261.3141       0.1784     211.3165     210.0723     183.5206     178.6120      20.1924      24.4533      34.1949      37.8074      34.5205      19.7393      22.6131      36.5201      40.9801      36.5846      22.4214    2741.0000     710.0000    1774.0000    1766.0000    2215.6975
 4039.6668    5417.0000       0.2804       2.6086      -0.0244       4.1973      13.3829      39.5873    1264.1581       0.1760     191.3619     190.8505     176.9863     172.0004      18.5359      22.0680      29.8568      32.7700      30.9373      20.4321      23.6262      34.2262      35.0645      34.4748      21.1695    2818.0000     697.0000    1753.0000    1770.0000    2279.7351
 4039.5144    5384.0000       0.2743       2.6317      -0.0213       4.6710      13.2809      41.8555    1264.8690       0.1702     162.0784     161.6992     164.8036     155.6703      18.3516      21.6494      28.0109      28.4906      27.5009      20.6343      24.7942      33.2719      28.6556      32.4169      19.4230    2849.0000     709.0000    1793.0000    1703.0000    2209.7209
 4039.3620    5436.0000       0.2801       2.6428      -0.0222       4.8775      13.2774      39.6029    1265.5801       0.1760     132.3100     130.6832     165.0627     148.4357      16.8750      19.8705      22.6000      23.2531      23.7542      19.0431      21.4316      24.6977      20.5756      23.7955      17.0744    2821.3333     734.0000    1769.3334    1790.6666    2146.5371
 4039.2096    5333.0000       0.2774       2.6403      -0.0233       4.4273      13.2788      40.4577    1267.0021       0.1733     109.3404     104.5921     153.3219     128.1905      14.9387      17.3071      18.6073      18.4441      18.8147      15.4031      17.8110      20.8091      16.9574      18.9114      19.2580    2727.0000     668.0000    1789.0000    1730.0000    2187.5210
 4039.0572    5304.0000       0.2684       2.6250      -0.0286       3.9547      13.2562      41.1430    1264.5135       0.1645      82.7235      75.8345     114.2346      85.5089      13.3188      15.2056      15.8834      15.5753      15.6417      14.0342      16.1579      16.3409      13.9375      15.5172      16.4577    2840.0000     675.0000    1763.0000    1842.0000    2154.2214
 4038.9048    5324.0000       0.2657       2.6488      -0.0232       4.1818      13.2094      44.7658    1265.9355       0.1619      48.9721      43.7984      62.4795      41.3773      12.0112      13.5977      13.3259      12.8234      12.6561      11.4666      13.0068      12.5440      11.3882      11.9044      16.4055    2911.0000     706.0000    1794.0000    1827.0000    2151.6602
 4038.7524    5311.0000       0.2762       2.6701      -0.0235       4.4434      13.1791      45.6161    1262.7361       0.1724      31.5051      24.3858      40.6502      21.2913      11.6313      13.2873      12.1067      11.9086      12.2633      11.7811      13.2296      12.4864      11.8121      11.9425      19.8318    2771.0000     657.0000    1800.0000    1765.0000    2131.1680
 4038.6000    5308.0000       0.2835       2.6942      -0.0227       5.6404      13.1446      46.0337    1262.3805       0.1798      58.9000      30.9967      77.5857      39.7598      11.7909      13.3579      12.9911      13.1282      13.8509      13.5050      15.3266      14.3838      13.0691      13.6154      23.1229    2833.0000     693.0000    1768.0000    1820.0000    2126.0449
 4038.4476    5278.0000       0.2821       2.7091      -0.0221       5.7905      13.0420      47.1541    1260.9585       0.1786     112.9357      38.8001     126.7150      65.0752      11.4200      12.8478      12.9391      13.2845      13.9271      11.2282      12.4113      13.4068      12.3444      14.0294      23.7712    2900.0000     645.3333    1743.0000    1810.0000    2156.7830
 4038.2952    5320.0000       0.2945       2.7353      -0.0177       5.8870      13.0155      45.8484    1262.7361       0.1911     150.6496      31.7642     155.4483      82.3451      10.2230      11.3484      11.8085      11.9435      12.8769       9.0698       9.9097      12.0122      11.5595      13.3190      25.0526    2884.0000     622.0000    1791.0000    1803.0000    2013.3389
 4038.1428    5333.0000       0.3030       2.7429      -0.0222       5.6361      13.0167      43.3320    1263.0916       0.1998     154.2978      20.1965     161.9119      82.9948       9.0792       9.9533      10.3254      10.5056      11.6162       7.3558       7.7553       9.6796       9.9848      11.3585      27.9605    2919.0000     683.0000    1687.0000    1774.0000    2023.5850
 4037.9904    5356.0000       0.3250       2.7505      -0.0207       5.1253      12.9825      43.1709    1266.2910       0.2217     154.8122      15.1518     164.7790      66.6433       8.5035       9.2681      10.0127      10.2956      11.5590       7.7105       8.2838       9.9665      10.4851      11.3966      29.5493    2812.0000     612.0000    1665.0000    1688.0000    1918.5636
 4037.8380    5335.0000       0.3318       2.7295      -0.0178       5.0130      12.9712      51.7827    1266.2910       0.2285     166.0173      14.4598     174.2729      39.6157       8.3259       9.0640      10.0569      10.5568      11.8853       8.1883       8.8545      10.3961      10.2509      12.3809      29.4124    2718.0000     686.0000    1615.0000    1672.0000    1967.2321
 4037.6856    5345.0000       0.3066       2.6749      -0.0183       4.0373      13.0080      68.5244    1268.4241       0.2033     182.6984      14.7125     194.1239      22.1308       8.1126       8.8114       9.8946      10.4234      11.8365       8.2229       8.9301      10.2165      10.4167      11.9664      30.5622    2836.0000     696.0000    1594.0000    1714.0000    2069.6919
 4037.5332    5337.0000       0.2964       2.6273      -0.0197       3.7314      12.9431      90.8068    1270.9126       0.1933     203.2726      15.2385     219.0262      18.0832       7.8392       8.5117       9.5819      10.1092      11.2942       7.8147       8.4752       9.6901      10.0603      11.2195      32.9637    2782.0000     681.3333    1727.0000    1831.0000    2021.0234
 4037.3808    5380.0000       0.3076       2.6111      -0.0123       3.3801      12.8943     108.2877    1270.9126       0.2045     222.6755      16.3398     232.7638      22.3416       7.5678       8.2091       9.2717       9.8375      10.9116       7.5152       8.1011       9.1229       9.6679      10.6039      34.1427    2807.0000     660.0000    1629.0000    1726.0000    1956.9861
 4037.2284    5373.0000       0.3374       2.6305      -0.0086       3.5421      12.9100     121.6256    1271.6235       0.2344     235.3883      16.9879     231.2623      28.4011       7.3464       7.9759       9.0076       9.6075      10.5789       7.2646       7.7549       9.0163       9.5908      10.5260      35.8532    2730.0000     650.0000    1548.0000    1618.0000    1857.0875
 4037.0760    5376.0000       0.3712       2.6390      -0.0092       3.6737      12.9312     127.9974    1269.1350       0.2736     239.0407      18.1726     219.8645      35.8785       7.3693       7.9767       8.8199       9.2262      10.0436       7.0704       7.5153       9.0674       9.6131      10.5429      37.7690    2699.0000     644.0000    1543.0000    1618.0000    1900.6331
 4036.9236    5373.0000       0.3641       2.6470      -0.0099       3.8622      13.0080     132.8643    1270.5570       0.2611     239.4932      19.4067     199.1690      48.8700       6.9568       7.4923       8.3043       8.8874       9.6257       6.5596       6.9375       8.2017       8.6402       9.5102      38.4937    2737.0000     658.0000    1529.0000    1536.0000    2049.2000
