~VERSION INFORMATION
VERS.           2.0   :CWLS Log ASCII Standard - VERSION 2.0
WRAP.           NO    :One Line per depth step
PROD.  Schlumberger   :LAS Producer
PROG.  DLIS to ASCII 11C0-305                          :LAS Program name and version
CREA.        2003/11/19 08:45                          :LAS Creation date {YYYY/MM/DD hh:mm}
SOURCE.     UBI_Mainpb1_036PUP.DLIS                    :DLIS File Name
FILE-ID.     UBI_Mainpb1_036PUP                        :File Identification Number
#--------------------------------------------------
~WELL INFORMATION
#MNEM.UNIT      DATA             DESCRIPTION
#---- ------ --------------   -----------------------------
STRT .M      4859.4264       :START DEPTH     
STOP .M      4016.0448       :STOP DEPTH     
STEP .M        -0.1524       :STEP     
NULL .          -999.25      :NULL VALUE
COMP .        INPEX Browse, Ltd.                       :COMPANY
WELL .        ICHTHYS DEEP-1                           :WELL
FLD  .        WA-285-P                                 :FIELD
LOC  .        Datum: GDA94 Spheroid GRS80              :LOCATION
CNTY .        Ocean Bounty                             :COUNTY
STAT .        1:200                                    :STATE
CTRY .        Australia                                :COUNTRY
API  .                                                 :API NUMBER
UWI  .                                                 :UNIQUE WELL ID
DATE .        16-Nov-2003                              :LOG DATE {DD-MMM-YYYY}
SRVC .        Schlumberger                             :SERVICE COMPANY
LATI .DEG     13 51' 47.081" S                         :LATITUDE
LONG .DEG     123 13'  56.110" E                       :LONGITUDE
GDAT .                                                 :GeoDetic Datum
#-----------------------------------------------------------------------------
~PARAMETER INFORMATION
#MNEM.UNIT    VALUE                      DESCRIPTION
#---- -----   --------------------       ------------------------
RUN  .          Suite 3 Run 1            :RUN NUMBER
PDAT .        LAT                        :Permanent Datum
EPD  .M           0.000000               :Elevation of Permanent Datum above Mean Sea Level
EPD  .M           0.000000               :Elevation of tool zero above Mean Sea Level
LMF  .          Drill Floor              :Logging Measured From (Name of Logging Elevation Reference)
APD  .M          25.000000               :Elevation of Depth Reference (LMF) above Permanent Datum
#-----------------------------------------------------------------------------
~CURVE INFORMATION
#MNEM.UNIT   API CODE                                  DESCRIPTION
#---- -----  --------                                  -----------------------
DEPT .M                                                :DEPTH (BOREHOLE) {F10.4}
LCAL .IN                                               :LDS Caliper {F13.4}
GR   .GAPI                                             :Gamma Ray {F13.4}
#-----------------------------------------------------------------------------
# 
#     DEPT        LCAL         GR
#
~A  
# ...
 4297.2228       8.4278      24.1177
 4297.0704       8.5221      31.3911
 4296.9180       8.5091      49.8555
 4296.7656       8.5205      82.5195
 4296.6132       8.5252      99.9756
 4296.4608       8.8516      86.4868
 4296.3084       8.7970      53.7897
 4296.1560       8.6753      28.7958
 4296.0036       8.6190      22.5804
 4295.8512       8.6154      31.5777
 4295.6988       8.5933      67.8866
 4295.5464       8.5829     118.0445
 4295.3940       8.7078     161.7377
 4295.2416       8.9850     174.3587
 4295.0892       8.7423     168.7667
 4294.9368       8.5287     157.6087
 4294.7844       8.6312     157.6087
 4294.6320       8.6541     156.8152
 4294.4796       8.5407     162.3942
 4294.3272       8.5035     162.6587
 4294.1748       8.4761     161.2041
 4294.0224       8.4754     159.6171
 4293.8700       8.4721     156.7739
 4293.7176       8.4719     165.3697
 4293.5652       8.4740     166.5599
 4293.4128       8.5009     165.8326
 4293.2604       8.5028     155.2118
 4293.1080       8.5342     151.7735
 4292.9556       8.5332     154.6261
 4292.8032       8.5531     157.3537
 4292.6508       8.6176     155.1055
 4292.4984       8.7134     155.1622
 4292.3460       8.6890     158.9559
 4292.1936       8.6802     162.6835
 4292.0412       8.6698     151.1784
 4291.8888       8.6602     138.6153
 4291.7364       8.6458     126.2919
 4291.5840       8.6407     135.6812
 4291.4316       8.6348     142.0288
 4291.2792       8.6074     151.9966
 4291.1268       8.5947     150.0130
 4290.9744       8.5959     154.6663
 4290.8220       8.6006     153.1620
 4290.6696       8.5582     151.5751
 4290.5172       8.5620     148.5087
 4290.3648       8.5572     147.7153
 4290.2124       8.5452     149.4344
 4290.0600       8.5339     150.3601
 4289.9076       8.5436     143.8802
 4289.7552       8.5716     140.1774
 4289.6028       8.5686     141.4502
 4289.4504       8.5719     157.9806
 4289.2980       8.5711     165.5184
 4289.1456       8.5619     169.6676
 4288.9932       8.5551     161.2040
 4288.8408       8.5556     153.0050
 4288.6884       8.5202     148.5087
 4288.5360       8.4927     150.5833
 4288.3836       8.5070     157.4599
 4288.2312       8.5344     159.7080
 4288.0788       8.5334     156.8566
 4287.9264       8.5351     155.9875
 4287.7740       8.5355     155.3263
 4287.6216       8.5358     161.7897
 4287.4692       8.5193     163.6671
 4287.3168       8.5054     161.4189
 4287.1644       8.4995     158.1129
 4287.0120       8.4792     154.7655
 4286.8596       8.4745     151.7239
 4286.7072       8.4940     151.1949
 4286.5548       8.4804     151.6826
 4286.4024       8.4743     160.1461
 4286.2500       8.4757     165.0391
 4286.0976       8.4750     169.5353
 4285.9452       8.4844     166.3615
 4285.7928       8.4983     163.3034
 4285.6404       8.4960     165.4193
 4285.4880       8.5025     162.5099
 4285.3356       8.4957     167.9484
 4285.1832       8.5007     162.6587
 4285.0308       8.5007     154.8564
 4284.8784       8.5106     136.8714
 4284.7260       8.7166     128.6144
 4284.5736       8.9533     133.1107
 4284.4212       8.5487     143.2934
 4284.2688       8.5160     152.4760
 4284.1164       8.4981     168.4774
 4283.9640       8.5009     170.3288
 4283.8116       8.5021     167.0228
 4283.6592       8.4962     156.0466
 4283.5068       8.5023     161.0222
 4283.3544       8.5306     164.0638
 4283.2020       8.5396     167.2376
 4283.0496       8.5257     156.8235
 4282.8972       8.5023     154.9721
 4282.7448       8.5021     153.5174
 4282.5924       8.5122     160.5428
 4282.4400       8.5030     162.6587
 4282.2876       8.4945     164.7746
 4282.1352       8.4960     170.4611
 4281.9828       8.4984     169.0064
 4281.8304       8.4990     160.6586
 4281.6780       8.5009     148.2277
 4281.5256       8.5037     140.8221
 4281.3732       8.4990     148.7732
 4281.2208       8.4990     159.1543
 4281.0684       8.5031     164.9730
 4280.9160       8.4766     163.4687
 4280.7636       8.4479     154.1456
 4280.6112       8.4495     158.6418
 4280.4588       8.5018     157.7657
 4280.3064       8.4924     162.6257
 4280.1540       8.4875     162.0967
 4280.0016       8.7928     161.5205
 4279.8492       8.8122     158.1152
 4279.6968       8.7047     143.8330
 4279.5444       8.7491     122.7214
 4279.3920       8.6595     105.1331
 4279.2396       8.6967     102.7527
 4279.0872       8.5575     118.2499
 4278.9348       8.5848     119.1756
 4278.7824       8.6612      98.2812
 4278.6300       8.6873      58.6969
 4278.4776       8.6831      33.1740
 4278.3252       8.6539      23.5533
 4278.1728       8.3822      20.7951
 4278.0204       8.3399      17.7535
 4277.8680       8.3389      15.7368
 4277.7156       8.3280      15.3070
 4277.5632       8.3207      14.6458
 4277.4108       8.3238      13.3234
 4277.2584       8.3226      15.3401
 4277.1060       8.3525      15.6046
 4276.9536       8.3490      17.5882
 4276.8012       8.3313      15.0756
 4276.6488       8.3160      16.3733
 4276.4964       8.3176      14.7863
 4276.3440       8.3176      15.8443
 4276.1916       8.3158      14.8111
 4276.0392       8.3179      13.4887
 4275.8868       8.3176      15.0756
 4275.7344       8.3191      16.3981
 4275.5820       8.3164      20.6298
 4275.4296       8.4068      21.9523
 4275.2772       8.4438      30.5480
 4275.1248       8.4769      58.7158
 4274.9724       8.5836     101.6947
 4274.8200       8.6574     142.5578
 4274.6676       8.6568     162.9232
 4274.5152       8.6345     167.9484
 4274.3628       8.6119     166.4938
 4274.2104       8.5575     164.7746
 4274.0580       8.5554     166.8574
 4273.9056       8.5417     166.7252
 4273.7532       8.5261     168.8411
 4273.6008       8.5143     172.4447
 4273.4484       8.5391     175.2218
 4273.2960       8.5333     175.7508
 4273.1436       8.5275     173.7671
 4272.9912       8.5113     170.1966
 4272.8388       8.5023     164.9069
 4272.6864       8.4957     146.6573
 4272.5340       8.4962     138.1938
 4272.3816       8.5016     133.9620
 4272.2292       8.5174     138.7228
 4272.0768       8.5135     145.5994
 4271.9244       8.5118     151.5503
 4271.7720       8.5028     157.9641
 4271.6196       8.4945     154.9225
 4271.4672       8.4827     159.4188
 4271.3148       8.4745     159.6171
 4271.1624       8.4736     160.0139
 4271.0100       8.4745     154.1952
 4270.8576       8.4764     148.9055
 4270.7052       8.4825     144.4092
 4270.5528       8.4832     139.6485
 4270.4004       8.4931     140.0452
 4270.2480       8.5014     150.7486
 4270.0956       8.5028     160.2701
 4269.9432       8.5026     165.2953
 4269.7908       8.5028     170.3288
 4269.6384       8.5006     167.8162
 4269.4860       8.5028     160.0139
 4269.3336       8.5063     154.1952
 4269.1812       8.5103     156.1788
 4269.0288       8.5092     167.8658
 4268.8764       8.5287     162.5761
 4268.7240       8.5352     157.2863
 4268.5716       8.5342     146.6243
 4268.4192       8.7092     142.3925
 4268.2668       8.7186     142.3925
 4268.1144       8.7200     150.6246
 4267.9620       8.6661     158.9559
 4267.8096       8.6238     160.0138
 4267.6572       8.6002     162.7909
 4267.5048       8.5955     159.2204
 4267.3524       8.5936     158.6997
 4267.2000       8.5966     153.5422
 4267.0476       8.5966     150.2361
 4266.8952       8.5933     151.0213
 4266.7428       8.5952     149.4344
 4266.5904       8.5949     149.1699
 4266.4380       8.5952     149.6989
 4266.2856       8.5940     154.4596
 4266.1332       8.5950     159.9808
 4265.9808       8.5971     162.3611
 4265.8284       8.5886     164.2125
 4265.6760       8.5952     162.2620
 4265.5236       8.5955     162.5264
 4265.3712       8.5927     159.4848
 4265.2188       8.5969     161.8652
 4265.0664       8.5952     161.7495
 4264.9140       8.5952     164.1299
 4264.7616       8.5933     165.3201
 4264.6092       8.5756     156.8400
 4264.4568       8.5954     139.3839
 4264.3044       9.2711     129.7302
