~VERSION INFORMATION
VERS.           2.0   :CWLS Log ASCII Standard - VERSION 2.0
WRAP.           NO    :One Line per depth step
PROD.  Schlumberger   :LAS Producer
PROG.  DLIS to ASCII 11C0-305                          :LAS Program name and version
CREA.        2003/11/19 08:45                          :LAS Creation date {YYYY/MM/DD hh:mm}
SOURCE.     UBI_Mainpb1_036PUP.DLIS                    :DLIS File Name
FILE-ID.     UBI_Mainpb1_036PUP                        :File Identification Number
#--------------------------------------------------
~WELL INFORMATION
#MNEM.UNIT      DATA             DESCRIPTION
#---- ------ --------------   -----------------------------
STRT .M      4859.4264       :START DEPTH     
STOP .M      4016.0448       :STOP DEPTH     
STEP .M        -0.1524       :STEP     
NULL .          -999.25      :NULL VALUE
COMP .        INPEX Browse, Ltd.                       :COMPANY
WELL .        ICHTHYS DEEP-1                           :WELL
FLD  .        WA-285-P                                 :FIELD
LOC  .        Datum: GDA94 Spheroid GRS80              :LOCATION
CNTY .        Ocean Bounty                             :COUNTY
STAT .        1:200                                    :STATE
CTRY .        Australia                                :COUNTRY
API  .                                                 :API NUMBER
UWI  .                                                 :UNIQUE WELL ID
DATE .        16-Nov-2003                              :LOG DATE {DD-MMM-YYYY}
SRVC .        Schlumberger                             :SERVICE COMPANY
LATI .DEG     13 51' 47.081" S                         :LATITUDE
LONG .DEG     123 13'  56.110" E                       :LONGITUDE
GDAT .                                                 :GeoDetic Datum
#-----------------------------------------------------------------------------
~PARAMETER INFORMATION
#MNEM.UNIT    VALUE                      DESCRIPTION
#---- -----   --------------------       ------------------------
RUN  .          Suite 3 Run 1            :RUN NUMBER
PDAT .        LAT                        :Permanent Datum
EPD  .M           0.000000               :Elevation of Permanent Datum above Mean Sea Level
EPD  .M           0.000000               :Elevation of tool zero above Mean Sea Level
LMF  .          Drill Floor              :Logging Measured From (Name of Logging Elevation Reference)
APD  .M          25.000000               :Elevation of Depth Reference (LMF) above Permanent Datum
#-----------------------------------------------------------------------------
~CURVE INFORMATION
#MNEM.UNIT   API CODE                                  DESCRIPTION
#---- -----  --------                                  -----------------------
DEPT .M                                                :DEPTH (BOREHOLE) {F10.4}
LCAL .IN                                               :LDS Caliper {F13.4}
GR   .GAPI                                             :Gamma Ray {F13.4}
#-----------------------------------------------------------------------------
# 
#     DEPT        LCAL         GR
#
~A  
# ...
 4462.5768       8.4007     140.9553
 4462.4244       8.4016     137.6881
 4462.2720       8.4008     136.7087
 4462.1196       8.4010     135.1193
 4461.9672       8.4064     131.4362
 4461.8148       8.4152     128.0099
 4461.6624       8.4183     127.2655
 4461.5100       8.4175     120.1376
 4461.3576       8.4185     122.2680
 4461.2052       8.4185     126.0603
 4461.0528       8.4186     137.8048
 4460.9004       8.4187     140.2916
 4460.7480       8.4183     139.8322
 4460.5956       8.4196     137.7391
 4460.4432       8.4236     136.4191
 4460.2908       8.4224     136.1201
 4460.1384       8.4467     140.6636
 4459.9860       8.4458     145.5643
 4459.8336       8.4466     150.8401
 4459.6812       8.4454     151.8120
 4459.5288       8.4452     152.8621
 4459.3764       8.4464     152.6904
 4459.2240       8.4460     149.0348
 4459.0716       8.4456     146.7028
 4458.9192       8.4459     138.1465
 4458.7668       8.4467     137.3200
 4458.6144       8.4486     137.9828
 4458.4620       8.4570     146.2191
 4458.3096       8.4654     150.5311
 4458.1572       8.4714     151.3507
 4458.0048       8.4711     142.9494
 4457.8524       8.4710     137.4519
 4457.7000       8.4623     141.2608
 4457.5476       8.4476     153.1010
 4457.3952       8.4458     156.3881
 4457.2428       8.4449     147.6821
 4457.0904       8.4466     138.4090
 4456.9380       8.4442     120.0395
 4456.7856       8.4451     114.7347
 4456.6332       8.4680     119.2271
 4456.4808       8.4719     136.1231
 4456.3284       8.4727     145.3526
 4456.1760       8.4723     141.9201
 4456.0236       8.4724     143.0536
 4455.8712       8.4715     144.6972
 4455.7188       8.4717     151.9220
 4455.5664       8.4718     154.7437
 4455.4140       8.4719     155.6806
 4455.2616       8.4724     152.5884
 4455.1092       8.4735     151.5236
 4454.9568       8.4789     158.2978
 4454.8044       8.4780     167.4792
 4454.6520       8.4810     170.0296
 4454.4996       8.4965     163.9622
 4454.3472       8.4992     158.7480
 4454.1948       8.4986     152.7542
 4454.0424       8.4978     155.8396
 4453.8900       8.5006     152.4958
 4453.7376       8.5045     156.6194
 4453.5852       8.5043     152.2870
 4453.4328       8.5050     154.2140
 4453.2804       8.5101     149.3966
 4453.1280       8.5129     148.5364
 4452.9756       8.5110     149.7730
 4452.8232       8.5134     155.6965
 4452.6708       8.5119     159.0220
 4452.5184       8.5118     153.0710
 4452.3660       8.5113     152.4434
 4452.2136       8.7186     154.3970
 4452.0612       8.6065     160.4081
 4451.9088       8.5638     159.6532
 4451.7564       8.6072     158.5674
 4451.6040       8.6235     158.1466
 4451.4516       8.5403     160.9117
 4451.2992       8.5303     160.1855
 4451.1468       8.5154     159.8514
 4450.9944       8.5415     156.5694
 4450.8420       8.5306     153.8606
 4450.6896       8.5588     150.7118
 4450.5372       8.5264     149.6058
 4450.3848       8.5085     146.7798
 4450.2324       8.4975     146.2955
 4450.0800       8.4991     142.6641
 4449.9276       8.4936     143.1547
 4449.7752       8.4954     137.9715
 4449.6228       8.4930     135.8128
 4449.4704       8.4923     133.2624
 4449.3180       8.4905     141.3911
 4449.1656       8.4728     147.1210
 4449.0132       8.4716     155.4454
 4448.8608       8.4727     153.3911
 4448.7084       8.4716     147.6611
 4448.5560       8.4726     137.2964
 4448.4036       8.4723     133.1491
 4448.2512       8.4732     130.0702
 4448.0988       8.4720     131.3738
 4447.9464       8.4733     137.6214
 4447.7940       8.4708     152.8902
 4447.6416       8.4734     165.5138
 4447.4892       8.4715     164.7554
 4447.3368       8.4727     148.9199
 4447.1844       8.4725     114.2495
 4447.0320       8.4740      89.2072
 4446.8796       8.4723      87.7336
 4446.7272       8.4732     112.1358
 4446.5748       8.4708     138.2512
 4446.4224       8.4738     152.0269
 4446.2700       8.4728     161.2450
 4446.1176       8.4731     160.7553
 4445.9652       8.4733     162.4221
 4445.8128       8.4739     158.8398
 4445.6604       8.4716     165.2925
 4445.5080       8.4741     163.0788
 4445.3556       8.4727     163.5688
 4445.2032       8.4732     159.3491
 4445.0508       8.4722     158.9530
 4444.8984       8.4720     158.7780
 4444.7460       8.4722     157.8403
 4444.5936       8.4722     157.8604
 4444.4412       8.4736     157.6020
 4444.2888       8.4720     156.9219
 4444.1364       8.4745     156.0143
 4443.9840       8.4723     155.0440
 4443.8316       8.4726     155.0388
 4443.6792       8.4709     153.7624
 4443.5268       8.4730     151.4905
 4443.3744       8.4739     150.8156
 4443.2220       8.4720     150.9835
 4443.0696       8.4722     151.6753
 4442.9172       8.4736     151.0402
 4442.7648       8.4718     152.4404
 4442.6124       8.4726     153.7068
 4442.4600       8.4731     150.8091
 4442.3076       8.4720     146.6668
 4442.1552       8.4721     143.9750
 4442.0028       8.4738     145.2391
 4441.8504       8.4735     145.3687
 4441.6980       8.4729     146.2841
 4441.5456       8.4723     145.2339
 4441.3932       8.4736     139.9993
 4441.2408       8.4726     132.4117
 4441.0884       8.4727     128.2110
 4440.9360       8.4726     129.1320
 4440.7836       8.4740     130.7687
 4440.6312       8.4725     133.1874
 4440.4788       8.4737     138.4583
 4440.3264       8.4728     137.7215
 4440.1740       8.4736     133.9609
 4440.0216       8.4721     125.0416
 4439.8692       8.4735     119.4530
 4439.7168       8.4726     118.4099
 4439.5644       8.4716     127.7593
 4439.4120       8.4704     135.6532
 4439.2596       8.4737     142.1005
 4439.1072       8.4739     138.4833
 4438.9548       8.4732     142.8089
 4438.8024       8.4706     150.8235
 4438.6500       8.4700     164.5559
 4438.4976       8.4704     166.5750
 4438.3452       8.4711     154.8782
 4438.1928       8.4704     143.8967
 4438.0404       8.5234     149.0137
 4437.8880       8.5845     163.8008
 4437.7356       8.5323     171.4915
 4437.5832       8.5601     154.4873
 4437.4308       8.5432     144.9899
 4437.2784       8.5331     146.9788
 4437.1260       8.5316     160.5726
 4436.9736       8.5324     159.5702
 4436.8212       8.5334     149.6467
 4436.6688       8.5364     149.8217
 4436.5164       8.5861     157.6266
 4436.3640       8.5935     167.3182
 4436.2116       8.5917     170.9554
 4436.0592       8.5465     169.6848
 4435.9068       8.5232     168.5925
 4435.7544       8.4766     167.0485
 4435.6020       8.4440     166.0850
 4435.4496       8.4218     166.8939
 4435.2972       8.5352     169.0013
 4435.1448       8.6459     172.6303
 4434.9924       8.5856     166.5093
 4434.8400       8.5651     150.5235
 4434.6876       8.3844     126.2714
 4434.5352       8.3973     108.6212
 4434.3828       8.4589     118.0515
 4434.2304       8.4387     141.4998
 4434.0780       8.3811     164.5822
 4433.9256       8.3875     168.2207
 4433.7732       8.3904     167.0786
 4433.6208       8.3919     167.2289
 4433.4684       8.3894     170.2627
 4433.3160       8.3900     168.9196
 4433.1636       8.3895     165.5102
 4433.0112       8.3885     159.1254
 4432.8588       8.3910     158.0715
 4432.7064       8.3912     158.4454
 4432.5540       8.3947     160.6150
 4432.4016       8.3952     162.9518
 4432.2492       8.3935     163.2452
 4432.0968       8.3970     167.1688
 4431.9444       8.3946     161.7589
 4431.7920       8.3964     159.6658
 4431.6396       8.4155     152.1469
 4431.4872       8.4144     157.3164
 4431.3348       8.4179     159.0011
 4431.1824       8.4092     165.1197
 4431.0300       8.4165     164.8724
 4430.8776       8.4159     168.3146
 4430.7252       8.4151     162.3725
 4430.5728       8.4149     154.7913
 4430.4204       8.4153     145.4493
 4430.2680       8.4156     149.2963
 4430.1156       8.4356     150.6329
 4429.9632       8.4497     158.6915
 4429.8108       8.4501     163.0035
 4429.6584       8.4475     166.5677
