~VERSION INFORMATION
VERS.           2.0   :CWLS Log ASCII Standard - VERSION 2.0
WRAP.           NO    :One Line per depth step
PROD.  Schlumberger   :LAS Producer
PROG.  DLIS to ASCII 11C0-305                          :LAS Program name and version
CREA.        2003/11/19 08:49                          :LAS Creation date {YYYY/MM/DD hh:mm}
SOURCE.     AIT_LDL_APS_NGS_011PUP.DLIS                :DLIS File Name
FILE-ID.     AIT_LDL_APS_NGS_011PUP                    :File Identification Number
#--------------------------------------------------
~WELL INFORMATION
#MNEM.UNIT      DATA             DESCRIPTION
#---- ------ --------------   -----------------------------
STRT .M      4859.4264       :START DEPTH     
STOP .M      4018.3308       :STOP DEPTH     
STEP .M        -0.1524       :STEP     
NULL .          -999.25      :NULL VALUE
COMP .        INPEX Browse, Ltd.                       :COMPANY
WELL .        ICHTHYS DEEP-1                           :WELL
FLD  .        WA-285-P                                 :FIELD
LOC  .        Datum: GDA94 Spheroid GRS80              :LOCATION
CNTY .        Ocean Bounty                             :COUNTY
STAT .        1:200                                    :STATE
CTRY .        Australia                                :COUNTRY
API  .                                                 :API NUMBER
UWI  .                                                 :UNIQUE WELL ID
DATE .        16-Nov-2003                              :LOG DATE {DD-MMM-YYYY}
SRVC .        Schlumberger                             :SERVICE COMPANY
LATI .DEG     13 51' 47.081" S                         :LATITUDE
LONG .DEG     123 13'  56.110" E                       :LONGITUDE
GDAT .                                                 :GeoDetic Datum
#-----------------------------------------------------------------------------
~PARAMETER INFORMATION
#MNEM.UNIT    VALUE                      DESCRIPTION
#---- -----   --------------------       ------------------------
RUN  .          Suite 3 Run 1            :RUN NUMBER
PDAT .        LAT                        :Permanent Datum
EPD  .M           0.000000               :Elevation of Permanent Datum above Mean Sea Level
EPD  .M           0.000000               :Elevation of tool zero above Mean Sea Level
LMF  .          Drill Floor              :Logging Measured From (Name of Logging Elevation Reference)
APD  .M          25.000000               :Elevation of Depth Reference (LMF) above Permanent Datum
#-----------------------------------------------------------------------------
~CURVE INFORMATION
#MNEM.UNIT   API CODE                                  DESCRIPTION
#---- -----  --------                                  -----------------------
DEPT .M                                                :DEPTH (BOREHOLE) {F10.4}
RHOM .G/C3                                             :LDS Corrected Bulk Density {F13.4}
DRH  .G/C3                                             :LDS Bulk Density Correction {F13.4}
PEFL .                                                 :LDS Long-Spaced Corrected Photoelectric Effect {F13.4}
#-----------------------------------------------------------------------------
# 
#     DEPT        RHOM         DRH          PEFL
#
~A  
# ...
 4737.5064       2.4867       0.0461       2.3121
 4737.3540       2.4991       0.0519       2.4261
 4737.2016       2.5091       0.0511       2.4310
 4737.0492       2.5085       0.0481       2.2730
 4736.8968       2.5032       0.0455       2.2306
 4736.7444       2.5016       0.0432       2.2542
 4736.5920       2.5033       0.0430       2.2635
 4736.4396       2.4969       0.0449       2.2165
 4736.2872       2.4868       0.0464       2.2744
 4736.1348       2.4725       0.0468       2.3800
 4735.9824       2.4644       0.0453       2.4329
 4735.8300       2.4619       0.0486       2.4243
 4735.6776       2.4674       0.0516       2.4152
 4735.5252       2.4771       0.0521       2.4950
 4735.3728       2.4933       0.0540       2.4574
 4735.2204       2.5025       0.0539       2.4290
 4735.0680       2.5025       0.0503       2.3867
 4734.9156       2.5006       0.0485       2.4284
 4734.7632       2.4900       0.0477       2.4258
 4734.6108       2.4787       0.0486       2.4656
 4734.4584       2.4667       0.0497       2.4970
 4734.3060       2.4565       0.0487       2.6069
 4734.1536       2.4703       0.0533       2.7569
 4734.0012       2.4881       0.0516       2.6333
 4733.8488       2.5085       0.0508       2.4979
 4733.6964       2.5163       0.0483       2.2491
 4733.5440       2.5046       0.0431       2.2204
 4733.3916       2.5013       0.0428       2.2527
 4733.2392       2.5046       0.0511       2.2428
 4733.0868       2.5015       0.0541       2.2641
 4732.9344       2.5089       0.0608       2.2708
 4732.7820       2.5057       0.0606       2.3120
 4732.6296       2.5114       0.0597       2.3892
 4732.4772       2.5056       0.0553       2.3916
 4732.3248       2.5027       0.0519       2.5241
 4732.1724       2.4964       0.0466       2.6244
 4732.0200       2.5011       0.0503       2.5939
 4731.8676       2.5101       0.0506       2.5561
 4731.7152       2.5176       0.0548       2.3760
 4731.5628       2.5260       0.0539       2.4005
 4731.4104       2.5299       0.0492       2.3797
 4731.2580       2.5395       0.0477       2.4040
 4731.1056       2.5506       0.0478       2.3153
 4730.9532       2.5377       0.0365       2.1982
 4730.8008       2.5493       0.0373       2.2186
 4730.6484       2.5563       0.0400       2.1853
 4730.4960       2.5741       0.0450       2.2471
 4730.3436       2.5699       0.0448       2.2453
 4730.1912       2.5682       0.0480       2.3706
 4730.0388       2.5668       0.0455       2.4351
 4729.8864       2.5879       0.0586       2.3214
 4729.7340       2.6033       0.0590       2.3125
 4729.5816       2.6308       0.0917       2.3329
 4729.4292       2.6537       0.1365       2.7800
 4729.2768       2.6591       0.1872       3.3302
 4729.1244       2.6395       0.2051       3.6925
 4728.9720       2.6533       0.2368       3.5342
 4728.8196       2.6714       0.2542       3.2548
 4728.6672       2.6434       0.2473       3.4565
 4728.5148       2.5832       0.2210       4.0959
 4728.3624       2.5471       0.2047       4.3787
 4728.2100       2.5599       0.1841       4.0080
 4728.0576       2.5850       0.1449       3.4087
 4727.9052       2.6158       0.1067       3.0031
 4727.7528       2.6479       0.0830       2.8189
 4727.6004       2.6430       0.0693       2.6293
 4727.4480       2.6165       0.0603       2.8190
 4727.2956       2.5786       0.0571       2.8574
 4727.1432       2.5941       0.0667       2.9510
 4726.9908       2.6061       0.0699       2.6240
 4726.8384       2.6071       0.0704       2.4194
 4726.6860       2.6000       0.0699       2.4776
 4726.5336       2.6032       0.0738       2.5547
 4726.3812       2.6076       0.0716       2.6038
 4726.2288       2.5896       0.0624       2.5322
 4726.0764       2.5813       0.0522       2.7352
 4725.9240       2.5753       0.0436       2.6821
 4725.7716       2.5829       0.0385       2.5381
 4725.6192       2.5975       0.0461       2.2539
 4725.4668       2.6103       0.0532       2.2628
 4725.3144       2.6098       0.0503       2.3896
 4725.1620       2.6190       0.0596       2.7356
 4725.0096       2.6289       0.0653       3.0759
 4724.8572       2.6307       0.0690       3.2196
 4724.7048       2.6297       0.0716       3.1712
 4724.5524       2.6255       0.0719       3.1250
 4724.4000       2.6351       0.0720       2.9692
 4724.2476       2.6392       0.0741       2.7627
 4724.0952       2.6360       0.0702       2.6484
 4723.9428       2.6174       0.0607       2.6526
 4723.7904       2.6158       0.0647       2.7121
 4723.6380       2.6129       0.0609       2.6192
 4723.4856       2.6069       0.0560       2.4412
 4723.3332       2.6289       0.0646       2.3700
 4723.1808       2.6399       0.0724       2.3295
 4723.0284       2.6278       0.0669       2.3583
 4722.8760       2.6125       0.0614       2.4073
 4722.7236       2.6093       0.0581       2.5079
 4722.5712       2.6151       0.0504       2.6494
 4722.4188       2.6227       0.0497       2.6963
 4722.2664       2.6190       0.0461       2.6752
 4722.1140       2.6228       0.0473       2.6825
 4721.9616       2.6343       0.0507       2.7689
 4721.8092       2.6435       0.0493       2.8130
 4721.6568       2.6456       0.0441       2.7978
 4721.5044       2.6371       0.0402       2.6987
 4721.3520       2.6401       0.0446       2.6831
 4721.1996       2.6398       0.0459       2.6901
 4721.0472       2.6471       0.0464       2.6629
 4720.8948       2.6447       0.0447       2.6099
 4720.7424       2.6474       0.0435       2.6610
 4720.5900       2.6478       0.0397       2.6506
 4720.4376       2.6478       0.0377       2.6956
 4720.2852       2.6520       0.0442       2.6124
 4720.1328       2.6493       0.0493       2.6262
 4719.9804       2.6460       0.0541       2.6867
 4719.8280       2.6364       0.0509       2.8601
 4719.6756       2.6216       0.0482       2.9949
 4719.5232       2.6218       0.0451       3.1422
 4719.3708       2.6187       0.0394       3.0259
 4719.2184       2.6385       0.0400       2.9992
 4719.0660       2.6575       0.0487       2.6474
 4718.9136       2.6526       0.0448       2.6716
 4718.7612       2.6299       0.0397       2.6209
 4718.6088       2.6104       0.0396       2.8476
 4718.4564       2.6140       0.0526       2.8471
 4718.3040       2.5612       0.0705       2.6969
 4718.1516       2.4033       0.0781       2.6655
 4717.9992       2.3041       0.0688       2.8734
 4717.8468       2.2931       0.0672       2.8193
 4717.6944       2.4396       0.0881       2.6844
 4717.5420       2.5460       0.0781       2.3454
 4717.3896       2.6135       0.0564       2.3548
 4717.2372       2.6291       0.0540       2.4394
 4717.0848       2.6354       0.0507       2.6096
 4716.9324       2.6401       0.0502       2.6582
 4716.7800       2.6560       0.0685       2.6890
 4716.6276       2.6906       0.1163       2.6896
 4716.4752       2.6795       0.1760       2.8214
 4716.3228       2.5944       0.2234       3.0797
 4716.1704       2.5098       0.2293       3.2945
 4716.0180       2.4372       0.2464       3.3304
 4715.8656       2.2548       0.1781       4.1760
 4715.7132       2.1557       0.1356       5.6477
 4715.5608       2.1846       0.1370       6.9424
 4715.4084       2.3330       0.1845       6.5825
 4715.2560       2.3688       0.1984       6.0906
 4715.1036       2.3682       0.2064       6.3115
 4714.9512       2.3489       0.1868       5.8268
 4714.7988       2.4046       0.1772       5.6692
 4714.6464       2.4541       0.1928       5.0443
 4714.4940       2.4638       0.1679       5.0263
 4714.3416       2.4830       0.1898       4.6182
 4714.1892       2.4786       0.2268       4.5463
 4714.0368       2.3885       0.2017       5.3600
 4713.8844       2.3484       0.1929       6.1989
 4713.7320       2.4278       0.2574       6.3076
 4713.5796       2.4281       0.2836       6.0939
 4713.4272       2.3967       0.2701       5.4500
 4713.2748       2.4099       0.2799       5.4644
