~VERSION INFORMATION
VERS.           2.0   :CWLS Log ASCII Standard - VERSION 2.0
WRAP.           NO    :One Line per depth step
PROD.  Schlumberger   :LAS Producer
PROG.  DLIS to ASCII 11C0-305                          :LAS Program name and version
CREA.        2003/11/19 08:45                          :LAS Creation date {YYYY/MM/DD hh:mm}
SOURCE.     UBI_Mainpb1_036PUP.DLIS                    :DLIS File Name
FILE-ID.     UBI_Mainpb1_036PUP                        :File Identification Number
#--------------------------------------------------
~WELL INFORMATION
#MNEM.UNIT      DATA             DESCRIPTION
#---- ------ --------------   -----------------------------
STRT .M      4859.4264       :START DEPTH     
STOP .M      4016.0448       :STOP DEPTH     
STEP .M        -0.1524       :STEP     
NULL .          -999.25      :NULL VALUE
COMP .        INPEX Browse, Ltd.                       :COMPANY
WELL .        ICHTHYS DEEP-1                           :WELL
FLD  .        WA-285-P                                 :FIELD
LOC  .        Datum: GDA94 Spheroid GRS80              :LOCATION
CNTY .        Ocean Bounty                             :COUNTY
STAT .        1:200                                    :STATE
CTRY .        Australia                                :COUNTRY
API  .                                                 :API NUMBER
UWI  .                                                 :UNIQUE WELL ID
DATE .        16-Nov-2003                              :LOG DATE {DD-MMM-YYYY}
SRVC .        Schlumberger                             :SERVICE COMPANY
LATI .DEG     13 51' 47.081" S                         :LATITUDE
LONG .DEG     123 13'  56.110" E                       :LONGITUDE
GDAT .                                                 :GeoDetic Datum
#-----------------------------------------------------------------------------
~PARAMETER INFORMATION
#MNEM.UNIT    VALUE                      DESCRIPTION
#---- -----   --------------------       ------------------------
RUN  .          Suite 3 Run 1            :RUN NUMBER
PDAT .        LAT                        :Permanent Datum
EPD  .M           0.000000               :Elevation of Permanent Datum above Mean Sea Level
EPD  .M           0.000000               :Elevation of tool zero above Mean Sea Level
LMF  .          Drill Floor              :Logging Measured From (Name of Logging Elevation Reference)
APD  .M          25.000000               :Elevation of Depth Reference (LMF) above Permanent Datum
#-----------------------------------------------------------------------------
~CURVE INFORMATION
#MNEM.UNIT   API CODE                                  DESCRIPTION
#---- -----  --------                                  -----------------------
DEPT .M                                                :DEPTH (BOREHOLE) {F10.4}
LCAL .IN                                               :LDS Caliper {F13.4}
GR   .GAPI                                             :Gamma Ray {F13.4}
#-----------------------------------------------------------------------------
# 
#     DEPT        LCAL         GR
#
~A  
# ...
 4760.2140       8.4565      17.6311
 4760.0616       8.4927      15.1007
 4759.9092       8.5018      15.4378
 4759.7568       8.5049      17.6378
 4759.6044       8.5636      25.8275
 4759.4520       8.6602      26.8994
 4759.2996       8.7555      22.9321
 4759.1472       8.7574      14.0057
 4758.9948       8.7573      12.1883
 4758.8424       8.7313      14.6440
 4758.6900       8.7246      19.1780
 4758.5376       8.7227      20.9866
 4758.3852       8.6999      19.1922
 4758.2328       8.6969      14.4248
 4758.0804       8.6977      12.0327
 4757.9280       8.6923      12.1353
 4757.7756       8.6713      13.3604
 4757.6232       8.6224      15.0751
 4757.4708       8.6041      19.1023
 4757.3184       8.5964      19.7084
 4757.1660       8.5715      18.7166
 4757.0136       8.5713      15.3182
 4756.8612       8.5575      14.5467
 4756.7088       8.5067      14.3814
 4756.5564       8.4987      14.1610
 4756.4040       8.4789      14.6569
 4756.2516       8.4798      14.2161
 4756.0992       8.4615      12.8159
 4755.9468       8.4468      10.8323
 4755.7944       8.4476      11.3282
 4755.6420       8.4472      12.1333
 4755.4896       8.4468      14.7782
 4755.3372       8.5266      16.6060
 4755.1848       8.5822      19.2430
 4755.0324       8.6041      19.8098
 4754.8800       8.6529      20.6118
 4754.7276       8.7202      22.3869
 4754.5752       8.8758      29.9297
 4754.4228       8.9165      33.8884
 4754.2704       8.9102      30.0413
 4754.1180       8.9040      23.3744
 4753.9656       8.8908      19.4638
 4753.8132       8.8776      19.9022
 4753.6608       9.6106      17.9345
 4753.5084      10.1655      18.5476
 4753.3560      10.7115      25.0200
 4753.2036      10.7360      28.7539
 4753.0512      10.8747      27.4315
 4752.8988      11.0588      21.3021
 4752.7464      11.1821      16.8097
 4752.5940      10.8902      14.1702
 4752.4416      10.6004      12.0769
 4752.2892      10.1232      12.3987
 4752.1368       9.7166      14.2568
 4751.9844       9.5834      14.6069
 4751.8320       9.4271      14.7518
 4751.6796       9.0347      15.9540
 4751.5272       9.0034      19.0462
 4751.3748       8.9065      20.6564
 4751.2224       8.8192      20.6049
 4751.0700       8.7239      17.3427
 4750.9176       8.6518      14.0556
 4750.7652       8.6092      10.8717
 4750.6128       8.5775      10.0499
 4750.4604       8.5710       9.7432
 4750.3080       8.5710       9.6725
 4750.1556       8.5715      10.2109
 4750.0032       8.5702      10.1776
 4749.8508       8.5710      10.7117
 4749.6984       8.5653      10.9447
 4749.5460       8.5648      11.7382
 4749.3936       8.5639      11.2847
 4749.2412       8.5651      10.7117
 4749.0888       8.5629      10.8250
 4748.9364       8.5614      10.1733
 4748.7840       8.5570      11.0834
 4748.6316       8.5568      11.5518
 4748.4792       8.5478      12.6570
 4748.3268       8.5410      12.8320
 4748.1744       8.5386      12.8580
 4748.0220       8.5381      13.2405
 4747.8696       8.5371      12.5988
 4747.7172       8.5381      12.0477
 4747.5648       8.5374      11.2018
 4747.4124       8.5373      11.9602
 4747.2600       8.5376      12.0203
 4747.1076       8.5371      11.6491
 4746.9552       8.5365      10.9490
 4746.8028       8.5311      10.2471
 4746.6504       8.5230      11.2690
 4746.4980       8.5171      10.8022
 4746.3456       8.5182      11.2173
 4746.1932       8.5181      10.0999
 4746.0408       8.5111      10.1371
 4745.8884       8.5104      10.7845
 4745.7360       8.5151      11.3008
 4745.5836       8.5181      12.3227
 4745.4312       8.5163      11.4811
 4745.2788       8.5151      11.1399
 4745.1264       8.5097      10.7227
 4744.9740       8.5041      10.2683
 4744.8216       8.5035      10.4292
 4744.6692       8.5038       9.4639
 4744.5168       8.5046       9.5576
 4744.3644       8.5030       9.9801
 4744.2120       8.5044      11.5872
 4744.0596       8.5025      13.1271
 4743.9072       8.5035      21.9135
 4743.7548       8.4866      36.3208
 4743.6024       8.4471      52.3383
 4743.4500       8.5105      62.6202
 4743.2976       8.5429      65.4272
 4743.1452       8.5094      73.0060
 4742.9928       8.5101      92.0820
 4742.8404       8.5085     115.3190
 4742.6880       8.5033     132.0798
 4742.5356       8.5033     134.1918
 4742.3832       8.5041     139.1792
 4742.2308       8.5033     146.6346
 4742.0784       8.5042     139.9253
 4741.9260       8.5035     112.8344
 4741.7736       8.5091      77.3905
 4741.6212       8.5855      57.1640
 4741.4688       8.5426      48.6901
 4741.3164       8.5161      41.5140
 4741.1640       8.5134      30.1154
 4741.0116       8.4884      23.4502
 4740.8592       8.4506      21.8749
 4740.7068       8.4499      23.7383
 4740.5544       8.4499      22.2148
 4740.4020       8.4226      18.3350
 4740.2496       8.4078      14.2865
 4740.0972       8.3694      10.3759
 4739.9448       8.3657       9.2187
 4739.7924       8.3859       8.7139
 4739.6400       8.4335      10.1308
 4739.4876       8.4417      10.2410
 4739.3352       8.4237      10.2507
 4739.1828       8.4437      10.6508
 4739.0304       8.4550      10.5600
 4738.8780       8.4749      11.1501
 4738.7256       8.4808      10.7500
 4738.5732       8.4859      10.7684
 4738.4208       8.5158      10.7747
 4738.2684       8.5162      11.2785
 4738.1160       8.5158      11.6185
 4737.9636       8.5140      11.4989
 4737.8112       8.5082      10.8117
 4737.6588       8.4984      10.5117
 4737.5064       8.4828      10.5017
 4737.3540       8.4825      10.5717
 4737.2016       8.4990      11.3251
 4737.0492       8.5025      12.0609
 4736.8968       8.5033      12.1176
 4736.7444       8.4864      12.0642
 4736.5920       8.4818      11.6785
 4736.4396       8.4790      11.7269
 4736.2872       8.4467      11.8506
 4736.1348       8.4175      11.3697
 4735.9824       8.4168      10.9401
 4735.8300       8.4163      10.4663
 4735.6776       8.3354      10.7138
 4735.5252       8.3337      11.5518
 4735.3728       8.3513      11.2018
 4735.2204       8.3503      11.9160
 4735.0680       8.3364      12.0999
 4734.9156       8.3244      11.8899
 4734.7632       8.3249      11.2956
 4734.6108       8.3244      10.3150
 4734.4584       8.3254      10.1166
 4734.3060       8.3112       9.8994
 4734.1536       8.2862      10.3591
 4734.0012       8.2870      11.9019
 4733.8488       8.3254      12.1192
 4733.6964       8.3234      11.8987
 4733.5440       8.3248      11.7334
 4733.3916       8.3236      11.7366
 4733.2392       8.3252      12.0672
 4733.0868       8.3242      10.8880
 4732.9344       8.3252      10.0914
 4732.7820       8.3235       9.8516
 4732.6296       8.3253      10.1040
 4732.4772       8.3246      10.8975
 4732.3248       8.3617      11.5876
 4732.1724       8.4222      12.5820
 4732.0200       8.4694      13.2204
 4731.8676       8.5028      12.8237
 4731.7152       8.5032      12.2536
 4731.5628       8.5012      12.1369
 4731.4104       8.5031      12.3739
 4731.2580       8.5543      12.5490
 4731.1056       8.6074      12.3156
 4730.9532       8.6071      11.3418
 4730.8008       8.6079      10.9829
 4730.6484       8.6274      10.9829
 4730.4960       8.6411      11.1152
 4730.3436       8.6405      12.0391
 4730.1912       8.6412      11.5886
 4730.0388       8.6425      11.6437
 4729.8864       8.6927      11.3509
 4729.7340       8.7190      11.8468
 4729.5816       8.7280      13.9698
 4729.4292       8.8231      15.3311
 4729.2768       8.8587      18.3979
 4729.1244       9.0788      20.4399
 4728.9720       9.1858      20.7867
 4728.8196       9.1274      16.7627
 4728.6672       9.0104      13.6006
 4728.5148       9.3000      13.5455
 4728.3624       9.7549      26.1841
 4728.2100       9.6323      52.8000
 4728.0576       9.6472      82.4995
 4727.9052       9.5193     106.1899
 4727.7528       9.0419     114.9430
 4727.6004       8.6697     108.0253
 4727.4480       8.6738      79.6676
 4727.2956       8.6655      43.9620
