~VERSION INFORMATION
VERS.           2.0   :CWLS Log ASCII Standard - VERSION 2.0
WRAP.           NO    :One Line per depth step
PROD.  Schlumberger   :LAS Producer
PROG.  DLIS to ASCII 11C0-305                          :LAS Program name and version
CREA.        2003/11/19 08:49                          :LAS Creation date {YYYY/MM/DD hh:mm}
SOURCE.     AIT_LDL_APS_NGS_011PUP.DLIS                :DLIS File Name
FILE-ID.     AIT_LDL_APS_NGS_011PUP                    :File Identification Number
#--------------------------------------------------
~WELL INFORMATION
#MNEM.UNIT      DATA             DESCRIPTION
#---- ------ --------------   -----------------------------
STRT .M      4859.4264       :START DEPTH     
STOP .M      4018.3308       :STOP DEPTH     
STEP .M        -0.1524       :STEP     
NULL .          -999.25      :NULL VALUE
COMP .        INPEX Browse, Ltd.                       :COMPANY
WELL .        ICHTHYS DEEP-1                           :WELL
FLD  .        WA-285-P                                 :FIELD
LOC  .        Datum: GDA94 Spheroid GRS80              :LOCATION
CNTY .        Ocean Bounty                             :COUNTY
STAT .        1:200                                    :STATE
CTRY .        Australia                                :COUNTRY
API  .                                                 :API NUMBER
UWI  .                                                 :UNIQUE WELL ID
DATE .        16-Nov-2003                              :LOG DATE {DD-MMM-YYYY}
SRVC .        Schlumberger                             :SERVICE COMPANY
LATI .DEG     13 51' 47.081" S                         :LATITUDE
LONG .DEG     123 13'  56.110" E                       :LONGITUDE
GDAT .                                                 :GeoDetic Datum
#-----------------------------------------------------------------------------
~PARAMETER INFORMATION
#MNEM.UNIT    VALUE                      DESCRIPTION
#---- -----   --------------------       ------------------------
RUN  .          Suite 3 Run 1            :RUN NUMBER
PDAT .        LAT                        :Permanent Datum
EPD  .M           0.000000               :Elevation of Permanent Datum above Mean Sea Level
EPD  .M           0.000000               :Elevation of tool zero above Mean Sea Level
LMF  .          Drill Floor              :Logging Measured From (Name of Logging Elevation Reference)
APD  .M          25.000000               :Elevation of Depth Reference (LMF) above Permanent Datum
#-----------------------------------------------------------------------------
~CURVE INFORMATION
#MNEM.UNIT   API CODE                                  DESCRIPTION
#---- -----  --------                                  -----------------------
DEPT .M                                                :DEPTH (BOREHOLE) {F10.4}
RHOM .G/C3                                             :LDS Corrected Bulk Density {F13.4}
DRH  .G/C3                                             :LDS Bulk Density Correction {F13.4}
PEFL .                                                 :LDS Long-Spaced Corrected Photoelectric Effect {F13.4}
#-----------------------------------------------------------------------------
# 
#     DEPT        RHOM         DRH          PEFL
#
~A  
# ...
 4518.0504       2.5305       0.1930       6.3884
 4517.8980       2.4200       0.1666       7.6434
 4517.7456       2.4096       0.1757       7.4744
 4517.5932       2.4226       0.1791       6.7103
 4517.4408       2.4787       0.1863       6.3874
 4517.2884       2.5003       0.2065       6.2219
 4517.1360       2.4804       0.2534       7.1967
 4516.9836       2.3986       0.2733       7.5940
 4516.8312       2.4019       0.3000       7.3692
 4516.6788       2.4884       0.3264       6.5914
 4516.5264       2.6517       0.3560       5.9815
 4516.3740       2.6901       0.3579       5.7751
 4516.2216       2.6317       0.3339       6.3087
 4516.0692       2.5941       0.3385       6.5189
 4515.9168       2.5908       0.3499       6.6179
 4515.7644       2.5491       0.3487       6.7304
 4515.6120       2.5143       0.3196       6.8478
 4515.4596       2.5502       0.3376       6.9687
 4515.3072       2.6258       0.3441       6.8040
 4515.1548       2.6375       0.3271       6.6229
 4515.0024       2.6567       0.3302       6.1995
 4514.8500       2.6946       0.3646       5.8826
 4514.6976       2.6815       0.3541       6.0290
 4514.5452       2.6823       0.3654       6.3031
 4514.3928       2.6922       0.3708       6.4967
 4514.2404       2.6760       0.3361       6.2149
 4514.0880       2.6652       0.2998       5.8322
 4513.9356       2.6679       0.2855       5.8249
 4513.7832       2.6672       0.2755       6.0189
 4513.6308       2.6748       0.2940       6.5286
 4513.4784       2.6842       0.3405       6.8672
 4513.3260       2.6900       0.3725       7.0674
 4513.1736       2.7346       0.4174       6.6498
 4513.0212       2.7649       0.4368       6.1964
 4512.8688       2.7596       0.4237       6.1670
 4512.7164       2.7214       0.3949       6.5785
 4512.5640       2.7178       0.3961       6.7872
 4512.4116       2.7329       0.4059       6.8811
 4512.2592       2.6863       0.3955       7.2731
 4512.1068       2.6814       0.3989       7.7602
 4511.9544       2.6706       0.4116       7.0510
 4511.8020       2.6991       0.4097       6.5408
 4511.6496       2.6755       0.3967       6.0357
 4511.4972       2.6489       0.3653       6.4879
 4511.3448       2.6498       0.3718       6.5368
 4511.1924       2.6526       0.3522       6.4968
 4511.0400       2.6346       0.3458       6.0293
 4510.8876       2.5966       0.3268       6.2177
 4510.7352       2.5904       0.3526       6.4530
 4510.5828       2.5762       0.3447       6.5761
 4510.4304       2.5988       0.3632       6.2345
 4510.2780       2.6386       0.3655       6.1525
 4510.1256       2.7046       0.3691       5.9562
 4509.9732       2.7630       0.3679       5.7726
 4509.8208       2.7912       0.3639       5.4293
 4509.6684       2.7826       0.3513       5.3408
 4509.5160       2.7673       0.3374       5.1110
 4509.3636       2.7313       0.3171       5.2371
 4509.2112       2.6768       0.2890       5.3658
 4509.0588       2.6214       0.2598       5.6871
 4508.9064       2.6302       0.2783       5.1502
 4508.7540       2.6408       0.2855       4.8064
 4508.6016       2.6559       0.2994       4.4777
 4508.4492       2.6894       0.3090       4.7607
 4508.2968       2.7509       0.3313       4.9956
 4508.1444       2.7666       0.3021       4.9712
 4507.9920       2.6955       0.2793       5.0165
 4507.8396       2.6386       0.2770       6.0370
 4507.6872       2.5803       0.2928       7.5243
 4507.5348       2.5455       0.2904       8.1129
 4507.3824       2.5713       0.2988       8.3891
 4507.2300       2.6113       0.3087       8.2078
 4507.0776       2.7041       0.3171       7.6260
 4506.9252       2.6975       0.2856       6.1490
 4506.7728       2.7421       0.2772       5.2064
 4506.6204       2.7812       0.3076       4.8590
 4506.4680       2.7975       0.3215       4.9879
 4506.3156       2.7858       0.3398       5.2212
 4506.1632       2.7248       0.3274       5.6932
 4506.0108       2.6949       0.3466       6.0429
 4505.8584       2.6611       0.3347       6.5748
 4505.7060       2.6405       0.3388       6.7177
 4505.5536       2.5957       0.3150       6.9332
 4505.4012       2.5828       0.3100       7.2337
 4505.2488       2.6254       0.3208       6.7560
 4505.0964       2.6740       0.3449       6.5004
 4504.9440       2.6476       0.3332       6.3604
 4504.7916       2.6114       0.3034       6.7799
 4504.6392       2.6655       0.3225       6.0388
 4504.4868       2.7413       0.3223       5.4186
 4504.3344       2.7423       0.2843       4.8524
 4504.1820       2.7630       0.2985       4.9525
 4504.0296       2.7418       0.2792       4.9722
 4503.8772       2.6836       0.2103       4.9422
 4503.7248       2.6926       0.1689       4.8227
 4503.5724       2.7729       0.1705       5.1063
 4503.4200       2.8048       0.1628       4.9123
 4503.2676       2.8122       0.2014       5.0787
 4503.1152       2.7681       0.2323       4.7591
 4502.9628       2.7749       0.2758       4.7880
 4502.8104       2.8181       0.3296       4.7030
 4502.6580       2.8337       0.3398       4.8744
 4502.5056       2.8001       0.3049       5.0100
 4502.3532       2.7544       0.2641       4.9472
 4502.2008       2.7313       0.2218       4.4637
 4502.0484       2.7075       0.1582       4.1569
 4501.8960       2.6991       0.1010       3.9943
 4501.7436       2.7203       0.1036       3.9028
 4501.5912       2.7285       0.1454       4.4815
 4501.4388       2.6629       0.1693       5.2893
 4501.2864       2.5664       0.1995       5.4311
 4501.1340       2.5131       0.2356       5.2876
 4500.9816       2.4956       0.2409       4.9760
 4500.8292       2.4988       0.2194       5.1050
 4500.6768       2.5157       0.2246       5.0347
 4500.5244       2.5003       0.2326       5.9897
 4500.3720       2.4315       0.2312       7.2326
 4500.2196       2.3671       0.2285       8.8921
 4500.0672       2.3426       0.2448       9.0318
 4499.9148       2.3585       0.2556       8.8894
 4499.7624       2.3402       0.2047       8.6971
 4499.6100       2.3438       0.1513       6.8936
 4499.4576       2.4067       0.1373       5.3308
 4499.3052       2.5064       0.1418       4.1405
 4499.1528       2.5489       0.1364       3.7456
 4499.0004       2.5664       0.1690       3.8783
 4498.8480       2.5605       0.1939       4.5813
 4498.6956       2.6043       0.2233       5.9213
 4498.5432       2.6701       0.2276       6.9487
 4498.3908       2.7197       0.2057       7.6431
 4498.2384       2.7262       0.1529       6.8629
 4498.0860       2.7302       0.1212       6.0969
 4497.9336       2.7279       0.0836       4.6941
 4497.7812       2.7009       0.0541       3.8751
 4497.6288       2.7111       0.0564       3.5535
 4497.4764       2.7421       0.0877       3.5759
 4497.3240       2.8051       0.1541       3.9205
 4497.1716       2.8121       0.2078       4.5914
 4497.0192       2.7208       0.2425       5.2846
 4496.8668       2.6680       0.3005       5.7258
 4496.7144       2.6664       0.3507       6.1587
 4496.5620       2.6887       0.3690       7.5406
 4496.4096       2.7219       0.3808       8.8626
 4496.2572       2.7080       0.3701       9.8620
 4496.1048       2.7003       0.3683       7.8046
 4495.9524       2.6613       0.3334       6.9607
 4495.8000       2.6190       0.2869       6.8353
 4495.6476       2.6333       0.2677       7.0884
 4495.4952       2.6700       0.3013       6.4541
 4495.3428       2.6122       0.2929       6.4435
 4495.1904       2.4587       0.2848       7.8497
 4495.0380       2.3912       0.2946      10.4237
 4494.8856       2.4198       0.3328       9.7364
 4494.7332       2.4924       0.3345       8.8860
 4494.5808       2.4568       0.2743       7.9106
 4494.4284       2.4395       0.2232       7.4955
 4494.2760       2.4581       0.2017       6.6476
 4494.1236       2.5496       0.1992       6.2032
 4493.9712       2.5930       0.2059       5.4848
 4493.8188       2.6244       0.2282       5.1798
