~VERSION INFORMATION
VERS.           2.0   :CWLS Log ASCII Standard - VERSION 2.0
WRAP.           NO    :One Line per depth step
PROD.  Schlumberger   :LAS Producer
PROG.  DLIS to ASCII 11C0-305                          :LAS Program name and version
CREA.        2003/11/19 08:49                          :LAS Creation date {YYYY/MM/DD hh:mm}
SOURCE.     AIT_LDL_APS_NGS_011PUP.DLIS                :DLIS File Name
FILE-ID.     AIT_LDL_APS_NGS_011PUP                    :File Identification Number
#--------------------------------------------------
~WELL INFORMATION
#MNEM.UNIT      DATA             DESCRIPTION
#---- ------ --------------   -----------------------------
STRT .M      4859.4264       :START DEPTH     
STOP .M      4018.3308       :STOP DEPTH     
STEP .M        -0.1524       :STEP     
NULL .          -999.25      :NULL VALUE
COMP .        INPEX Browse, Ltd.                       :COMPANY
WELL .        ICHTHYS DEEP-1                           :WELL
FLD  .        WA-285-P                                 :FIELD
LOC  .        Datum: GDA94 Spheroid GRS80              :LOCATION
CNTY .        Ocean Bounty                             :COUNTY
STAT .        1:200                                    :STATE
CTRY .        Australia                                :COUNTRY
API  .                                                 :API NUMBER
UWI  .                                                 :UNIQUE WELL ID
DATE .        16-Nov-2003                              :LOG DATE {DD-MMM-YYYY}
SRVC .        Schlumberger                             :SERVICE COMPANY
LATI .DEG     13 51' 47.081" S                         :LATITUDE
LONG .DEG     123 13'  56.110" E                       :LONGITUDE
GDAT .                                                 :GeoDetic Datum
#-----------------------------------------------------------------------------
~PARAMETER INFORMATION
#MNEM.UNIT    VALUE                      DESCRIPTION
#---- -----   --------------------       ------------------------
RUN  .          Suite 3 Run 1            :RUN NUMBER
PDAT .        LAT                        :Permanent Datum
EPD  .M           0.000000               :Elevation of Permanent Datum above Mean Sea Level
EPD  .M           0.000000               :Elevation of tool zero above Mean Sea Level
LMF  .          Drill Floor              :Logging Measured From (Name of Logging Elevation Reference)
APD  .M          25.000000               :Elevation of Depth Reference (LMF) above Permanent Datum
#-----------------------------------------------------------------------------
~CURVE INFORMATION
#MNEM.UNIT   API CODE                                  DESCRIPTION
#---- -----  --------                                  -----------------------
DEPT .M                                                :DEPTH (BOREHOLE) {F10.4}
RHOM .G/C3                                             :LDS Corrected Bulk Density {F13.4}
DRH  .G/C3                                             :LDS Bulk Density Correction {F13.4}
PEFL .                                                 :LDS Long-Spaced Corrected Photoelectric Effect {F13.4}
#-----------------------------------------------------------------------------
# 
#     DEPT        RHOM         DRH          PEFL
#
~A  
# ...
 4810.6584       2.6134       0.0563       2.3061
 4810.5060       2.5946       0.0460       2.2906
 4810.3536       2.5840       0.0422       2.3318
 4810.2012       2.5713       0.0394       2.3511
 4810.0488       2.5644       0.0357       2.4729
 4809.8964       2.5621       0.0389       2.5131
 4809.7440       2.5691       0.0455       2.5495
 4809.5916       2.5693       0.0478       2.4148
 4809.4392       2.5699       0.0487       2.2693
 4809.2868       2.5614       0.0447       2.2463
 4809.1344       2.5568       0.0384       2.2666
 4808.9820       2.5604       0.0354       2.3638
 4808.8296       2.5836       0.0421       2.3298
 4808.6772       2.6010       0.0482       2.3427
 4808.5248       2.6220       0.0614       2.3739
 4808.3724       2.6232       0.0658       2.4672
 4808.2200       2.6204       0.0654       2.5088
 4808.0676       2.6166       0.0624       2.5061
 4807.9152       2.6001       0.0570       2.4670
 4807.7628       2.5715       0.0486       2.4918
 4807.6104       2.5379       0.0446       2.8068
 4807.4580       2.5216       0.0624       3.2679
 4807.3056       2.4802       0.0554       3.6857
 4807.1532       2.4657       0.0545       3.5996
 4807.0008       2.4968       0.0589       3.0492
 4806.8484       2.5416       0.0631       2.6527
 4806.6960       2.5595       0.0485       2.3924
 4806.5436       2.5641       0.0476       2.3695
 4806.3912       2.5677       0.0484       2.3333
 4806.2388       2.5626       0.0477       2.2494
 4806.0864       2.5602       0.0465       2.3174
 4805.9340       2.5751       0.0478       2.4119
 4805.7816       2.5960       0.0524       2.4371
 4805.6292       2.6046       0.0525       2.4013
 4805.4768       2.5987       0.0517       2.3336
 4805.3244       2.6036       0.0554       2.3292
 4805.1720       2.6156       0.0584       2.2780
 4805.0196       2.6245       0.0580       2.3036
 4804.8672       2.6178       0.0533       2.4102
 4804.7148       2.6091       0.0509       2.4907
 4804.5624       2.5862       0.0414       2.4164
 4804.4100       2.5727       0.0388       2.2542
 4804.2576       2.5627       0.0431       2.2157
 4804.1052       2.5622       0.0513       2.3094
 4803.9528       2.5514       0.0564       2.3845
 4803.8004       2.5432       0.0632       2.4892
 4803.6480       2.5323       0.0662       2.4654
 4803.4956       2.5270       0.0610       2.4858
 4803.3432       2.5240       0.0595       2.4022
 4803.1908       2.5199       0.0551       2.3767
 4803.0384       2.5079       0.0460       2.4030
 4802.8860       2.5014       0.0352       2.4668
 4802.7336       2.5156       0.0386       2.4026
 4802.5812       2.5260       0.0365       2.3705
 4802.4288       2.5288       0.0304       2.2527
 4802.2764       2.5351       0.0305       2.2835
 4802.1240       2.5448       0.0350       2.1962
 4801.9716       2.5441       0.0373       2.1850
 4801.8192       2.5449       0.0403       2.1737
 4801.6668       2.5514       0.0487       2.1887
 4801.5144       2.5676       0.0567       2.2263
 4801.3620       2.5546       0.0721       2.2333
 4801.2096       2.4821       0.0590       2.2843
 4801.0572       2.4311       0.0500       2.3860
 4800.9048       2.4645       0.0550       2.4098
 4800.7524       2.5447       0.0691       2.4240
 4800.6000       2.5956       0.0593       2.3423
 4800.4476       2.6000       0.0546       2.3000
 4800.2952       2.6054       0.0504       2.3858
 4800.1428       2.5957       0.0401       2.3243
 4799.9904       2.5825       0.0295       2.3572
 4799.8380       2.5708       0.0293       2.2565
 4799.6856       2.5671       0.0308       2.3189
 4799.5332       2.5604       0.0292       2.3060
 4799.3808       2.5657       0.0317       2.4154
 4799.2284       2.5736       0.0392       2.3942
 4799.0760       2.5819       0.0409       2.4437
 4798.9236       2.5790       0.0328       2.3501
 4798.7712       2.6020       0.0407       2.3888
 4798.6188       2.6197       0.0464       2.4058
 4798.4664       2.6345       0.0506       2.4711
 4798.3140       2.6416       0.0526       2.5975
 4798.1616       2.6436       0.0556       2.6099
 4798.0092       2.6350       0.0495       2.6006
 4797.8568       2.6444       0.0585       2.5822
 4797.7044       2.6371       0.0577       2.5299
 4797.5520       2.6328       0.0558       2.5697
 4797.3996       2.6335       0.0573       2.6234
 4797.2472       2.6383       0.0563       2.7431
 4797.0948       2.6273       0.0454       2.7824
 4796.9424       2.6325       0.0485       2.8666
 4796.7900       2.6496       0.0801       2.9643
 4796.6376       2.5449       0.0790       3.0006
 4796.4852       2.4565       0.0873       2.7852
 4796.3328       2.4175       0.0954       2.7809
 4796.1804       2.4330       0.0960       2.8192
 4796.0280       2.4428       0.0658       2.9450
 4795.8756       2.4700       0.0382       2.9229
 4795.7232       2.5459       0.0168       3.0303
 4795.5708       2.6153       0.0124       3.0945
 4795.4184       2.6276       0.0129       3.3063
 4795.2660       2.5919       0.0123       3.3947
 4795.1136       2.5983       0.0529       3.4597
 4794.9612       2.5946       0.0925       3.4916
 4794.8088       2.5403       0.0962       3.1622
 4794.6564       2.5082       0.0943       2.9224
 4794.5040       2.5382       0.1060       2.6680
 4794.3516       2.5988       0.1016       2.6306
 4794.1992       2.6162       0.0795       2.6131
 4794.0468       2.5934       0.0638       2.7845
 4793.8944       2.5502       0.0303       3.0391
 4793.7420       2.5902       0.0161       3.1690
 4793.5896       2.6782       0.0169       3.4758
 4793.4372       2.7771       0.0361       3.6740
 4793.2848       2.7570       0.0339       4.3968
 4793.1324       2.7089       0.0456       3.7206
 4792.9800       2.6513       0.0485       3.1494
 4792.8276       2.6274       0.0510       2.8108
 4792.6752       2.6281       0.0475       2.8061
 4792.5228       2.6636       0.0568       2.8723
 4792.3704       2.7027       0.0687       2.9485
 4792.2180       2.7312       0.0863       2.9935
 4792.0656       2.7079       0.1005       2.9997
 4791.9132       2.6831       0.1232       3.2539
 4791.7608       2.6442       0.1261       3.6152
 4791.6084       2.6182       0.1134       3.9303
 4791.4560       2.6328       0.1034       3.8689
 4791.3036       2.6495       0.0824       3.5050
 4791.1512       2.6520       0.0547       3.2371
 4790.9988       2.6300       0.0368       2.9747
 4790.8464       2.5862       0.0327       2.9413
 4790.6940       2.5174       0.0210       2.9078
 4790.5416       2.4824       0.0303       3.0733
 4790.3892       2.4593       0.0326       3.1719
 4790.2368       2.4710       0.0390       3.1040
 4790.0844       2.5021       0.0450       2.8914
 4789.9320       2.5453       0.0572       2.7165
 4789.7796       2.5603       0.0507       2.7080
 4789.6272       2.5555       0.0494       2.7915
 4789.4748       2.5558       0.0490       2.8831
 4789.3224       2.5665       0.0513       2.9292
 4789.1700       2.5885       0.0571       3.0257
 4789.0176       2.5872       0.0662       3.0257
 4788.8652       2.5556       0.0554       2.9420
 4788.7128       2.5206       0.0461       2.7626
 4788.5604       2.5172       0.0519       2.6714
 4788.4080       2.4882       0.0397       2.6314
 4788.2556       2.4656       0.0242       2.6060
 4788.1032       2.4972       0.0340       2.6413
 4787.9508       2.5527       0.0469       2.7641
 4787.7984       2.5864       0.0473       2.8021
 4787.6460       2.5963       0.0522       2.7637
 4787.4936       2.6037       0.0634       2.6097
 4787.3412       2.5937       0.0920       2.5090
 4787.1888       2.5303       0.1019       2.6189
 4787.0364       2.4741       0.1160       2.9639
 4786.8840       2.4818       0.1358       3.1300
 4786.7316       2.4966       0.1426       3.1740
 4786.5792       2.4731       0.1142       3.0788
 4786.4268       2.4294       0.0816       3.1820
