~VERSION INFORMATION
VERS.           2.0   :CWLS Log ASCII Standard - VERSION 2.0
WRAP.           NO    :One Line per depth step
PROD.  Schlumberger   :LAS Producer
PROG.  DLIS to ASCII 11C0-305                          :LAS Program name and version
CREA.        2003/11/19 08:49                          :LAS Creation date {YYYY/MM/DD hh:mm}
SOURCE.     AIT_LDL_APS_NGS_011PUP.DLIS                :DLIS File Name
FILE-ID.     AIT_LDL_APS_NGS_011PUP                    :File Identification Number
#--------------------------------------------------
~WELL INFORMATION
#MNEM.UNIT      DATA             DESCRIPTION
#---- ------ --------------   -----------------------------
STRT .M      4859.4264       :START DEPTH     
STOP .M      4018.3308       :STOP DEPTH     
STEP .M        -0.1524       :STEP     
NULL .          -999.25      :NULL VALUE
COMP .        INPEX Browse, Ltd.                       :COMPANY
WELL .        ICHTHYS DEEP-1                           :WELL
FLD  .        WA-285-P                                 :FIELD
LOC  .        Datum: GDA94 Spheroid GRS80              :LOCATION
CNTY .        Ocean Bounty                             :COUNTY
STAT .        1:200                                    :STATE
CTRY .        Australia                                :COUNTRY
API  .                                                 :API NUMBER
UWI  .                                                 :UNIQUE WELL ID
DATE .        16-Nov-2003                              :LOG DATE {DD-MMM-YYYY}
SRVC .        Schlumberger                             :SERVICE COMPANY
LATI .DEG     13 51' 47.081" S                         :LATITUDE
LONG .DEG     123 13'  56.110" E                       :LONGITUDE
GDAT .                                                 :GeoDetic Datum
#-----------------------------------------------------------------------------
~PARAMETER INFORMATION
#MNEM.UNIT    VALUE                      DESCRIPTION
#---- -----   --------------------       ------------------------
RUN  .          Suite 3 Run 1            :RUN NUMBER
PDAT .        LAT                        :Permanent Datum
EPD  .M           0.000000               :Elevation of Permanent Datum above Mean Sea Level
EPD  .M           0.000000               :Elevation of tool zero above Mean Sea Level
LMF  .          Drill Floor              :Logging Measured From (Name of Logging Elevation Reference)
APD  .M          25.000000               :Elevation of Depth Reference (LMF) above Permanent Datum
#-----------------------------------------------------------------------------
~CURVE INFORMATION
#MNEM.UNIT   API CODE                                  DESCRIPTION
#---- -----  --------                                  -----------------------
DEPT .M                                                :DEPTH (BOREHOLE) {F10.4}
RHOM .G/C3                                             :LDS Corrected Bulk Density {F13.4}
DRH  .G/C3                                             :LDS Bulk Density Correction {F13.4}
PEFL .                                                 :LDS Long-Spaced Corrected Photoelectric Effect {F13.4}
#-----------------------------------------------------------------------------
# 
#     DEPT        RHOM         DRH          PEFL
#
~A  
# ...
 4469.2824       2.6123       0.0136       3.6131
 4469.1300       2.5943       0.0149       3.3760
 4468.9776       2.5943       0.0234       3.3499
 4468.8252       2.6053       0.0294       3.1945
 4468.6728       2.6302       0.0394       3.1339
 4468.5204       2.6474       0.0431       3.1257
 4468.3680       2.6694       0.0485       3.4344
 4468.2156       2.6884       0.0486       3.6895
 4468.0632       2.7075       0.0505       4.1748
 4467.9108       2.6924       0.0458       4.0676
 4467.7584       2.6706       0.0405       3.9581
 4467.6060       2.6438       0.0309       3.5465
 4467.4536       2.6483       0.0360       3.4235
 4467.3012       2.6318       0.0278       3.4362
 4467.1488       2.6357       0.0262       3.5493
 4466.9964       2.6632       0.0340       3.9358
 4466.8440       2.6987       0.0435       3.9548
 4466.6916       2.7015       0.0382       4.2110
 4466.5392       2.6970       0.0375       3.9457
 4466.3868       2.6867       0.0403       3.8897
 4466.2344       2.6625       0.0347       3.6679
 4466.0820       2.6489       0.0329       3.7854
 4465.9296       2.6473       0.0385       3.7215
 4465.7772       2.6515       0.0407       3.7697
 4465.6248       2.6435       0.0343       3.6616
 4465.4724       2.6459       0.0355       3.7212
 4465.3200       2.6655       0.0418       3.6479
 4465.1676       2.6763       0.0444       3.6470
 4465.0152       2.6775       0.0441       3.5490
 4464.8628       2.6653       0.0472       3.6222
 4464.7104       2.6595       0.0421       3.5993
 4464.5580       2.6546       0.0352       3.6303
 4464.4056       2.6785       0.0369       3.8330
 4464.2532       2.6912       0.0426       3.9557
 4464.1008       2.6916       0.0357       4.2599
 4463.9484       2.7142       0.0393       4.1829
 4463.7960       2.7522       0.0166       4.9045
 4463.6436       2.9060       0.0470       6.6148
 4463.4912       3.0358       0.0801      10.9837
 4463.3388       2.9470       0.0685       8.4493
 4463.1864       2.7683       0.0392       4.3483
 4463.0340       2.6941       0.0594       3.7600
 4462.8816       2.6777       0.0570       3.8018
 4462.7292       2.6723       0.0488       3.8523
 4462.5768       2.6684       0.0413       3.9751
 4462.4244       2.6608       0.0333       4.2139
 4462.2720       2.6672       0.0280       4.4995
 4462.1196       2.6850       0.0315       4.4328
 4461.9672       2.7189       0.0413       4.4198
 4461.8148       2.7359       0.0476       4.2169
 4461.6624       2.7396       0.0489       4.0073
 4461.5100       2.7712       0.0598       4.2653
 4461.3576       2.7477       0.0585       4.4196
 4461.2052       2.6811       0.0441       4.4692
 4461.0528       2.6109       0.0304       3.9741
 4460.9004       2.5977       0.0267       3.8153
 4460.7480       2.6145       0.0305       3.7345
 4460.5956       2.6112       0.0289       3.5840
 4460.4432       2.6180       0.0296       3.5246
 4460.2908       2.6270       0.0283       3.6146
 4460.1384       2.6475       0.0314       3.7210
 4459.9860       2.6663       0.0356       3.9407
 4459.8336       2.6809       0.0405       3.8550
 4459.6812       2.6808       0.0414       3.6402
 4459.5288       2.6712       0.0385       3.6392
 4459.3764       2.6661       0.0407       3.7442
 4459.2240       2.6626       0.0317       3.7883
 4459.0716       2.7182       0.0247       3.8707
 4458.9192       2.8437       0.0467       4.4508
 4458.7668       2.8899       0.0537       4.6603
 4458.6144       2.7801       0.0282       4.4853
 4458.4620       2.6652       0.0098       3.3980
 4458.3096       2.6317       0.0125       3.4981
 4458.1572       2.6460       0.0140       3.5186
 4458.0048       2.6706       0.0213       3.8792
 4457.8524       2.6871       0.0236       4.1383
 4457.7000       2.6814       0.0293       4.0013
 4457.5476       2.6649       0.0313       3.9525
 4457.3952       2.6492       0.0273       3.8577
 4457.2428       2.6290       0.0130       3.8068
 4457.0904       2.6985       0.0261       3.9888
 4456.9380       2.7611       0.0355       4.4195
 4456.7856       2.7761       0.0329       5.0617
 4456.6332       2.7123       0.0240       4.7121
 4456.4808       2.6823       0.0253       4.2843
 4456.3284       2.7074       0.0323       4.4843
 4456.1760       2.7325       0.0370       4.6462
 4456.0236       2.7125       0.0346       4.4847
 4455.8712       2.6697       0.0199       4.0645
 4455.7188       2.6487       0.0178       4.5175
 4455.5664       2.6479       0.0146       4.9778
 4455.4140       2.6566       0.0156       5.5375
 4455.2616       2.6542       0.0136       5.0127
 4455.1092       2.6637       0.0182       4.5931
 4454.9568       2.6638       0.0202       4.1614
 4454.8044       2.6726       0.0254       3.9589
 4454.6520       2.6752       0.0305       3.7693
 4454.4996       2.6740       0.0329       3.8365
 4454.3472       2.6751       0.0318       3.9860
 4454.1948       2.6759       0.0303       4.2041
 4454.0424       2.6814       0.0283       4.3665
 4453.8900       2.6723       0.0216       4.3545
 4453.7376       2.6656       0.0175       4.3359
 4453.5852       2.6552       0.0169       4.1736
 4453.4328       2.6571       0.0179       4.1047
 4453.2804       2.6694       0.0229       4.1132
 4453.1280       2.6816       0.0303       4.0146
 4452.9756       2.6681       0.0313       3.9500
 4452.8232       2.6630       0.0296       3.9400
 4452.6708       2.6728       0.0357       3.9339
 4452.5184       2.7020       0.0521       4.1319
 4452.3660       2.6912       0.0444       4.2488
 4452.2136       2.6756       0.0400       4.4755
 4452.0612       2.6866       0.0483       4.0849
 4451.9088       2.6936       0.0481       4.1033
 4451.7564       2.7134       0.0554       4.3915
 4451.6040       2.7186       0.0575       4.7417
 4451.4516       2.7214       0.0627       4.7002
 4451.2992       2.7222       0.0706       4.4097
 4451.1468       2.7192       0.0701       4.6723
 4450.9944       2.6874       0.0520       4.7283
 4450.8420       2.6939       0.0590       4.6044
 4450.6896       2.6905       0.0534       5.0178
 4450.5372       2.7055       0.0437       5.4012
 4450.3848       2.7210       0.0507       5.5259
 4450.2324       2.7097       0.0498       4.6164
 4450.0800       2.6884       0.0463       4.2321
 4449.9276       2.6817       0.0498       3.9924
 4449.7752       2.6741       0.0479       4.1235
 4449.6228       2.6736       0.0392       4.2351
 4449.4704       2.6972       0.0421       4.7034
 4449.3180       2.6985       0.0358       4.6070
 4449.1656       2.6602       0.0210       3.8732
 4449.0132       2.6418       0.0158       3.7122
 4448.8608       2.6603       0.0215       3.8611
 4448.7084       2.6999       0.0341       4.5070
 4448.5560       2.7278       0.0386       4.7019
 4448.4036       2.7573       0.0441       4.5790
 4448.2512       2.7993       0.0502       4.7087
 4448.0988       2.8183       0.0549       4.7314
 4447.9464       2.7853       0.0441       4.9297
 4447.7940       2.7283       0.0321       4.5793
 4447.6416       2.6878       0.0260       4.3008
 4447.4892       2.6686       0.0194       3.7163
 4447.3368       2.6822       0.0019       3.7375
 4447.1844       2.8200       0.0015       4.2784
 4447.0320       2.9896       0.0275       5.7160
 4446.8796       3.0294       0.0410       5.8192
 4446.7272       2.8224       0.0066       4.9387
 4446.5748       2.7255       0.0144       4.1377
 4446.4224       2.7037       0.0414       4.0302
 4446.2700       2.6851       0.0392       3.6850
 4446.1176       2.6586       0.0330       3.4873
 4445.9652       2.6601       0.0419       3.5497
 4445.8128       2.6521       0.0420       3.4191
 4445.6604       2.6507       0.0379       3.5574
 4445.5080       2.6629       0.0468       3.4940
 4445.3556       2.6698       0.0497       3.4955
 4445.2032       2.6667       0.0488       3.4609
 4445.0508       2.6563       0.0468       3.4397
