~VERSION INFORMATION
VERS.           2.0   :CWLS Log ASCII Standard - VERSION 2.0
WRAP.           NO    :One Line per depth step
PROD.  Schlumberger   :LAS Producer
PROG.  DLIS to ASCII 11C0-305                          :LAS Program name and version
CREA.        2003/11/19 08:45                          :LAS Creation date {YYYY/MM/DD hh:mm}
SOURCE.     UBI_Mainpb1_036PUP.DLIS                    :DLIS File Name
FILE-ID.     UBI_Mainpb1_036PUP                        :File Identification Number
#--------------------------------------------------
~WELL INFORMATION
#MNEM.UNIT      DATA             DESCRIPTION
#---- ------ --------------   -----------------------------
STRT .M      4859.4264       :START DEPTH     
STOP .M      4016.0448       :STOP DEPTH     
STEP .M        -0.1524       :STEP     
NULL .          -999.25      :NULL VALUE
COMP .        INPEX Browse, Ltd.                       :COMPANY
WELL .        ICHTHYS DEEP-1                           :WELL
FLD  .        WA-285-P                                 :FIELD
LOC  .        Datum: GDA94 Spheroid GRS80              :LOCATION
CNTY .        Ocean Bounty                             :COUNTY
STAT .        1:200                                    :STATE
CTRY .        Australia                                :COUNTRY
API  .                                                 :API NUMBER
UWI  .                                                 :UNIQUE WELL ID
DATE .        16-Nov-2003                              :LOG DATE {DD-MMM-YYYY}
SRVC .        Schlumberger                             :SERVICE COMPANY
LATI .DEG     13 51' 47.081" S                         :LATITUDE
LONG .DEG     123 13'  56.110" E                       :LONGITUDE
GDAT .                                                 :GeoDetic Datum
#-----------------------------------------------------------------------------
~PARAMETER INFORMATION
#MNEM.UNIT    VALUE                      DESCRIPTION
#---- -----   --------------------       ------------------------
RUN  .          Suite 3 Run 1            :RUN NUMBER
PDAT .        LAT                        :Permanent Datum
EPD  .M           0.000000               :Elevation of Permanent Datum above Mean Sea Level
EPD  .M           0.000000               :Elevation of tool zero above Mean Sea Level
LMF  .          Drill Floor              :Logging Measured From (Name of Logging Elevation Reference)
APD  .M          25.000000               :Elevation of Depth Reference (LMF) above Permanent Datum
#-----------------------------------------------------------------------------
~CURVE INFORMATION
#MNEM.UNIT   API CODE                                  DESCRIPTION
#---- -----  --------                                  -----------------------
DEPT .M                                                :DEPTH (BOREHOLE) {F10.4}
LCAL .IN                                               :LDS Caliper {F13.4}
GR   .GAPI                                             :Gamma Ray {F13.4}
#-----------------------------------------------------------------------------
# 
#     DEPT        LCAL         GR
#
~A  
# ...
 4098.7980       9.3890      34.0993
 4098.6456       9.2073      32.0652
 4098.4932       9.1373      28.6486
 4098.3408       9.0457      25.4252
 4098.1884       9.1534      26.5670
 4098.0360       9.2326      38.0384
 4097.8836       9.3415      63.0049
 4097.7312       9.5327      88.1216
 4097.5788       9.9919      96.3568
 4097.4264      11.0162      86.0197
 4097.2740      11.8280      79.4056
 4097.1216      11.7073      78.6396
 4096.9692      11.4366      80.9952
 4096.8168      11.3666      76.5020
 4096.6644      11.4599      77.5084
 4096.5120      12.3272      84.3478
 4096.3596      12.6753      80.3073
 4096.2072      12.8806      65.3454
 4096.0548      12.4628      43.8766
 4095.9024      11.5521      30.7182
 4095.7500      12.1336      23.4573
 4095.5976      13.1291      22.8374
 4095.4452      13.2237      32.6296
 4095.2928      13.3231      52.4743
 4095.1404      13.6874      73.5323
 4094.9880      12.6506      84.1117
 4094.8356      13.1545      69.9162
 4094.6832      13.0284      48.7003
 4094.5308      13.3500      31.2082
 4094.3784      13.7421      27.8988
 4094.2260      14.1000      27.7708
 4094.0736      13.8955      25.1053
 4093.9212      13.6695      24.0175
 4093.7688      13.5315      22.5057
 4093.6164      13.7491      23.7455
 4093.4640      13.6291      28.4264
 4093.3116      13.3001      38.7045
 4093.1592      12.7442      57.5863
 4093.0068      11.7888      66.8490
 4092.8544      10.9776      59.8994
 4092.7020      10.6524      39.1974
 4092.5496      10.5405      22.3255
 4092.3972      10.3294      17.6369
 4092.2448      10.2091      16.4347
 4092.0924      10.1202      16.8795
 4091.9400      10.0797      17.1277
 4091.7876       9.9932      18.2485
 4091.6352       9.9072      19.5503
 4091.4828       9.8989      19.8562
 4091.3304       9.8399      19.9376
 4091.1780       9.7292      20.1747
 4091.0256       9.6162      20.7025
 4090.8732       9.5341      21.5929
 4090.7208       9.5194      23.0108
 4090.5684       9.4685      24.2246
 4090.4160       9.4222      24.5966
 4090.2636       9.3858      22.0758
 4090.1112       9.3207      20.3811
 4089.9588       9.2031      18.9985
 4089.8064       9.1391      21.7933
 4089.6540       9.0873      25.9409
 4089.5016       9.0193      29.1268
 4089.3492       8.8838      27.2278
 4089.1968       8.8128      23.4952
 4089.0444       8.7556      20.6680
 4088.8920       8.7534      20.8860
 4088.7396       8.7697      20.8317
 4088.5872       8.7610      22.5769
 4088.4348       8.7452      23.3207
 4088.2824       8.8141      23.2606
 4088.1300       8.8278      21.6376
 4087.9776       8.8124      20.6758
 4087.8252       8.8136      21.0462
 4087.6728       8.8180      21.3899
 4087.5204       8.8278      26.3810
 4087.3680       8.7941      31.6141
 4087.2156       8.8001      34.3961
 4087.0632       8.7548      31.6911
 4086.9108       8.6467      27.6506
 4086.7584       8.6265      24.1247
 4086.6060       8.5993      22.4785
 4086.4536       8.6073      22.5017
 4086.3012       8.6009      24.3154
 4086.1488       8.5883      25.6292
 4085.9964       8.5690      25.3053
 4085.8440       8.5684      24.5017
 4085.6916       8.5600      22.2683
 4085.5392       8.5335      21.2465
 4085.3868       8.5293      21.8299
 4085.2344       8.5301      24.4972
 4085.0820       8.5398      26.8415
 4084.9296       8.5661      28.1615
 4084.7772       8.5866      28.3005
 4084.6248       8.6016      26.6846
 4084.4724       8.6076      24.1712
 4084.3200       8.6648      22.4280
 4084.1676       8.7347      23.6833
 4084.0152       8.7587      31.6178
 4083.8628       8.7764      35.7636
 4083.7104       8.7581      35.8575
 4083.5580       8.7221      28.5841
 4083.4056       8.7120      23.9421
 4083.2532       8.6978      21.6928
 4083.1008       8.6839      21.3098
 4082.9484       8.6156      21.4231
 4082.7960       8.5822      20.8064
 4082.6436       8.6352      19.5664
 4082.4912       8.6487      18.8880
 4082.3388       8.6606      19.7048
 4082.1864       8.6618      20.1680
 4082.0340       8.6575      19.8362
 4081.8816       8.6339      20.4296
 4081.7292       8.6439      26.3639
 4081.5768       8.7730      40.8062
 4081.4244       8.8482      58.7723
 4081.2720       8.9303      79.4846
 4081.1196       8.9559      83.9089
 4080.9672       9.0112      72.1736
 4080.8148       8.9679      48.8525
 4080.6624       9.0167      31.5613
 4080.5100       9.0603      28.9960
 4080.3576       9.0646      34.4952
 4080.2052       9.0649      51.1028
 4080.0528       9.0622      77.0652
 4079.9004       9.0572     104.0238
 4079.7480       9.0507     130.4329
 4079.5956       9.0522     144.0037
 4079.4432       9.0442     147.2531
 4079.2908       9.0368     125.7065
 4079.1384       9.0234      87.6085
 4078.9860       9.0643      51.2795
 4078.8336       9.0664      32.4749
 4078.6812       9.0617      40.6980
 4078.5288       9.0408      58.4494
 4078.3764       9.0093      74.5010
 4078.2240       9.0069      81.4137
 4078.0716       9.0088      76.1240
 4077.9192       9.0369      66.3334
 4077.7668       8.9599      61.0025
 4077.6144       8.9336      60.8893
 4077.4620       8.9117      70.7808
 4077.3096       8.9087      80.8605
 4077.1572       9.0631      73.0973
 4077.0048       8.9718      55.1436
 4076.8524       8.8780      30.9942
 4076.7000       8.8466      26.4878
 4076.5476       8.8371      25.6819
 4076.3952       8.8159      26.8090
 4076.2428       8.8585      31.1370
 4076.0904       8.9713      36.1261
 4075.9380       8.9727      39.2289
 4075.7856       8.9565      40.7091
 4075.6332       8.9304      47.2499
 4075.4808       8.8694      66.2678
 4075.3284       8.8483      73.2543
 4075.1760       8.8479      62.8012
 4075.0236       8.8767      42.7415
 4074.8712       8.8756      38.4825
 4074.7188       8.8275      49.4825
 4074.5664       8.7579      65.4083
 4074.4140       8.8402      96.7259
 4074.2616       8.8535     116.2633
 4074.1092       8.8543     116.5520
 4073.9568       8.8410      92.4689
 4073.8044       8.7776      83.8082
 4073.6520       8.7566      93.8345
 4073.4996       8.7577     113.7876
 4073.3472       8.7809     125.2927
 4073.1948       8.7900     134.5875
 4073.0424       8.7935     134.3541
 4072.8900       8.8186     143.1148
 4072.7376       8.8436     149.6431
 4072.5852       8.8958     159.5967
 4072.4328       8.9749     157.0420
 4072.2804       8.9788     154.1409
 4072.1280       8.9800     150.3883
 4071.9756       8.9803     153.4805
 4071.8232       8.9642     154.7273
 4071.6708       8.9426     151.5071
 4071.5184       8.9207     146.4614
 4071.3660       8.9058     145.3681
 4071.2136       8.9005     149.2753
 4071.0612       8.9021     157.6306
 4070.9088       8.9030     158.0902
 4070.7564       8.8914     155.5196
 4070.6040       8.8771     146.3828
 4070.4516       8.9082     143.8794
 4070.2992       8.8745     143.4163
 4070.1468       8.8756     145.2215
 4069.9944       8.8770     143.5172
 4069.8420       8.8757     140.9005
 4069.6896       8.8774     138.1181
 4069.5372       8.8378     139.7057
 4069.3848       8.8093     141.3252
 4069.2324       8.8087     145.7959
 4069.0800       8.7920     143.9490
 4068.9276       8.7834     145.0344
 4068.7752       8.7850     140.7426
 4068.6228       8.8061     139.3790
 4068.4704       8.8130     138.4773
 4068.3180       8.8378     140.6788
 4068.1656       8.8496     145.2163
 4068.0132       8.8354     145.2592
 4067.8608       8.8167     146.7661
 4067.7084       8.8114     144.6691
 4067.5560       8.8061     143.5442
 4067.4036       8.7857     144.1807
 4067.2512       8.7834     144.6518
 4067.0988       8.7832     145.2016
 4066.9464       8.7685     146.3737
 4066.7940       8.7863     147.9429
 4066.6416       8.8085     152.8821
 4066.4892       8.8184     152.0069
 4066.3368       8.8142     153.5372
 4066.1844       8.7843     152.9154
 4066.0320       8.7823     145.6080
 4065.8796       8.7851     124.1486
