~VERSION INFORMATION
VERS.           2.0   :CWLS Log ASCII Standard - VERSION 2.0
WRAP.           NO    :One Line per depth step
PROD.  Schlumberger   :LAS Producer
PROG.  DLIS to ASCII 11C0-305                          :LAS Program name and version
CREA.        2003/11/19 08:45                          :LAS Creation date {YYYY/MM/DD hh:mm}
SOURCE.     UBI_Mainpb1_036PUP.DLIS                    :DLIS File Name
FILE-ID.     UBI_Mainpb1_036PUP                        :File Identification Number
#--------------------------------------------------
~WELL INFORMATION
#MNEM.UNIT      DATA             DESCRIPTION
#---- ------ --------------   -----------------------------
STRT .M      4859.4264       :START DEPTH     
STOP .M      4016.0448       :STOP DEPTH     
STEP .M        -0.1524       :STEP     
NULL .          -999.25      :NULL VALUE
COMP .        INPEX Browse, Ltd.                       :COMPANY
WELL .        ICHTHYS DEEP-1                           :WELL
FLD  .        WA-285-P                                 :FIELD
LOC  .        Datum: GDA94 Spheroid GRS80              :LOCATION
CNTY .        Ocean Bounty                             :COUNTY
STAT .        1:200                                    :STATE
CTRY .        Australia                                :COUNTRY
API  .                                                 :API NUMBER
UWI  .                                                 :UNIQUE WELL ID
DATE .        16-Nov-2003                              :LOG DATE {DD-MMM-YYYY}
SRVC .        Schlumberger                             :SERVICE COMPANY
LATI .DEG     13 51' 47.081" S                         :LATITUDE
LONG .DEG     123 13'  56.110" E                       :LONGITUDE
GDAT .                                                 :GeoDetic Datum
#-----------------------------------------------------------------------------
~PARAMETER INFORMATION
#MNEM.UNIT    VALUE                      DESCRIPTION
#---- -----   --------------------       ------------------------
RUN  .          Suite 3 Run 1            :RUN NUMBER
PDAT .        LAT                        :Permanent Datum
EPD  .M           0.000000               :Elevation of Permanent Datum above Mean Sea Level
EPD  .M           0.000000               :Elevation of tool zero above Mean Sea Level
LMF  .          Drill Floor              :Logging Measured From (Name of Logging Elevation Reference)
APD  .M          25.000000               :Elevation of Depth Reference (LMF) above Permanent Datum
#-----------------------------------------------------------------------------
~CURVE INFORMATION
#MNEM.UNIT   API CODE                                  DESCRIPTION
#---- -----  --------                                  -----------------------
DEPT .M                                                :DEPTH (BOREHOLE) {F10.4}
LCAL .IN                                               :LDS Caliper {F13.4}
GR   .GAPI                                             :Gamma Ray {F13.4}
#-----------------------------------------------------------------------------
# 
#     DEPT        LCAL         GR
#
~A  
# ...
 4429.5060       8.4599     164.8674
 4429.3536       8.4702     160.6084
 4429.2012       8.4721     163.4159
 4429.0488       8.4762     163.0705
 4428.8964       8.4745     161.3344
 4428.7440       8.4736     157.2469
 4428.5916       8.4740     156.7838
 4428.4392       8.4770     162.0272
 4428.2868       8.4745     167.8579
 4428.1344       8.4775     171.9418
 4427.9820       8.4751     169.8932
 4427.8296       8.4750     168.3904
 4427.6772       8.4752     167.9930
 4427.5248       8.4758     168.6566
 4427.3724       8.4752     168.9572
 4427.2200       8.4753     164.1038
 4427.0676       8.4888     161.8066
 4426.9152       8.4973     156.6972
 4426.7628       8.5020     158.1557
 4426.6104       8.5015     154.7913
 4426.4580       8.5044     157.6165
 4426.3056       8.5055     154.9984
 4426.1532       8.5050     157.6846
 4426.0008       8.5022     157.3896
 4425.8484       8.5045     161.0827
 4425.6960       8.5045     160.3801
 4425.5436       8.5087     154.0099
 4425.3912       8.5063     146.7695
 4425.2388       8.5068     143.1670
 4425.0864       8.5029     146.7521
 4424.9340       8.5062     153.3493
 4424.7816       8.5036     160.3901
 4424.6292       8.5039     163.0554
 4424.4768       8.5024     161.6413
 4424.3244       8.5027     161.2531
 4424.1720       8.4962     165.6662
 4424.0196       8.4965     167.3298
 4423.8672       8.4986     166.9246
 4423.7148       8.4951     165.6603
 4423.5624       8.4892     165.6228
 4423.4100       8.6566     164.4987
 4423.2576       8.5262     162.3340
 4423.1052       8.5044     161.3338
 4422.9528       8.4809     157.5539
 4422.8004       8.5763     155.3243
 4422.6480       8.6616     157.3466
 4422.4956       8.5809     157.8944
 4422.3432       8.4337     152.3061
 4422.1908       8.4467     150.1151
 4422.0384       8.4519     156.0076
 4421.8860       8.4497     164.7590
 4421.7336       8.4512     165.1674
 4421.5812       8.4493     162.8596
 4421.4288       8.4506     154.3741
 4421.2764       8.4705     152.8507
 4421.1240       8.4733     151.5629
 4420.9716       8.4732     155.6604
 4420.8192       8.4707     156.0461
 4420.6668       8.4735     157.7747
 4420.5144       8.4672     158.7465
 4420.3620       8.4712     157.4153
 4420.2096       8.4752     157.2277
 4420.0572       8.4747     160.3685
 4419.9048       8.4745     164.4547
 4419.7524       8.4717     159.7415
 4419.6000       8.4731     157.2749
 4419.4476       8.4688     150.2267
 4419.2952       8.4730     152.2592
 4419.1428       8.4695     152.2135
 4418.9904       8.4747     156.0108
 4418.8380       8.4742     156.7613
 4418.6856       8.4665     158.1165
 4418.5332       8.4700     153.6392
 4418.3808       8.4710     144.3217
 4418.2284       8.4700     132.8607
 4418.0760       8.4747     128.5867
 4417.9236       8.4704     134.6219
 4417.7712       8.4717     141.5646
 4417.6188       8.4731     150.3160
 4417.4664       8.4745     151.4731
 4417.3140       8.4714     151.3078
 4417.1616       8.4698     153.6415
 4417.0092       8.4764     157.1258
 4416.8568       8.4729     162.2503
 4416.7044       8.4742     165.7508
 4416.5520       8.4710     164.3506
 4416.3996       8.4729     162.9731
 4416.2472       8.4728     157.6898
 4416.0948       8.4764     158.5350
 4415.9424       8.4735     156.3861
 4415.7900       8.4726     154.3615
 4415.6376       8.4710     153.5411
 4415.4852       8.4702     153.4686
 4415.3328       8.4785     152.9586
 4415.1804       8.4696     150.6844
 4415.0280       8.4764     152.6811
 4414.8756       8.4717     154.1887
 4414.7232       8.4745     157.1327
 4414.5708       8.4732     156.3104
 4414.4184       8.4717     157.9533
 4414.2660       8.4761     157.9297
 4414.1136       8.4717     156.7953
 4413.9612       8.4726     155.6284
 4413.8088       8.4714     150.1734
 4413.6564       8.4698     151.8148
 4413.5040       8.4728     149.3352
 4413.3516       8.4742     153.5504
 4413.1992       8.4732     150.1369
 4413.0468       8.4672     153.6083
 4412.8944       8.4712     152.8644
 4412.7420       8.4700     160.7990
 4412.5896       8.4639     160.1791
 4412.4372       8.4519     163.3199
 4412.2848       8.4502     162.2041
 4412.1324       8.4441     160.5097
 4411.9800       8.4448     158.3938
 4411.8276       8.4468     154.7808
 4411.6752       8.4462     160.3350
 4411.5228       8.4453     158.3891
 4411.3704       8.4490     156.3488
 4411.2180       8.4488     157.4067
 4411.0656       8.4198     157.6334
 4410.9132       8.4168     154.7324
 4410.7608       8.4201     149.9094
 4410.6084       8.4193     152.0253
 4410.4560       8.4201     158.2528
 4410.3036       8.4204     155.9550
 4410.1512       8.4224     151.2146
 4409.9988       8.4368     153.3290
 4409.8464       8.4406     156.1519
 4409.6940       8.4436     158.9086
 4409.5416       8.4422     154.7902
 4409.3892       8.4450     150.2278
 4409.2368       8.4415     153.1277
 4409.0844       8.4448     152.8632
 4408.9320       8.4502     154.3179
 4408.7796       8.4507     156.7933
 4408.6272       8.4502     158.7925
 4408.4748       8.4530     156.0154
 4408.3224       8.4519     147.8630
 4408.1700       8.4516     137.9292
 4408.0176       8.4519     140.5741
 4407.8652       8.4544     143.4834
 4407.7128       8.4504     145.3159
 4407.5604       8.4490     146.7706
 4407.4080       8.4500     145.5804
 4407.2556       8.4516     156.0465
 4407.1032       8.4521     160.8072
 4406.9508       8.4486     164.6423
 4406.7984       8.4530     155.0263
 4406.6460       8.4514     148.2819
 4406.4936       8.4530     149.8216
 4406.3412       8.4676     152.2964
 4406.1888       8.4710     141.9815
 4406.0364       8.4722     125.5810
 4405.8840       8.4732     127.3746
 4405.7316       8.4947     133.8545
 4405.5792       8.4799     143.7727
 4405.4268       8.4778     148.4590
 4405.2744       8.4794     155.6002
 4405.1220       8.4797     159.6170
 4404.9696       8.4815     155.3853
 4404.8172       8.4752     156.8399
 4404.6648       8.4794     152.4759
 4404.5124       8.4782     154.2529
 4404.3600       8.4764     148.5665
 4404.2076       8.4881     149.4922
 4404.0552       8.4924     148.9963
 4403.9028       8.4808     144.2355
 4403.7504       8.4974     142.9131
 4403.5980       8.4971     141.4254
 4403.4456       8.4974     150.2856
 4403.2932       8.4994     155.1208
 4403.1408       8.4988     154.7488
 4402.9884       8.5013     158.5839
 4402.8360       8.5018     157.1871
 4402.6836       8.5044     152.3519
 4402.5312       8.5049     139.1276
 4402.3788       8.4999     134.3669
 4402.2264       8.6782     141.2353
 4402.0740       8.5588     157.5425
 4401.9216       8.5571     174.8663
 4401.7692       8.5788     176.1805
 4401.6168       8.5906     175.3457
 4401.4644       8.5541     164.8985
 4401.3120       8.5743     167.4194
 4401.1596       8.4785     162.2619
 4401.0072       8.6988     166.0970
 4400.8548       8.4292     163.0802
 4400.7024       8.4420     165.4605
 4400.5500       8.4500     166.8573
 4400.3976       8.4533     165.5101
 4400.2452       8.4752     165.6506
 4400.0928       8.4733     161.8735
 4399.9404       8.5785     165.1795
 4399.7880       8.4973     168.3451
 4399.6356       8.8923     169.8907
 4399.4832       8.9225     171.6098
 4399.3308       8.7877     164.4770
 4399.1784       8.8437     161.2122
 4399.0260       8.8574     154.6827
 4398.8736       8.7645     146.0787
 4398.7212       8.5579     141.8469
 4398.5688       8.7548     139.9129
 4398.4164       8.7021     148.0210
 4398.2640       8.6972     147.0953
 4398.1116       8.5282     153.9885
 4397.9592       8.7351     156.8565
 4397.8068       8.9268     160.6915
 4397.6544       8.6730     159.2203
 4397.5020       8.7482     161.6833
 4397.3496       8.8758     164.2337
 4397.1972       8.5545     166.6968
 4397.0448       8.4008     165.9529
 4396.8924       8.4490     168.2376
 4396.7400       8.5555     167.2293
 4396.5876       8.4535     160.5345
