~VERSION INFORMATION
VERS.           2.0   :CWLS Log ASCII Standard - VERSION 2.0
WRAP.           NO    :One Line per depth step
PROD.  Schlumberger   :LAS Producer
PROG.  DLIS to ASCII 11C0-305                          :LAS Program name and version
CREA.        2003/11/16 09:47                          :LAS Creation date {YYYY/MM/DD hh:mm}
SOURCE.     AIT_MainPB1_027PUP.DLIS                    :DLIS File Name
FILE-ID.     AIT_MainPB1_027PUP                        :File Identification Number
#--------------------------------------------------
~WELL INFORMATION
#MNEM.UNIT      DATA             DESCRIPTION
#---- ------ --------------   -----------------------------
STRT .M      4869.0276       :START DEPTH     
STOP .M      3996.2328       :STOP DEPTH     
STEP .M        -0.1524       :STEP     
NULL .          -999.25      :NULL VALUE
COMP .        INPEX Browse, Ltd.                       :COMPANY
WELL .        ICHTHYS DEEP-1                           :WELL
FLD  .        WA-285-P                                 :FIELD
LOC  .        Datum: GDA94 Spheroid GRS80              :LOCATION
CNTY .        Ocean Bounty                             :COUNTY
STAT .        1:200                                    :STATE
CTRY .        Australia                                :COUNTRY
API  .                                                 :API NUMBER
UWI  .                                                 :UNIQUE WELL ID
DATE .        16-Nov-2003                              :LOG DATE {DD-MMM-YYYY}
SRVC .        Schlumberger                             :SERVICE COMPANY
LATI .DEG     13 51' 47.081" S                         :LATITUDE
LONG .DEG     123 13'  56.110" E                       :LONGITUDE
GDAT .                                                 :GeoDetic Datum
#-----------------------------------------------------------------------------
~PARAMETER INFORMATION
#MNEM.UNIT    VALUE                      DESCRIPTION
#---- -----   --------------------       ------------------------
RUN  .          Suite 3 Run 1            :RUN NUMBER
PDAT .        LAT                        :Permanent Datum
EPD  .M           0.000000               :Elevation of Permanent Datum above Mean Sea Level
EPD  .M           0.000000               :Elevation of tool zero above Mean Sea Level
LMF  .          Drill Floor              :Logging Measured From (Name of Logging Elevation Reference)
APD  .M          25.000000               :Elevation of Depth Reference (LMF) above Permanent Datum
#-----------------------------------------------------------------------------
~CURVE INFORMATION
#MNEM.UNIT   API CODE                                  DESCRIPTION
#---- -----  --------                                  -----------------------
DEPT .M                                                :DEPTH (BOREHOLE) {F10.4}
TENS .LBF                                              :Cable Tension {F13.4}
APLU .V/V                                              :APS Near/Array Uncorrected Limestone Porosity {F13.4}
RHOM .G/C3                                             :LDS Corrected Bulk Density {F13.4}
DRH  .G/C3                                             :LDS Bulk Density Correction {F13.4}
PEFL .                                                 :LDS Long-Spaced Corrected Photoelectric Effect {F13.4}
LCAL .IN                                               :LDS Caliper {F13.4}
HSGR .GAPI                                             :HNGS Standard Gamma Ray {F13.4}
CDF  .N                                                :Calibrated Downhole Force {F13.4}
APLC .V/V                                              :APS Near/Array Corrected Limestone Porosity {F13.4}
ATD2 .IN                                               :Array Induction Two Foot Outer Diameter of Invasion (D2) {F13.4}
ATD1 .IN                                               :Array Induction Two Foot Inner Diameter of Invasion(D1) {F13.4}
AOD2 .IN                                               :Array Induction One Foot Outer Diameter of Invasion (D2) {F13.4}
AOD1 .IN                                               :Array Induction One Foot Inner Diameter of Invasion (D1) {F13.4}
AT90 .OHMM                                             :Array Induction Two Foot Resistivity A90 {F13.4}
AT60 .OHMM                                             :Array Induction Two Foot Resistivity A60 {F13.4}
AT30 .OHMM                                             :Array Induction Two Foot Resistivity A30 {F13.4}
AT20 .OHMM                                             :Array Induction Two Foot Resistivity A20 {F13.4}
AT10 .OHMM                                             :Array Induction Two Foot Resistivity A10 {F13.4}
AO90 .OHMM                                             :Array Induction One Foot Resistivity A90 {F13.4}
AO60 .OHMM                                             :Array Induction One Foot Resistivity A60 {F13.4}
AO30 .OHMM                                             :Array Induction One Foot Resistivity A30 {F13.4}
AO20 .OHMM                                             :Array Induction One Foot Resistivity A20 {F13.4}
AO10 .OHMM                                             :Array Induction One Foot Resistivity A10 {F13.4}
SIGF .CU                                               :APS Formation Capture Cross-Section {F13.4}
ANEC .HZ                                               :APS Near Detector Count Rate {F13.4}
AFEC .HZ                                               :APS Far Detector Count Rate {F13.4}
A1EP .HZ                                               :APS Array-1 Detector Count Rate {F13.4}
A2EP .HZ                                               :APS Array-2 Detector Count Rate {F13.4}
AFTC .HZ                                               :APS Thermal Detector Count Rate {F13.4}
#-----------------------------------------------------------------------------
# 
#     DEPT        TENS         APLU         RHOM         DRH          PEFL         LCAL         HSGR         CDF          APLC         ATD2         ATD1         AOD2         AOD1         AT90         AT60         AT30         AT20         AT10         AO90         AO60         AO30         AO20         AO10         SIGF         ANEC         AFEC         A1EP         A2EP         AFTC
#
~A  
# ...
 4404.9696    5842.0000       0.2171       2.8139      -0.0079    -999.2500       8.5989     148.4904    5993.2896       0.2028       8.6368       8.6368       8.8502       8.7758       4.5851       4.5609       4.5958       4.7078       4.8216       4.5023       4.4478       4.5630       4.6129       4.6058      32.3992    2762.0000     753.0000    1923.0000    1883.0000    1862.2106
 4404.8172    5760.0000       0.2152       2.8139      -0.0079    -999.2500       8.6009     148.9462    5934.7798       0.2025       8.7154       8.7154       9.3160       8.5997       4.6139       4.5942       4.5960       4.7300       4.8532       4.4546       4.4095       4.5288       4.7444       4.6560      32.0728    2779.0000     767.0000    1920.0000    1832.0000    1887.8256
 4404.6648    5807.0000       0.2064       2.8139      -0.0079    -999.2500       8.5994     143.7997    5915.8037       0.1908       8.7154       8.7154      12.2743       8.7336       4.7320       4.7271       4.8195       4.9496       5.0966       4.6670       4.5949       4.8044       5.1777       4.9598      30.0458    2891.0000     744.0000    2056.0000    1998.0000    1962.1091
 4404.5124    5810.0000       0.1862       2.8139      -0.0079    -999.2500       8.5997     136.8952    5944.2681       0.1667       8.6882       8.6882      20.8554      11.6803       4.9625       4.9566       5.1582       5.2975       5.6776       5.4670       5.3797       5.6970       5.5307       5.7655      30.7843    2862.0000     764.0000    2088.0000    1987.0000    2049.2000
 4404.3600    5745.0000       0.1721       2.8139      -0.0079    -999.2500       8.6011     132.7033    5906.3159       0.1553       8.6283       8.6283      30.4474      17.6236       4.3935       4.4092       4.5451       4.7530       5.0835       4.4199       4.4058       4.5833       4.6903       5.0728      30.6347    2909.0000     850.0000    2085.0000    2148.0000    2272.0505
 4404.2076    5748.0000       0.1611       2.8139      -0.0079    -999.2500       8.6017     135.1851    5866.7817       0.1466       8.6043       8.6043      32.6821      22.1485       3.9342       3.9638       4.0148       4.1536       4.5322       3.8523       3.8450       4.2116       4.2544       4.3752      29.5520    2844.0000     878.0000    2182.0000    2166.0000    2318.1577
 4404.0552    5684.0000       0.1626       2.8139      -0.0079    -999.2500       8.6011     134.8732    5843.0615       0.1471       8.6012       8.6012      25.2762      20.7133       3.8709       3.8945       4.0064       4.0890       4.3626       3.7991       3.8059       4.0770       4.1375       4.3389      29.6266    2755.0000     863.0000    2180.0000    2089.0000    2113.2375
 4403.9028    5735.0000       0.1634       2.8139      -0.0079    -999.2500       8.6011     136.8227    5846.2246       0.1510       8.6010       8.6010      16.7949      15.6248       3.8769       3.9047       4.0283       4.1721       4.4256       3.8651       3.8690       4.0431       4.1110       4.2008      30.6242    2815.0000     900.0000    2224.0000    2011.0000    2015.9006
 4403.7504    5756.0000       0.1648       2.8139      -0.0079    -999.2500       8.5997     138.6026    5876.2700       0.1537       8.6040       8.6040      17.9864      17.8246       3.9655       3.9908       4.1991       4.4032       4.7078       4.7160       4.7365       4.7639       4.7291       4.9464      31.1461    2899.0000     849.0000    2127.0000    2141.0000    2077.3765
 4403.5980    5779.0000       0.1744       2.8139      -0.0079    -999.2500       8.6029     144.9021    5906.3159       0.1636       8.6010       8.6010      31.4291      31.3309       3.8715       3.9031       3.9477       4.0386       4.2524       3.7229       3.7272       3.6776       3.8779       3.9272      31.5441    2840.0000     852.0000    2123.0000    2077.0000    2041.5155
 4403.4456    5794.0000       0.1968       2.8139      -0.0079    -999.2500       8.5997     152.6698    5911.0596       0.1861       8.6026       8.6026      52.2637      51.9695       3.4299       3.4507       3.5055       3.6100       3.8968       3.3801       3.3779       3.5160       3.5774       3.3290      32.3304    2799.0000     838.0000    1996.0000    2079.0000    2133.7295
 4403.2932    5877.0000       0.1998       2.8139      -0.0079    -999.2500       8.6011     149.8228    5901.5718       0.1919       8.6011       8.6011      58.8779      58.2217       4.0006       4.0280       4.1200       4.2190       4.4962       4.1250       4.1185       4.4270       4.5662       4.4153      32.3788    2827.0000     783.0000    1952.0000    1964.0000    1980.0396
 4403.1408    5878.0000       0.1813       2.8139      -0.0079    -999.2500       8.5997     150.7948    5881.0137       0.1713       8.6027       8.6027      44.2088      43.3722       4.7813       4.8055       4.7627       4.8737       5.0560       5.0732       5.0095       5.3123       6.0417       5.9092      33.1394    2950.0000     733.0000    2085.0000    2005.0000    1900.6331
 4402.9884    5807.0000       0.1802       2.8139      -0.0079    -999.2500       8.5997     144.7835    5868.3633       0.1700       8.6138       8.6138      23.3755      22.8251       5.0507       5.0917       5.1769       5.3964       5.7316       5.0331       5.0069       5.1613       5.6038       5.7787      32.6463    2843.0000     823.0000    2259.0000    2176.0000    1880.1410
 4402.8360    5876.0000       0.1887       2.8139      -0.0079    -999.2500       8.6368     139.5056    5854.1313       0.1801       8.6405       8.6405      11.4398      11.2559       5.1866       5.2422       5.2101       5.3987       5.6073       4.9270       4.9079       4.7273       5.2405       4.9627      32.6142    2816.0000     843.0000    2008.0000    1963.0000    1754.6276
 4402.6836    5835.0000       0.1942       2.8139      -0.0079    -999.2500       8.7154     128.1571    5820.9233       0.1862       8.6756       8.6756       9.1747       9.1446       5.6010       5.6110       5.5174       5.6479       5.7618       5.2668       5.2268       5.4643       5.8434       5.6503      35.5352    2841.0000     778.0000    1927.0000    2019.0000    1736.6970
 4402.5312    5853.0000       0.2003       2.8139      -0.0079    -999.2500       8.7154     126.3587    5860.4565       0.1892       8.6940       8.6940       8.7038       8.7038       6.1799       6.1465       6.0608       6.1530       6.2191       6.3569       6.2809       6.2255       6.7053       6.9729      35.0774    2861.0000     822.0000    2095.0000    2040.0000    1780.2424
 4402.3788    5892.0000       0.1977       2.8139      -0.0079    -999.2500       8.6882     134.4268    5836.7363       0.1839       8.6821       8.6821       8.6822       8.6822       5.8285       5.7906       5.7166       5.6715       5.8947       5.5192       5.4672       5.2240       5.6395       5.6728      35.0556    2727.0000     705.0000    1982.0000    1952.0000    1798.1731
 4402.2264    5873.0000       0.1949       2.8139      -0.0079    -999.2500       8.6283     147.8042    5843.0615       0.1798       8.6503       8.6503       8.6503       8.6503       5.6839       5.6253       5.6449       5.6978       5.6491       6.0359       5.9038       5.7996       5.5847       5.4504      36.3028    2937.0000     770.0000    2089.0000    1942.0000    1759.7506
 4402.0740    5853.0000       0.1939       2.8139      -0.0079    -999.2500       8.6043     157.0500    5855.7124       0.1761       8.6218       8.6218       8.6217       8.6217       5.1295       5.0622       5.1881       5.2154       5.4095       5.3678       5.2880       5.5150       4.9425       5.6085      36.6341    2852.0000     772.0000    2076.0000    2097.0000    1921.1250
 4401.9216    5903.0000       0.2097       2.8139      -0.0079    -999.2500       8.5997     164.3154    5831.9927       0.1939       8.6065       8.6065       8.6061       8.6061       4.6972       4.6177       4.6128       4.6228       4.7854       4.5852       4.5168       4.7258       4.5677       4.6052      34.3819    2819.0000     808.0000    1986.0000    1900.0000    1864.7720
