~VERSION INFORMATION
VERS.           2.0   :CWLS Log ASCII Standard - VERSION 2.0
WRAP.           NO    :One Line per depth step
PROD.  Schlumberger   :LAS Producer
PROG.  DLIS to ASCII 11C0-305                          :LAS Program name and version
CREA.        2003/11/19 08:49                          :LAS Creation date {YYYY/MM/DD hh:mm}
SOURCE.     AIT_LDL_APS_NGS_011PUP.DLIS                :DLIS File Name
FILE-ID.     AIT_LDL_APS_NGS_011PUP                    :File Identification Number
#--------------------------------------------------
~WELL INFORMATION
#MNEM.UNIT      DATA             DESCRIPTION
#---- ------ --------------   -----------------------------
STRT .M      4859.4264       :START DEPTH     
STOP .M      4018.3308       :STOP DEPTH     
STEP .M        -0.1524       :STEP     
NULL .          -999.25      :NULL VALUE
COMP .        INPEX Browse, Ltd.                       :COMPANY
WELL .        ICHTHYS DEEP-1                           :WELL
FLD  .        WA-285-P                                 :FIELD
LOC  .        Datum: GDA94 Spheroid GRS80              :LOCATION
CNTY .        Ocean Bounty                             :COUNTY
STAT .        1:200                                    :STATE
CTRY .        Australia                                :COUNTRY
API  .                                                 :API NUMBER
UWI  .                                                 :UNIQUE WELL ID
DATE .        16-Nov-2003                              :LOG DATE {DD-MMM-YYYY}
SRVC .        Schlumberger                             :SERVICE COMPANY
LATI .DEG     13 51' 47.081" S                         :LATITUDE
LONG .DEG     123 13'  56.110" E                       :LONGITUDE
GDAT .                                                 :GeoDetic Datum
#-----------------------------------------------------------------------------
~PARAMETER INFORMATION
#MNEM.UNIT    VALUE                      DESCRIPTION
#---- -----   --------------------       ------------------------
RUN  .          Suite 3 Run 1            :RUN NUMBER
PDAT .        LAT                        :Permanent Datum
EPD  .M           0.000000               :Elevation of Permanent Datum above Mean Sea Level
EPD  .M           0.000000               :Elevation of tool zero above Mean Sea Level
LMF  .          Drill Floor              :Logging Measured From (Name of Logging Elevation Reference)
APD  .M          25.000000               :Elevation of Depth Reference (LMF) above Permanent Datum
#-----------------------------------------------------------------------------
~CURVE INFORMATION
#MNEM.UNIT   API CODE                                  DESCRIPTION
#---- -----  --------                                  -----------------------
DEPT .M                                                :DEPTH (BOREHOLE) {F10.4}
RHOM .G/C3                                             :LDS Corrected Bulk Density {F13.4}
DRH  .G/C3                                             :LDS Bulk Density Correction {F13.4}
PEFL .                                                 :LDS Long-Spaced Corrected Photoelectric Effect {F13.4}
#-----------------------------------------------------------------------------
# 
#     DEPT        RHOM         DRH          PEFL
#
~A  
# ...
 4152.2904       2.3868       0.2691       7.5663
 4152.1380       2.3966       0.2880       8.6426
 4151.9856       2.4068       0.3128       8.2901
 4151.8332       2.3239       0.2888       8.3779
 4151.6808       2.2007       0.2591       8.5507
 4151.5284       2.1632       0.2520       8.2486
 4151.3760       2.2606       0.2704       7.6367
 4151.2236       2.3127       0.2686       7.3097
 4151.0712       2.3756       0.2781       7.9934
 4150.9188       2.3668       0.2738       7.9255
 4150.7664       2.4065       0.2788       7.6232
 4150.6140       2.3297       0.2107       7.1768
 4150.4616       2.2629       0.1330       7.4859
 4150.3092       2.3472       0.0959       6.5768
 4150.1568       2.5030       0.0742       5.6669
 4150.0044       2.7143       0.0580       4.6569
 4149.8520       2.7380       0.0364       3.7544
 4149.6996       2.7174       0.0237       3.6083
 4149.5472       2.7346       0.0142       3.6593
 4149.3948       2.7957       0.0291       4.4431
 4149.2424       2.8286       0.0372       4.6570
 4149.0900       2.7903       0.0324       4.6230
 4148.9376       2.7383       0.0355       3.6635
 4148.7852       2.7270       0.0451       3.5296
 4148.6328       2.7227       0.0475       3.4989
 4148.4804       2.7207       0.0479       3.6340
 4148.3280       2.7235       0.0457       3.7554
 4148.1756       2.7332       0.0433       3.7810
 4148.0232       2.7660       0.0521       3.9372
 4147.8708       2.7577       0.0489       3.8364
 4147.7184       2.7408       0.0463       3.9256
 4147.5660       2.7206       0.0461       4.0195
 4147.4136       2.7066       0.0355       4.1078
 4147.2612       2.7401       0.0427       4.3695
 4147.1088       2.7685       0.0481       4.2826
 4146.9564       2.7850       0.0541       4.1909
 4146.8040       2.7365       0.0382       3.5634
 4146.6516       2.7110       0.0323       3.5402
 4146.4992       2.7003       0.0249       3.7725
 4146.3468       2.7339       0.0198       4.3779
 4146.1944       2.7605       0.0205       4.6731
 4146.0420       2.7765       0.0264       4.2286
 4145.8896       2.7356       0.0155       3.6798
 4145.7372       2.7767       0.0298       3.8144
 4145.5848       2.7979       0.0460       3.9786
 4145.4324       2.8007       0.0515       4.1048
 4145.2800       2.7353       0.0377       4.1233
 4145.1276       2.7365       0.0509       4.7227
 4144.9752       2.7472       0.0543       4.8310
 4144.8228       2.7540       0.0514       3.9560
 4144.6704       2.7711       0.0533       3.5997
 4144.5180       2.7850       0.0564       3.5561
 4144.3656       2.7588       0.0472       3.7787
 4144.2132       2.7220       0.0373       3.5151
 4144.0608       2.6954       0.0337       3.5085
 4143.9084       2.6888       0.0294       3.5549
 4143.7560       2.6865       0.0275       3.6570
 4143.6036       2.6924       0.0311       3.6446
 4143.4512       2.7045       0.0340       3.8879
 4143.2988       2.7319       0.0511       3.9593
 4143.1464       2.7323       0.0528       4.0399
 4142.9940       2.7285       0.0565       3.8630
 4142.8416       2.7437       0.0611       3.8770
 4142.6892       2.7500       0.0644       3.8329
 4142.5368       2.7492       0.0506       3.8963
 4142.3844       2.7867       0.0831       4.4875
 4142.2320       2.8096       0.1108       4.9773
 4142.0796       2.7049       0.1078       5.3894
 4141.9272       2.5824       0.1205       4.3001
 4141.7748       2.4238       0.1301       3.9592
 4141.6224       2.3159       0.1315       4.3304
 4141.4700       2.2790       0.1644       4.5969
 4141.3176       2.2924       0.1980       4.8965
 4141.1652       2.2369       0.1668       5.2069
 4141.0128       2.3064       0.1697       6.2249
 4140.8604       2.3295       0.1676       6.9570
 4140.7080       2.2555       0.1538       7.5623
 4140.5556       2.1087       0.1448       6.5699
 4140.4032       2.1028       0.1877       6.4235
 4140.2508       2.0533       0.2299       6.2525
 4140.0984       2.1126       0.2834       8.8996
 4139.9460       2.1064       0.2840      11.1570
 4139.7936       2.2412       0.3133      12.9143
 4139.6412       2.2173       0.3038      11.3661
 4139.4888       2.2616       0.3065      11.8573
 4139.3364       2.3167       0.3023       9.8061
 4139.1840       2.4144       0.3190       9.0412
 4139.0316       2.3667       0.3013       7.9213
 4138.8792       2.2578       0.2615       9.7670
 4138.7268       2.2413       0.2230       8.6639
 4138.5744       2.2948       0.2000       7.0832
 4138.4220       2.4394       0.2100       5.8746
 4138.2696       2.5339       0.2488       4.8836
 4138.1172       2.5497       0.2804       5.0669
 4137.9648       2.5032       0.2743       5.2806
 4137.8124       2.5087       0.2840       5.8301
 4137.6600       2.5238       0.2666       5.8288
 4137.5076       2.5295       0.2109       5.1958
 4137.3552       2.5505       0.2144       4.5793
 4137.2028       2.5563       0.2243       4.3713
 4137.0504       2.4883       0.2140       4.7629
 4136.8980       2.4083       0.1800       6.0286
 4136.7456       2.3544       0.1529       5.4507
 4136.5932       2.3824       0.1132       4.6181
 4136.4408       2.4432       0.0890       3.4543
 4136.2884       2.4939       0.0614       3.1179
 4136.1360       2.5062       0.0702       3.0524
 4135.9836       2.5086       0.0746       3.2124
 4135.8312       2.4987       0.0638       3.3245
 4135.6788       2.4991       0.0637       3.3675
 4135.5264       2.5097       0.0813       3.4822
 4135.3740       2.5158       0.0854       3.7890
 4135.2216       2.5301       0.1138       3.7834
 4135.0692       2.5339       0.1145       3.9318
 4134.9168       2.5586       0.1512       4.1610
 4134.7644       2.6067       0.1868       4.3579
 4134.6120       2.6107       0.2286       4.3522
 4134.4596       2.5549       0.1979       4.0270
 4134.3072       2.5484       0.2208       4.0187
 4134.1548       2.5540       0.2081       3.9854
 4134.0024       2.5361       0.1718       3.8000
 4133.8500       2.5180       0.1271       3.6187
 4133.6976       2.5148       0.1182       3.3536
 4133.5452       2.5008       0.1021       3.0842
 4133.3928       2.4711       0.0760       2.8980
 4133.2404       2.4651       0.0656       2.7079
 4133.0880       2.4753       0.0663       2.5641
 4132.9356       2.4792       0.0632       2.4220
 4132.7832       2.4798       0.0585       2.3486
 4132.6308       2.4754       0.0587       2.2866
 4132.4784       2.4718       0.0545       2.3539
 4132.3260       2.5187       0.1006       2.3988
 4132.1736       2.5335       0.1187       2.7545
 4132.0212       2.5149       0.1308       3.3003
 4131.8688       2.5134       0.1428       3.8446
 4131.7164       2.5715       0.2028       4.2513
 4131.5640       2.5435       0.1776       4.1980
 4131.4116       2.5245       0.1664       5.0287
 4131.2592       2.5095       0.1526       5.4659
 4131.1068       2.5333       0.1577       5.1594
 4130.9544       2.5304       0.1463       4.3797
 4130.8020       2.5281       0.1494       4.0698
 4130.6496       2.5247       0.1521       3.9560
 4130.4972       2.5236       0.1513       3.7239
 4130.3448       2.5270       0.1423       3.3833
 4130.1924       2.5149       0.1144       3.4792
 4130.0400       2.5041       0.0984       3.6516
 4129.8876       2.4790       0.0797       3.9036
 4129.7352       2.4902       0.0678       3.9206
 4129.5828       2.5705       0.0712       4.1680
 4129.4304       2.6768       0.0840       4.1687
 4129.2780       2.6687       0.0615       3.8928
 4129.1256       2.5754       0.0398       2.9822
 4128.9732       2.5093       0.0334       2.5047
 4128.8208       2.4834       0.0330       2.3540
 4128.6684       2.4872       0.0329       2.4097
 4128.5160       2.4912       0.0366       2.4475
 4128.3636       2.5013       0.0400       2.5419
 4128.2112       2.4942       0.0381       2.5855
 4128.0588       2.4869       0.0397       2.8016
