~VERSION INFORMATION
VERS.           2.0   :CWLS Log ASCII Standard - VERSION 2.0
WRAP.           NO    :One Line per depth step
PROD.  Schlumberger   :LAS Producer
PROG.  DLIS to ASCII 11C0-305                          :LAS Program name and version
CREA.        2003/11/03 06:15                          :LAS Creation date {YYYY/MM/DD hh:mm}
SOURCE.     AIT_mainPB1_064PUP.DLIS                    :DLIS File Name
FILE-ID.     AIT_mainPB1_064PUP                        :File Identification Number
#--------------------------------------------------
~WELL INFORMATION
#MNEM.UNIT      DATA             DESCRIPTION
#---- ------ --------------   -----------------------------
STRT .M      4280.0016       :START DEPTH     
STOP .M      3948.9888       :STOP DEPTH     
STEP .M        -0.1524       :STEP     
NULL .          -999.25      :NULL VALUE
COMP .        INPEX Browse, Ltd.                       :COMPANY
WELL .        ICHTHYS DEEP-1                           :WELL
FLD  .        WA-285-P                                 :FIELD
LOC  .        Datum: GDA94 Spheroid GRS80              :LOCATION
CNTY .        Ocean Bounty                             :COUNTY
STAT .        1:200                                    :STATE
CTRY .        Australia                                :COUNTRY
API  .                                                 :API NUMBER
UWI  .                                                 :UNIQUE WELL ID
DATE .        03-Nov-2003                              :LOG DATE {DD-MMM-YYYY}
SRVC .        Schlumberger                             :SERVICE COMPANY
LATI .DEG     13 51' 47.081" S                         :LATITUDE
LONG .DEG     123 13'  56.110" E                       :LONGITUDE
GDAT .                                                 :GeoDetic Datum
#-----------------------------------------------------------------------------
~PARAMETER INFORMATION
#MNEM.UNIT    VALUE                      DESCRIPTION
#---- -----   --------------------       ------------------------
RUN  .          Suite 2 Run 1            :RUN NUMBER
PDAT .        LAT                        :Permanent Datum
EPD  .M           0.000000               :Elevation of Permanent Datum above Mean Sea Level
EPD  .M           0.000000               :Elevation of tool zero above Mean Sea Level
LMF  .          Drill Floor              :Logging Measured From (Name of Logging Elevation Reference)
APD  .M          25.000000               :Elevation of Depth Reference (LMF) above Permanent Datum
#-----------------------------------------------------------------------------
~CURVE INFORMATION
#MNEM.UNIT   API CODE                                  DESCRIPTION
#---- -----  --------                                  -----------------------
DEPT .M                                                :DEPTH (BOREHOLE) {F10.4}
TENS .LBF                                              :Cable Tension {F13.4}
APLU .V/V                                              :APS Near/Array Uncorrected Limestone Porosity {F13.4}
RHOM .G/C3                                             :LDS Corrected Bulk Density {F13.4}
DRH  .G/C3                                             :LDS Bulk Density Correction {F13.4}
PEFL .                                                 :LDS Long-Spaced Corrected Photoelectric Effect {F13.4}
LCAL .IN                                               :LDS Caliper {F13.4}
HSGR .GAPI                                             :HNGS Standard Gamma Ray {F13.4}
CDF  .LBF                                              :Calibrated Downhole Force {F13.4}
APLC .V/V                                              :APS Near/Array Corrected Limestone Porosity {F13.4}
ATD2 .IN                                               :Array Induction Two Foot Outer Diameter of Invasion (D2) {F13.4}
ATD1 .IN                                               :Array Induction Two Foot Inner Diameter of Invasion(D1) {F13.4}
AOD2 .IN                                               :Array Induction One Foot Outer Diameter of Invasion (D2) {F13.4}
AOD1 .IN                                               :Array Induction One Foot Inner Diameter of Invasion (D1) {F13.4}
AT90 .OHMM                                             :Array Induction Two Foot Resistivity A90 {F13.4}
AT60 .OHMM                                             :Array Induction Two Foot Resistivity A60 {F13.4}
AT30 .OHMM                                             :Array Induction Two Foot Resistivity A30 {F13.4}
AT20 .OHMM                                             :Array Induction Two Foot Resistivity A20 {F13.4}
AT10 .OHMM                                             :Array Induction Two Foot Resistivity A10 {F13.4}
AO90 .OHMM                                             :Array Induction One Foot Resistivity A90 {F13.4}
AO60 .OHMM                                             :Array Induction One Foot Resistivity A60 {F13.4}
AO30 .OHMM                                             :Array Induction One Foot Resistivity A30 {F13.4}
AO20 .OHMM                                             :Array Induction One Foot Resistivity A20 {F13.4}
AO10 .OHMM                                             :Array Induction One Foot Resistivity A10 {F13.4}
SIGF .CU                                               :APS Formation Capture Cross-Section {F13.4}
ANEC .HZ                                               :APS Near Detector Count Rate {F13.4}
AFEC .HZ                                               :APS Far Detector Count Rate {F13.4}
A1EP .HZ                                               :APS Array-1 Detector Count Rate {F13.4}
A2EP .HZ                                               :APS Array-2 Detector Count Rate {F13.4}
AFTC .HZ                                               :APS Thermal Detector Count Rate {F13.4}
#-----------------------------------------------------------------------------
# 
#     DEPT        TENS         APLU         RHOM         DRH          PEFL         LCAL         HSGR         CDF          APLC         ATD2         ATD1         AOD2         AOD1         AT90         AT60         AT30         AT20         AT10         AO90         AO60         AO30         AO20         AO10         SIGF         ANEC         AFEC         A1EP         A2EP         AFTC
#
~A  
# ...
 4148.7852    5613.0000       0.1182       2.6923      -0.0057       3.5815       8.5513     147.8728    1321.7490       0.1051      12.0908       9.3406      11.4875      10.5173       6.5498       6.6586       6.6185       6.8651       7.3504       6.5620       6.5493       6.5827       7.2372       7.0025      31.8241    3342.6667    1295.0000    2810.6667    2825.3333    2730.5591
 4148.6328    5634.0000       0.1136       2.6801      -0.0065       3.3393       8.5446     143.5840    1315.3501       0.1012      15.7421      10.2902      17.0912      13.6161       6.5566       6.6561       6.8771       7.1927       7.8039       6.7980       6.8018       7.0093       7.1255       7.8766      31.9731    3412.0000    1365.0000    2910.0000    2756.0000    2817.6501
 4148.4804    5527.0000       0.1028       2.6921      -0.0044       3.5458       8.5429     142.3906    1326.3706       0.0922      15.7367      10.2847      32.6250      25.3324       6.4992       6.5909       6.8170       7.1628       7.7095       6.6937       6.6411       7.1676       7.2718       7.9061      31.0729    3449.0000    1402.0000    2981.0000    2911.0000    3073.8000
 4148.3280    5606.0000       0.1012       2.6948      -0.0040       3.6818       8.5332     148.2408    1346.2786       0.0899      12.0744       9.3242      40.9918      33.5111       6.2473       6.3287       6.5627       6.8478       7.1788       5.8991       5.9458       6.7864       6.8686       7.3040      30.9184    3443.0000    1446.0000    3073.0000    2918.0000    3071.2388
 4148.1756    5639.0000       0.1109       2.6944      -0.0078       3.8345       8.5281     160.4894    1331.7030       0.0990       9.2374       8.5858      30.7745      26.6134       6.0969       6.1713       6.4599       6.6037       6.6298       5.9720       5.9744       6.3161       6.7863       6.5529      32.1196    3380.0000    1294.0000    2926.0000    2837.0000    2745.9282
 4148.0232    5673.0000       0.1292       2.6858      -0.0095       3.7112       8.5258     166.8865    1337.0355       0.1177       8.5864       8.5254      15.6233      14.5218       5.9592       6.0268       6.3919       6.5950       6.6781       6.0095       5.9685       6.0002       6.6357       6.2046      34.1115    3364.8000    1226.0000    2751.2000    2678.3999    2538.9587
 4147.8708    5558.0000       0.1467       2.6803      -0.0118       3.7427       8.5265     171.9470    1322.1045       0.1355       8.5262       8.5262      10.2405       9.7250       5.9919       6.0547       6.2555       6.4519       6.6876       6.1147       6.1402       6.1587       6.3130       6.5411      34.4165    3366.0000    1087.0000    2583.0000    2592.0000    2418.0559
 4147.7184    5510.0000       0.1533       2.6807      -0.0136       3.8558       8.5245     170.8979    1324.2375       0.1389       8.5252       8.5252      11.3620       9.1219       5.9621       6.0185       6.2050       6.3983       6.7051       6.1092       6.0715       6.3621       6.3338       6.8000      34.5949    3340.0000    1098.0000    2514.6667    2506.6667    2330.9651
 4147.5660    5558.0000       0.1577       2.6812      -0.0165       4.1036       8.5245     175.0667    1345.9231       0.1438       8.5318       8.5318      20.3870      13.7925       5.9497       6.0009       6.1883       6.3638       6.6249       5.9312       5.9192       6.1415       6.1701       6.6721      35.9712    3278.0000    1028.0000    2663.0000    2613.0000    2379.6333
 4147.4136    5609.0000       0.1589       2.7034      -0.0184       4.0029       8.5234     175.0562    1341.6571       0.1467       8.5248       8.5248      32.1796      22.5917       5.8282       5.8728       5.9860       6.1337       6.8196       5.5924       5.5869       5.9655       6.0682       6.7327      35.9310    3439.0000    1063.0000    2567.0000    2456.0000    2379.6335
 4147.2612    5585.0000       0.1663       2.7311      -0.0160       4.2275       8.5245     168.8981    1323.5265       0.1544       9.2099       8.5245      37.2609      30.6354       5.8527       5.8962       6.0183       6.1430       6.7175       5.4292       5.4257       5.7833       6.0964       6.6507      35.6060    3346.0000    1028.0000    2550.0000    2457.0000    2410.3716
 4147.1088    5542.0000       0.1616       2.7540      -0.0160       4.0522       8.5266     157.1533    1317.8385       0.1492      13.9472       8.5245      39.2573      36.9372       6.1107       6.1485       6.0546       6.2633       6.8730       5.9513       5.9478       6.2374       6.5287       6.8282      35.5200    3383.0000    1000.0000    2543.0000    2564.0000    2287.4194
 4146.9564    5509.0000       0.1497       2.7331      -0.0155       4.2157       8.5245     153.7441    1327.4370       0.1384      27.9430       8.7396      39.7574      39.1541       6.2436       6.2921       6.2932       6.5117       7.1025       5.5991       5.5955       5.8992       7.1818       7.0032      34.8099    3392.0000    1054.0000    2744.0000    2627.0000    2389.8796
 4146.8040    5545.0000       0.1396       2.7061      -0.0188       3.5100       8.5245     156.6725    1333.4806       0.1273      41.1749       8.7598      29.6290      29.4643       6.1894       6.2492       6.7983       6.9952       7.5769       6.4495       6.4350       6.6666       6.5386       8.2083      34.6265    3507.0000    1122.0000    2749.0000    2577.0000    2469.2861
 4146.6516    5570.0000       0.1359       2.6842      -0.0149       3.2519       8.5245     158.0329    1329.2146       0.1229      34.8448       8.8520      17.3603      16.0504       6.2122       6.2865       6.4961       6.6746       7.1756       6.1449       6.1042       6.1740       6.4116       7.0891      35.0857    3407.0000    1140.0000    2783.0000    2755.0000    2343.7727
 4146.4992    5536.0000       0.1366       2.6891      -0.0153       3.3446       8.5222     159.4124    1331.3475       0.1246      19.2495       8.5245      15.9863       9.7511       6.2436       6.3093       6.2736       6.4221       6.9888       6.0948       6.0718       6.3346       6.3896       6.8023      34.4156    3457.0000    1139.0000    2931.0000    2646.0000    2730.5591
 4146.3468    5560.0000       0.1415       2.7154      -0.0128       3.3336       8.5256     161.4303    1334.9026       0.1305      10.4597       8.5245      25.5966      10.5402       6.0329       6.1005       6.2027       6.3299       6.8649       5.8877       5.8767       6.2621       6.2445       6.8754      34.6535    3471.0000    1150.0000    2663.0000    2604.0000    2471.8477
 4146.1944    5572.0000       0.1469       2.7422      -0.0112       3.7368       8.5234     163.3974    1339.5240       0.1348       8.6470       8.5251      30.1831      11.1501       5.8662       5.9306       6.0378       6.1598       6.6699       5.4896       5.4521       5.9825       6.1168       6.6326      35.7484    3352.0000    1142.6666    2686.0000    2625.0000    2584.5537
 4146.0420    5530.0000       0.1399       2.7442      -0.0073       3.5113       8.5245     160.4237    1324.9485       0.1287       8.5248       8.5248      22.7291      11.4454       5.8438       5.8988       6.0098       6.1565       6.5711       5.8095       5.7318       5.9606       6.1304       6.5061      35.8402    3449.0000    1081.0000    2676.0000    2661.0000    2412.9331
 4145.8896    5520.0000       0.1371       2.7087      -0.0203       3.4714       8.5254     159.5123    1312.8616       0.1249       8.5248       8.5248      17.2657      13.2014       5.6938       5.7589       5.9248       6.1029       6.5635       5.7642       5.7025       6.1436       5.8857       6.6149      35.9803    3332.0000    1093.0000    2710.0000    2673.0000    2318.1577
 4145.7372    5517.0000       0.1484       2.7404      -0.0171       3.5399       8.5245     158.8589    1318.5496       0.1368       8.5252       8.5252      21.6198      19.7852       5.5737       5.6320       5.8253       5.9900       6.3203       5.3536       5.3160       5.5772       5.8189       6.0306      36.5741    3343.0000    1144.0000    2591.0000    2648.0000    2205.4517
