~VERSION INFORMATION
VERS.           2.0   :CWLS Log ASCII Standard - VERSION 2.0
WRAP.           NO    :One Line per depth step
PROD.  Schlumberger   :LAS Producer
PROG.  DLIS to ASCII 11C0-305                          :LAS Program name and version
CREA.        2003/11/19 08:45                          :LAS Creation date {YYYY/MM/DD hh:mm}
SOURCE.     UBI_Mainpb1_036PUP.DLIS                    :DLIS File Name
FILE-ID.     UBI_Mainpb1_036PUP                        :File Identification Number
#--------------------------------------------------
~WELL INFORMATION
#MNEM.UNIT      DATA             DESCRIPTION
#---- ------ --------------   -----------------------------
STRT .M      4859.4264       :START DEPTH     
STOP .M      4016.0448       :STOP DEPTH     
STEP .M        -0.1524       :STEP     
NULL .          -999.25      :NULL VALUE
COMP .        INPEX Browse, Ltd.                       :COMPANY
WELL .        ICHTHYS DEEP-1                           :WELL
FLD  .        WA-285-P                                 :FIELD
LOC  .        Datum: GDA94 Spheroid GRS80              :LOCATION
CNTY .        Ocean Bounty                             :COUNTY
STAT .        1:200                                    :STATE
CTRY .        Australia                                :COUNTRY
API  .                                                 :API NUMBER
UWI  .                                                 :UNIQUE WELL ID
DATE .        16-Nov-2003                              :LOG DATE {DD-MMM-YYYY}
SRVC .        Schlumberger                             :SERVICE COMPANY
LATI .DEG     13 51' 47.081" S                         :LATITUDE
LONG .DEG     123 13'  56.110" E                       :LONGITUDE
GDAT .                                                 :GeoDetic Datum
#-----------------------------------------------------------------------------
~PARAMETER INFORMATION
#MNEM.UNIT    VALUE                      DESCRIPTION
#---- -----   --------------------       ------------------------
RUN  .          Suite 3 Run 1            :RUN NUMBER
PDAT .        LAT                        :Permanent Datum
EPD  .M           0.000000               :Elevation of Permanent Datum above Mean Sea Level
EPD  .M           0.000000               :Elevation of tool zero above Mean Sea Level
LMF  .          Drill Floor              :Logging Measured From (Name of Logging Elevation Reference)
APD  .M          25.000000               :Elevation of Depth Reference (LMF) above Permanent Datum
#-----------------------------------------------------------------------------
~CURVE INFORMATION
#MNEM.UNIT   API CODE                                  DESCRIPTION
#---- -----  --------                                  -----------------------
DEPT .M                                                :DEPTH (BOREHOLE) {F10.4}
LCAL .IN                                               :LDS Caliper {F13.4}
GR   .GAPI                                             :Gamma Ray {F13.4}
#-----------------------------------------------------------------------------
# 
#     DEPT        LCAL         GR
#
~A  
 4859.4264       8.6270     130.9205
 4859.2740       8.6270     130.9205
 4859.1216       8.6270     130.9205
 4858.9692       8.6270     130.9205
 4858.8168       8.6270     130.9205
 4858.6644       8.6270     130.9205
 4858.5120       8.6270     130.9205
 4858.3596       8.6270     130.9205
 4858.2072       8.6270     130.9205
 4858.0548       8.6270     130.9205
 4857.9024       8.6270     130.9205
 4857.7500       8.6270     130.9205
 4857.5976       8.6270     130.9205
 4857.4452       8.6270     130.9205
 4857.2928       8.6270     130.9205
 4857.1404       8.6270     130.9205
 4856.9880       8.6270     130.9205
 4856.8356       8.6270     130.9205
 4856.6832       8.6270     130.9205
 4856.5308       8.6270     130.9205
 4856.3784       8.6270     130.9205
 4856.2260       8.6270     130.9205
 4856.0736       8.6270     130.9205
 4855.9212       8.6270     130.9205
 4855.7688       8.6270     130.9205
 4855.6164       8.6270     130.9205
 4855.4640       8.6270     130.9205
 4855.3116       8.6270     130.9205
 4855.1592       8.6270     130.9205
 4855.0068       8.6270     130.9205
 4854.8544       8.6270     130.9205
 4854.7020       8.6270     130.9205
 4854.5496       8.6270     130.9205
 4854.3972       8.6270     130.9205
 4854.2448       8.6270     130.9205
 4854.0924       8.6270     130.9205
 4853.9400       8.6270     130.9205
 4853.7876       8.6270     130.9205
 4853.6352       8.6270     130.9205
 4853.4828       8.6270     130.9205
 4853.3304       8.6270     130.9205
 4853.1780       8.6270     130.9205
 4853.0256       8.6270     130.9205
 4852.8732       8.6270     130.9205
 4852.7208       8.6270     130.9205
 4852.5684       8.6270     130.9205
 4852.4160       8.6270     130.9205
 4852.2636       8.6270     130.9205
 4852.1112       8.6270     130.9205
 4851.9588       8.6270     130.9205
 4851.8064       8.6270     130.9205
 4851.6540       8.6270     130.9205
 4851.5016       8.6270     130.9205
 4851.3492       8.6270     130.9205
 4851.1968       8.6270     130.9205
 4851.0444       8.6270     130.9205
 4850.8920       8.6270     130.9205
 4850.7396       8.6270     130.9205
 4850.5872       8.6270     130.9205
 4850.4348       8.6270     130.9205
 4850.2824       8.6270     130.9205
 4850.1300       8.6270     130.9205
 4849.9776       8.6270     130.9205
 4849.8252       8.6270     130.9205
 4849.6728       8.6270     130.9205
 4849.5204       8.6270     130.9205
 4849.3680       8.6270     130.9205
 4849.2156       8.6270     130.9205
 4849.0632       8.6270     130.9205
 4848.9108       8.6270     130.9205
 4848.7584       8.6270     130.9205
 4848.6060       8.6270     130.9205
 4848.4536       8.6270     130.9205
 4848.3012       8.6270     130.9205
 4848.1488       8.6270     130.9205
 4847.9964       8.6270     130.9205
 4847.8440       8.6270     130.9205
 4847.6916       8.6270     130.9205
 4847.5392       8.6270     130.9205
 4847.3868       8.6270     130.9205
 4847.2344       8.6270     130.9205
 4847.0820       8.6270     130.9205
 4846.9296       8.6270     130.9205
 4846.7772       8.6270     130.9205
 4846.6248       8.6270     130.9205
 4846.4724       8.6270     130.9205
 4846.3200       8.6270     130.9205
 4846.1676       8.6270     130.9205
 4846.0152       8.6270     130.9205
 4845.8628       8.6270     130.9205
 4845.7104       8.6270     130.9205
 4845.5580       8.6270     130.9205
 4845.4056       8.6270     130.9205
 4845.2532       8.6270     130.9205
 4845.1008       8.6270     130.9205
 4844.9484       8.6270     130.9205
 4844.7960       8.6270     130.9205
 4844.6436       8.6270     130.9205
 4844.4912       8.6270     130.9205
 4844.3388       8.6270     130.9205
 4844.1864       8.6270     130.9205
 4844.0340       8.6270     130.9205
 4843.8816       8.6270     130.9205
 4843.7292       8.6270     130.9205
 4843.5768       8.6270     130.9205
 4843.4244       8.6270     130.9205
 4843.2720       8.6270     130.9205
 4843.1196       8.6270     130.9205
 4842.9672       8.6270     130.9205
 4842.8148       8.6270     130.9205
 4842.6624       8.6270     130.9205
 4842.5100       8.6270     130.9205
 4842.3576       8.6270     130.9205
 4842.2052       8.6270     130.9205
 4842.0528       8.6270     130.9205
 4841.9004       8.6270     130.9205
 4841.7480       8.6270     130.9205
 4841.5956       8.6270     130.9205
 4841.4432       8.6270     130.9205
 4841.2908       8.6270     130.9205
 4841.1384       8.6270     130.9205
 4840.9860       8.6270     130.9205
 4840.8336       8.6270     130.9205
 4840.6812       8.6270     130.9205
 4840.5288       8.6270     130.9205
 4840.3764       8.6270     130.9205
 4840.2240       8.6270     130.9205
 4840.0716       8.6270     130.9205
 4839.9192       8.6270     130.9205
 4839.7668       8.6270     130.9205
 4839.6144       8.6270     130.9205
 4839.4620       8.6270     130.9205
 4839.3096       8.6270     130.9205
 4839.1572       8.6270     130.9205
 4839.0048       8.6270     130.9205
 4838.8524       8.6270     130.9205
 4838.7000       8.6270     130.9205
 4838.5476       8.6270     130.9205
 4838.3952       8.6270     130.9205
 4838.2428       8.6270     130.9205
 4838.0904       8.6270     130.9205
 4837.9380       8.6270     130.9205
 4837.7856       8.6270     130.9205
 4837.6332       8.6270     130.9205
 4837.4808       8.6270     130.9205
 4837.3284       8.6270     130.9205
 4837.1760       8.6270     130.9205
 4837.0236       8.6270     130.9205
 4836.8712       8.6270     130.9205
 4836.7188       8.6270     130.9205
 4836.5664       8.6270     130.9205
 4836.4140       8.6270     130.9205
 4836.2616       8.6270     130.9205
 4836.1092       8.6270     130.9205
 4835.9568       8.6270     130.9205
 4835.8044       8.6270     130.9205
 4835.6520       8.6270     130.9205
 4835.4996       8.6270     130.9205
 4835.3472       8.6270     130.9205
 4835.1948       8.6270     130.9205
 4835.0424       8.6270     130.9205
 4834.8900       8.6270     130.9205
 4834.7376       8.6270     130.9205
 4834.5852       8.6270     130.9205
 4834.4328       8.6270     130.9205
 4834.2804       8.6270     130.9205
 4834.1280       8.6270     130.9205
 4833.9756       8.6270     130.9205
 4833.8232       8.6270     130.9205
 4833.6708       8.6270     130.9205
 4833.5184       8.6270     130.9205
 4833.3660       8.6270     130.9205
 4833.2136       8.6270     130.9205
 4833.0612       8.6270     130.9205
 4832.9088       8.6270     130.9205
 4832.7564       8.6270     130.9205
 4832.6040       8.6270     130.9205
 4832.4516       8.6270     130.9205
 4832.2992       8.6270     130.9205
 4832.1468       8.6270     130.9205
 4831.9944       8.6270     130.9205
 4831.8420       8.6270     130.9205
 4831.6896       8.6270     130.9205
 4831.5372       8.6270     130.9205
 4831.3848       8.6270     130.9205
 4831.2324       8.6270     130.9205
 4831.0800       8.6270     130.9205
 4830.9276       8.6270     130.9205
 4830.7752       8.6270     130.9205
 4830.6228       8.6270     130.9205
 4830.4704       8.6270     130.9205
 4830.3180       8.6270     130.9205
 4830.1656       8.6270     130.9205
 4830.0132       8.6270     130.9205
 4829.8608       8.6270     130.9205
 4829.7084       8.6270     130.9205
 4829.5560       8.6270     130.9205
 4829.4036       8.6270     130.9205
 4829.2512       8.6270     130.9205
 4829.0988       8.6270     130.9205
 4828.9464       8.6270     130.9205
 4828.7940       8.6270     130.9205
 4828.6416       8.6270     130.9205
 4828.4892       8.6535     130.9205
 4828.3368       8.7123     130.9205
 4828.1844       8.8252     130.9205
 4828.0320       8.8139     130.9205
 4827.8796       8.7717     130.9205
 4827.7272       8.7882     130.9205
 4827.5748       8.6746     130.9205
 4827.4224       8.6660     130.9205
 4827.2700       8.6640     130.9205
 4827.1176       8.6654     130.9205
 4826.9652       8.6667     130.9205
 4826.8128       8.6656     130.9205
 4826.6604       8.6640     130.9205
 4826.5080       8.6654     130.9205
