~VERSION INFORMATION
VERS.           2.0   :CWLS Log ASCII Standard - VERSION 2.0
WRAP.           NO    :One Line per depth step
PROD.  Schlumberger   :LAS Producer
PROG.  DLIS to ASCII 11C0-305                          :LAS Program name and version
CREA.        2003/11/19 08:49                          :LAS Creation date {YYYY/MM/DD hh:mm}
SOURCE.     AIT_LDL_APS_NGS_011PUP.DLIS                :DLIS File Name
FILE-ID.     AIT_LDL_APS_NGS_011PUP                    :File Identification Number
#--------------------------------------------------
~WELL INFORMATION
#MNEM.UNIT      DATA             DESCRIPTION
#---- ------ --------------   -----------------------------
STRT .M      4859.4264       :START DEPTH     
STOP .M      4018.3308       :STOP DEPTH     
STEP .M        -0.1524       :STEP     
NULL .          -999.25      :NULL VALUE
COMP .        INPEX Browse, Ltd.                       :COMPANY
WELL .        ICHTHYS DEEP-1                           :WELL
FLD  .        WA-285-P                                 :FIELD
LOC  .        Datum: GDA94 Spheroid GRS80              :LOCATION
CNTY .        Ocean Bounty                             :COUNTY
STAT .        1:200                                    :STATE
CTRY .        Australia                                :COUNTRY
API  .                                                 :API NUMBER
UWI  .                                                 :UNIQUE WELL ID
DATE .        16-Nov-2003                              :LOG DATE {DD-MMM-YYYY}
SRVC .        Schlumberger                             :SERVICE COMPANY
LATI .DEG     13 51' 47.081" S                         :LATITUDE
LONG .DEG     123 13'  56.110" E                       :LONGITUDE
GDAT .                                                 :GeoDetic Datum
#-----------------------------------------------------------------------------
~PARAMETER INFORMATION
#MNEM.UNIT    VALUE                      DESCRIPTION
#---- -----   --------------------       ------------------------
RUN  .          Suite 3 Run 1            :RUN NUMBER
PDAT .        LAT                        :Permanent Datum
EPD  .M           0.000000               :Elevation of Permanent Datum above Mean Sea Level
EPD  .M           0.000000               :Elevation of tool zero above Mean Sea Level
LMF  .          Drill Floor              :Logging Measured From (Name of Logging Elevation Reference)
APD  .M          25.000000               :Elevation of Depth Reference (LMF) above Permanent Datum
#-----------------------------------------------------------------------------
~CURVE INFORMATION
#MNEM.UNIT   API CODE                                  DESCRIPTION
#---- -----  --------                                  -----------------------
DEPT .M                                                :DEPTH (BOREHOLE) {F10.4}
RHOM .G/C3                                             :LDS Corrected Bulk Density {F13.4}
DRH  .G/C3                                             :LDS Bulk Density Correction {F13.4}
PEFL .                                                 :LDS Long-Spaced Corrected Photoelectric Effect {F13.4}
#-----------------------------------------------------------------------------
# 
#     DEPT        RHOM         DRH          PEFL
#
~A  
 4859.4264       2.5771       0.0104       2.7802
 4859.2740       2.5770       0.0104       2.7801
 4859.1216       2.5770       0.0104       2.7801
 4858.9692       2.5770       0.0104       2.7801
 4858.8168       2.5770       0.0104       2.7801
 4858.6644       2.5770       0.0104       2.7801
 4858.5120       2.5770       0.0104       2.7801
 4858.3596       2.5770       0.0104       2.7801
 4858.2072       2.5770       0.0104       2.7801
 4858.0548       2.5770       0.0104       2.7801
 4857.9024       2.5770       0.0104       2.7801
 4857.7500       2.5770       0.0104       2.7801
 4857.5976       2.5770       0.0104       2.7801
 4857.4452       2.5770       0.0104       2.7801
 4857.2928       2.5770       0.0104       2.7801
 4857.1404       2.5770       0.0104       2.7801
 4856.9880       2.5770       0.0104       2.7801
 4856.8356       2.5770       0.0104       2.7801
 4856.6832       2.5770       0.0104       2.7801
 4856.5308       2.5770       0.0104       2.7801
 4856.3784       2.5770       0.0104       2.7801
 4856.2260       2.5770       0.0104       2.7801
 4856.0736       2.5770       0.0104       2.7801
 4855.9212       2.5770       0.0104       2.7801
 4855.7688       2.5770       0.0104       2.7801
 4855.6164       2.5770       0.0104       2.7801
 4855.4640       2.5770       0.0104       2.7801
 4855.3116       2.5770       0.0104       2.7801
 4855.1592       2.5770       0.0104       2.7801
 4855.0068       2.5770       0.0104       2.7801
 4854.8544       2.5770       0.0104       2.7801
 4854.7020       2.5770       0.0104       2.7801
 4854.5496       2.5770       0.0104       2.7801
 4854.3972       2.5770       0.0104       2.7801
 4854.2448       2.5770       0.0104       2.7801
 4854.0924       2.5770       0.0104       2.7801
 4853.9400       2.5770       0.0104       2.7801
 4853.7876       2.5770       0.0104       2.7801
 4853.6352       2.5770       0.0104       2.7801
 4853.4828       2.5770       0.0104       2.7801
 4853.3304       2.5770       0.0104       2.7801
 4853.1780       2.5770       0.0104       2.7801
 4853.0256       2.5770       0.0104       2.7801
 4852.8732       2.5770       0.0104       2.7801
 4852.7208       2.5770       0.0104       2.7801
 4852.5684       2.5770       0.0104       2.7801
 4852.4160       2.5770       0.0104       2.7801
 4852.2636       2.5770       0.0104       2.7801
 4852.1112       2.5770       0.0104       2.7801
 4851.9588       2.5770       0.0104       2.7801
 4851.8064       2.5770       0.0104       2.7801
 4851.6540       2.5770       0.0104       2.7801
 4851.5016       2.5770       0.0104       2.7801
 4851.3492       2.5770       0.0104       2.7801
 4851.1968       2.5770       0.0104       2.7801
 4851.0444       2.5770       0.0104       2.7801
 4850.8920       2.5770       0.0104       2.7801
 4850.7396       2.5770       0.0104       2.7801
 4850.5872       2.5770       0.0104       2.7801
 4850.4348       2.5770       0.0104       2.7801
 4850.2824       2.5770       0.0104       2.7801
 4850.1300       2.5770       0.0104       2.7801
 4849.9776       2.5770       0.0104       2.7801
 4849.8252       2.5770       0.0104       2.7801
 4849.6728       2.5770       0.0104       2.7801
 4849.5204       2.5770       0.0104       2.7801
 4849.3680       2.5770       0.0104       2.7801
 4849.2156       2.5770       0.0104       2.7801
 4849.0632       2.5770       0.0104       2.7801
 4848.9108       2.5770       0.0104       2.7801
 4848.7584       2.5770       0.0104       2.7801
 4848.6060       2.5770       0.0104       2.7801
 4848.4536       2.5770       0.0104       2.7801
 4848.3012       2.5770       0.0104       2.7801
 4848.1488       2.5770       0.0104       2.7801
 4847.9964       2.5770       0.0104       2.7801
 4847.8440       2.5770       0.0104       2.7801
 4847.6916       2.5770       0.0104       2.7801
 4847.5392       2.5770       0.0104       2.7801
 4847.3868       2.5770       0.0104       2.7801
 4847.2344       2.5770       0.0104       2.7801
 4847.0820       2.5770       0.0104       2.7801
 4846.9296       2.5770       0.0104       2.7801
 4846.7772       2.5770       0.0104       2.7801
 4846.6248       2.5770       0.0104       2.7801
 4846.4724       2.5770       0.0104       2.7801
 4846.3200       2.5770       0.0104       2.7801
 4846.1676       2.5770       0.0104       2.7801
 4846.0152       2.5770       0.0104       2.7801
 4845.8628       2.5770       0.0104       2.7801
 4845.7104       2.5770       0.0104       2.7801
 4845.5580       2.5770       0.0104       2.7801
 4845.4056       2.5770       0.0104       2.7801
 4845.2532       2.5770       0.0104       2.7801
 4845.1008       2.5770       0.0104       2.7801
 4844.9484       2.5770       0.0104       2.7801
 4844.7960       2.5770       0.0104       2.7801
 4844.6436       2.5770       0.0104       2.7801
 4844.4912       2.5770       0.0104       2.7801
 4844.3388       2.5770       0.0104       2.7801
 4844.1864       2.5770       0.0104       2.7801
 4844.0340       2.5770       0.0104       2.7801
 4843.8816       2.5770       0.0104       2.7801
 4843.7292       2.5770       0.0104       2.7801
 4843.5768       2.5770       0.0104       2.7801
 4843.4244       2.5770       0.0104       2.7801
 4843.2720       2.5770       0.0104       2.7801
 4843.1196       2.5770       0.0104       2.7801
 4842.9672       2.5770       0.0104       2.7801
 4842.8148       2.5770       0.0104       2.7801
 4842.6624       2.5770       0.0104       2.7801
 4842.5100       2.5770       0.0104       2.7801
 4842.3576       2.5770       0.0104       2.7801
 4842.2052       2.5770       0.0104       2.7801
 4842.0528       2.5770       0.0104       2.7801
 4841.9004       2.5770       0.0104       2.7801
 4841.7480       2.5770       0.0104       2.7801
 4841.5956       2.5770       0.0104       2.7801
 4841.4432       2.5770       0.0104       2.7801
 4841.2908       2.5770       0.0104       2.7801
 4841.1384       2.5770       0.0104       2.7801
 4840.9860       2.5770       0.0104       2.7801
 4840.8336       2.5770       0.0104       2.7801
 4840.6812       2.5770       0.0104       2.7801
 4840.5288       2.5770       0.0104       2.7801
 4840.3764       2.5770       0.0104       2.7801
 4840.2240       2.5770       0.0104       2.7801
 4840.0716       2.5770       0.0104       2.7801
 4839.9192       2.5770       0.0104       2.7801
 4839.7668       2.5770       0.0104       2.7801
 4839.6144       2.5770       0.0104       2.7801
 4839.4620       2.5770       0.0104       2.7801
 4839.3096       2.5770       0.0104       2.7801
 4839.1572       2.5770       0.0104       2.7801
 4839.0048       2.5770       0.0104       2.7801
 4838.8524       2.5770       0.0104       2.7801
 4838.7000       2.5770       0.0104       2.7801
 4838.5476       2.5770       0.0104       2.7801
 4838.3952       2.5770       0.0104       2.7801
 4838.2428       2.5770       0.0104       2.7801
 4838.0904       2.5770       0.0104       2.7801
 4837.9380       2.5770       0.0104       2.7801
 4837.7856       2.5770       0.0104       2.7801
 4837.6332       2.5770       0.0104       2.7801
 4837.4808       2.5770       0.0104       2.7801
 4837.3284       2.5770       0.0104       2.7801
 4837.1760       2.5770       0.0104       2.7801
 4837.0236       2.5770       0.0104       2.7801
 4836.8712       2.5770       0.0104       2.7801
 4836.7188       2.5770       0.0104       2.7801
 4836.5664       2.5770       0.0104       2.7801
 4836.4140       2.5770       0.0104       2.7801
 4836.2616       2.5770       0.0104       2.7801
 4836.1092       2.5770       0.0104       2.7801
 4835.9568       2.5770       0.0104       2.7801
 4835.8044       2.5770       0.0104       2.7801
 4835.6520       2.5770       0.0104       2.7801
 4835.4996       2.5770       0.0104       2.7801
 4835.3472       2.5770       0.0104       2.7801
 4835.1948       2.5770       0.0104       2.7801
