~VERSION INFORMATION
VERS.           2.0   :CWLS Log ASCII Standard - VERSION 2.0
WRAP.           NO    :One Line per depth step
PROD.  Schlumberger   :LAS Producer
PROG.  DLIS to ASCII 11C0-305                          :LAS Program name and version
CREA.        2003/11/19 08:49                          :LAS Creation date {YYYY/MM/DD hh:mm}
SOURCE.     AIT_LDL_APS_NGS_011PUP.DLIS                :DLIS File Name
FILE-ID.     AIT_LDL_APS_NGS_011PUP                    :File Identification Number
#--------------------------------------------------
~WELL INFORMATION
#MNEM.UNIT      DATA             DESCRIPTION
#---- ------ --------------   -----------------------------
STRT .M      4859.4264       :START DEPTH     
STOP .M      4018.3308       :STOP DEPTH     
STEP .M        -0.1524       :STEP     
NULL .          -999.25      :NULL VALUE
COMP .        INPEX Browse, Ltd.                       :COMPANY
WELL .        ICHTHYS DEEP-1                           :WELL
FLD  .        WA-285-P                                 :FIELD
LOC  .        Datum: GDA94 Spheroid GRS80              :LOCATION
CNTY .        Ocean Bounty                             :COUNTY
STAT .        1:200                                    :STATE
CTRY .        Australia                                :COUNTRY
API  .                                                 :API NUMBER
UWI  .                                                 :UNIQUE WELL ID
DATE .        16-Nov-2003                              :LOG DATE {DD-MMM-YYYY}
SRVC .        Schlumberger                             :SERVICE COMPANY
LATI .DEG     13 51' 47.081" S                         :LATITUDE
LONG .DEG     123 13'  56.110" E                       :LONGITUDE
GDAT .                                                 :GeoDetic Datum
#-----------------------------------------------------------------------------
~PARAMETER INFORMATION
#MNEM.UNIT    VALUE                      DESCRIPTION
#---- -----   --------------------       ------------------------
RUN  .          Suite 3 Run 1            :RUN NUMBER
PDAT .        LAT                        :Permanent Datum
EPD  .M           0.000000               :Elevation of Permanent Datum above Mean Sea Level
EPD  .M           0.000000               :Elevation of tool zero above Mean Sea Level
LMF  .          Drill Floor              :Logging Measured From (Name of Logging Elevation Reference)
APD  .M          25.000000               :Elevation of Depth Reference (LMF) above Permanent Datum
#-----------------------------------------------------------------------------
~CURVE INFORMATION
#MNEM.UNIT   API CODE                                  DESCRIPTION
#---- -----  --------                                  -----------------------
DEPT .M                                                :DEPTH (BOREHOLE) {F10.4}
RHOM .G/C3                                             :LDS Corrected Bulk Density {F13.4}
DRH  .G/C3                                             :LDS Bulk Density Correction {F13.4}
PEFL .                                                 :LDS Long-Spaced Corrected Photoelectric Effect {F13.4}
#-----------------------------------------------------------------------------
# 
#     DEPT        RHOM         DRH          PEFL
#
~A  
# ...
 4249.8264       2.7170       0.0336       3.7457
 4249.6740       2.7022       0.0244       3.3912
 4249.5216       2.6942       0.0213       3.2532
 4249.3692       2.7027       0.0222       3.5230
 4249.2168       2.7350       0.0343       3.6053
 4249.0644       2.7358       0.0394       3.9234
 4248.9120       2.7079       0.0179       4.0533
 4248.7596       2.7338       0.0263       4.1772
 4248.6072       2.8039       0.0436       4.5289
 4248.4548       2.7676       0.0302       3.9181
 4248.3024       2.7116       0.0149       4.2169
 4248.1500       2.7005       0.0211       3.9955
 4247.9976       2.7661       0.0395       4.7504
 4247.8452       2.8054       0.0529       4.5123
 4247.6928       2.7651       0.0439       4.0785
 4247.5404       2.7181       0.0336       3.6029
 4247.3880       2.7022       0.0386       3.6009
 4247.2356       2.6947       0.0294       3.6637
 4247.0832       2.6875       0.0214       3.4982
 4246.9308       2.6951       0.0236       3.5954
 4246.7784       2.6942       0.0190       3.7064
 4246.6260       2.7193       0.0240       3.9222
 4246.4736       2.7572       0.0349       4.2779
 4246.3212       2.7534       0.0405       4.2492
 4246.1688       2.7294       0.0283       3.8772
 4246.0164       2.6900       0.0252       3.3796
 4245.8640       2.7091       0.0282       3.5237
 4245.7116       2.7157       0.0356       3.5598
 4245.5592       2.7594       0.0460       3.7430
 4245.4068       2.8205       0.0556       4.1533
 4245.2544       2.8870       0.0664       4.9819
 4245.1020       2.9289       0.0758       6.1102
 4244.9496       2.8559       0.0536       4.9883
 4244.7972       2.7781       0.0307       4.4111
 4244.6448       2.7188       0.0274       3.6313
 4244.4924       2.7212       0.0371       3.8148
 4244.3400       2.7268       0.0384       3.5786
 4244.1876       2.7480       0.0488       3.9268
 4244.0352       2.7378       0.0525       3.4453
 4243.8828       2.7196       0.0491       3.4573
 4243.7304       2.6902       0.0352       3.0841
 4243.5780       2.6817       0.0337       3.2577
 4243.4256       2.6816       0.0325       3.3595
 4243.2732       2.7116       0.0400       3.5049
 4243.1208       2.7587       0.0660       4.0633
 4242.9684       2.7511       0.0750       4.1083
 4242.8160       2.6434       0.0620       3.7959
 4242.6636       2.5636       0.0628       3.2092
 4242.5112       2.5171       0.0632       3.2347
 4242.3588       2.5064       0.0578       3.1576
 4242.2064       2.5153       0.0610       3.0189
 4242.0540       2.5258       0.0640       2.7103
 4241.9016       2.5215       0.0539       2.5429
 4241.7492       2.5074       0.0430       2.5788
 4241.5968       2.4931       0.0338       2.6430
 4241.4444       2.5049       0.0413       2.7099
 4241.2920       2.5137       0.0468       2.6305
 4241.1396       2.5227       0.0582       2.6318
 4240.9872       2.5245       0.0612       2.8495
 4240.8348       2.5260       0.0684       2.8799
 4240.6824       2.5275       0.0731       2.9116
 4240.5300       2.5215       0.0715       2.8600
 4240.3776       2.5022       0.0620       2.8588
 4240.2252       2.4999       0.0619       2.9265
 4240.0728       2.4956       0.0596       2.7243
 4239.9204       2.5049       0.0530       2.7660
 4239.7680       2.5086       0.0462       2.6613
 4239.6156       2.5128       0.0429       2.7140
 4239.4632       2.5231       0.0488       2.6235
 4239.3108       2.5207       0.0472       2.6119
 4239.1584       2.5103       0.0450       2.7267
 4239.0060       2.4960       0.0429       2.7041
 4238.8536       2.4929       0.0398       2.6206
 4238.7012       2.4929       0.0314       2.5167
 4238.5488       2.4883       0.0218       2.6246
 4238.3964       2.4873       0.0199       2.7869
 4238.2440       2.5042       0.0288       2.8637
 4238.0916       2.5118       0.0297       2.7036
 4237.9392       2.5319       0.0416       2.5886
 4237.7868       2.5476       0.0577       2.4507
 4237.6344       2.5451       0.0652       2.3836
 4237.4820       2.5259       0.0610       2.4698
 4237.3296       2.5180       0.0658       2.5844
 4237.1772       2.5199       0.0654       2.8376
 4237.0248       2.5163       0.0580       2.7930
 4236.8724       2.5145       0.0501       2.7847
 4236.7200       2.5159       0.0452       2.6356
 4236.5676       2.5067       0.0329       2.5959
 4236.4152       2.5127       0.0247       2.5675
 4236.2628       2.5461       0.0280       3.1459
 4236.1104       2.5657       0.0317       3.7210
 4235.9580       2.5544       0.0353       3.8755
 4235.8056       2.5149       0.0315       3.0873
 4235.6532       2.5105       0.0392       2.7178
 4235.5008       2.5106       0.0445       2.5628
 4235.3484       2.5148       0.0451       2.5487
 4235.1960       2.5102       0.0458       2.5903
 4235.0436       2.5162       0.0499       2.6772
 4234.8912       2.5106       0.0492       2.6869
 4234.7388       2.4986       0.0445       2.7526
 4234.5864       2.5040       0.0468       2.7742
 4234.4340       2.5044       0.0415       2.6302
 4234.2816       2.5178       0.0425       2.5268
 4234.1292       2.5220       0.0418       2.4684
 4233.9768       2.5336       0.0462       2.4941
 4233.8244       2.5456       0.0500       2.4823
 4233.6720       2.5450       0.0496       2.4175
 4233.5196       2.5471       0.0501       2.4723
 4233.3672       2.5428       0.0483       2.4423
 4233.2148       2.5385       0.0425       2.4669
 4233.0624       2.5277       0.0353       2.3937
 4232.9100       2.5184       0.0290       2.3705
 4232.7576       2.5200       0.0272       2.3832
 4232.6052       2.5235       0.0302       2.3218
 4232.4528       2.5253       0.0325       2.2999
 4232.3004       2.5229       0.0358       2.3252
 4232.1480       2.5249       0.0424       2.3788
 4231.9956       2.5185       0.0428       2.4840
 4231.8432       2.5077       0.0369       2.4511
 4231.6908       2.5128       0.0380       2.3585
 4231.5384       2.5118       0.0332       2.2687
 4231.3860       2.5094       0.0308       2.2748
 4231.2336       2.4957       0.0252       2.3611
 4231.0812       2.4928       0.0298       2.4675
 4230.9288       2.4832       0.0315       2.5781
 4230.7764       2.4806       0.0351       2.8554
 4230.6240       2.4823       0.0358       3.0690
 4230.4716       2.4682       0.0555       3.4898
 4230.3192       2.4292       0.0409       3.6805
 4230.1668       2.4115       0.0314       3.3891
 4230.0144       2.4879       0.0364       3.0335
 4229.8620       2.5759       0.0463       2.7922
 4229.7096       2.6482       0.0501       2.8923
 4229.5572       2.6570       0.0546       3.1077
 4229.4048       2.6103       0.0500       2.9479
 4229.2524       2.5589       0.0485       2.7873
 4229.1000       2.5173       0.0482       2.4568
 4228.9476       2.4941       0.0352       2.4399
 4228.7952       2.5023       0.0397       2.3718
 4228.6428       2.5047       0.0355       2.4204
 4228.4904       2.5096       0.0315       2.3797
 4228.3380       2.5084       0.0277       2.4462
 4228.1856       2.5170       0.0335       2.4151
 4228.0332       2.5105       0.0293       2.4953
 4227.8808       2.5134       0.0308       2.4240
 4227.7284       2.5099       0.0348       2.3611
 4227.5760       2.5218       0.0447       2.3157
 4227.4236       2.5368       0.0510       2.4212
 4227.2712       2.5487       0.0583       2.6836
 4227.1188       2.5387       0.0600       2.8127
 4226.9664       2.5127       0.0499       2.8217
 4226.8140       2.5224       0.0403       2.6525
 4226.6616       2.5667       0.0314       2.6603
 4226.5092       2.6207       0.0342       2.7371
 4226.3568       2.6755       0.0611       3.1626
 4226.2044       2.7080       0.1184       3.4001
 4226.0520       2.6601       0.1520       3.7898
 4225.8996       2.5856       0.1745       4.0360
 4225.7472       2.5730       0.2101       4.2947
 4225.5948       2.5549       0.2096       4.2372
