~VERSION INFORMATION
VERS.           2.0   :CWLS Log ASCII Standard - VERSION 2.0
WRAP.           NO    :One Line per depth step
PROD.  Schlumberger   :LAS Producer
PROG.  DLIS to ASCII 11C0-305                          :LAS Program name and version
CREA.        2003/11/19 08:45                          :LAS Creation date {YYYY/MM/DD hh:mm}
SOURCE.     UBI_Mainpb1_036PUP.DLIS                    :DLIS File Name
FILE-ID.     UBI_Mainpb1_036PUP                        :File Identification Number
#--------------------------------------------------
~WELL INFORMATION
#MNEM.UNIT      DATA             DESCRIPTION
#---- ------ --------------   -----------------------------
STRT .M      4859.4264       :START DEPTH     
STOP .M      4016.0448       :STOP DEPTH     
STEP .M        -0.1524       :STEP     
NULL .          -999.25      :NULL VALUE
COMP .        INPEX Browse, Ltd.                       :COMPANY
WELL .        ICHTHYS DEEP-1                           :WELL
FLD  .        WA-285-P                                 :FIELD
LOC  .        Datum: GDA94 Spheroid GRS80              :LOCATION
CNTY .        Ocean Bounty                             :COUNTY
STAT .        1:200                                    :STATE
CTRY .        Australia                                :COUNTRY
API  .                                                 :API NUMBER
UWI  .                                                 :UNIQUE WELL ID
DATE .        16-Nov-2003                              :LOG DATE {DD-MMM-YYYY}
SRVC .        Schlumberger                             :SERVICE COMPANY
LATI .DEG     13 51' 47.081" S                         :LATITUDE
LONG .DEG     123 13'  56.110" E                       :LONGITUDE
GDAT .                                                 :GeoDetic Datum
#-----------------------------------------------------------------------------
~PARAMETER INFORMATION
#MNEM.UNIT    VALUE                      DESCRIPTION
#---- -----   --------------------       ------------------------
RUN  .          Suite 3 Run 1            :RUN NUMBER
PDAT .        LAT                        :Permanent Datum
EPD  .M           0.000000               :Elevation of Permanent Datum above Mean Sea Level
EPD  .M           0.000000               :Elevation of tool zero above Mean Sea Level
LMF  .          Drill Floor              :Logging Measured From (Name of Logging Elevation Reference)
APD  .M          25.000000               :Elevation of Depth Reference (LMF) above Permanent Datum
#-----------------------------------------------------------------------------
~CURVE INFORMATION
#MNEM.UNIT   API CODE                                  DESCRIPTION
#---- -----  --------                                  -----------------------
DEPT .M                                                :DEPTH (BOREHOLE) {F10.4}
LCAL .IN                                               :LDS Caliper {F13.4}
GR   .GAPI                                             :Gamma Ray {F13.4}
#-----------------------------------------------------------------------------
# 
#     DEPT        LCAL         GR
#
~A  
# ...
 4264.1520       9.3435     132.6395
 4263.9996       9.0958     152.3437
 4263.8472       8.5308     161.9975
 4263.6948       8.5059     161.2040
 4263.5424       8.5143     158.1624
 4263.3900       8.5120     155.9143
 4263.2376       8.5089     157.6334
 4263.0852       8.5113     154.0629
 4262.9328       8.5094     153.7984
 4262.7804       8.5094     153.2694
 4262.6280       8.5092     154.5919
 4262.4756       8.5118     154.7241
 4262.3232       8.5094     159.0881
 4262.1708       8.5096     157.8979
 4262.0184       8.5108     159.1542
 4261.8660       8.5096     161.0623
 4261.7136       8.5094     160.0044
 4261.5612       8.5073     156.7644
 4261.4088       8.5094     156.5755
 4261.2564       8.4995     158.6914
 4261.1040       8.4960     163.7910
 4260.9516       8.4948     161.2784
 4260.7992       8.5014     165.7746
 4260.6468       8.5014     164.7828
 4260.4944       8.5044     166.9176
 4260.3420       8.4964     164.4050
 4260.1896       8.4950     164.9257
 4260.0372       8.4960     158.4269
 4259.8848       8.4962     153.7405
 4259.7324       8.4964     151.8891
 4259.5800       8.4941     152.0214
 4259.4276       8.4964     153.6662
 4259.2752       8.4983     157.6334
 4259.1228       8.4962     158.5591
 4258.9704       8.4981     166.3615
 4258.8180       8.4962     168.6096
 4258.6656       8.5030     174.8250
 4258.5132       8.4964     175.0895
 4258.3608       8.4964     169.3370
 4258.2084       8.5028     170.5271
 4258.0560       8.5014     159.5510
 4257.9036       8.5030     161.2040
 4257.7512       8.5033     154.1951
 4257.5988       8.5030     153.7984
 4257.4464       8.5040     157.5012
 4257.2940       8.5044     161.4685
 4257.1416       8.5038     165.9813
 4256.9892       8.5016     155.4019
 4256.8368       8.5028     155.2696
 4256.6844       8.5000     158.6914
 4256.5320       8.5044     160.6916
 4256.3796       8.5028     156.0914
 4256.2272       8.5009     155.4302
 4256.0748       8.5056     165.3484
 4255.9224       8.5053     171.4410
 4255.7700       8.5122     170.0442
 4255.6176       8.5509     163.4155
 4255.4652       8.5919     156.6334
 4255.3128       8.6348     157.1045
 4255.1604       8.6280     159.4849
 4255.0080       8.5908     169.5353
 4254.8556       8.5217     168.6096
 4254.7032       8.4978     162.3942
 4254.5508       8.5000     153.7240
 4254.3984       8.5061     158.0880
 4254.2460       8.4964     165.3614
 4254.0936       8.4964     166.8905
 4253.9412       8.4962     161.2040
 4253.7888       8.4830     153.6662
 4253.6364       8.4759     157.3690
 4253.4840       8.4764     157.9062
 4253.3316       8.4719     165.8408
 4253.1792       8.4714     163.7249
 4253.0268       8.4719     166.3615
 4252.8744       8.4681     164.9068
 4252.7220       8.4703     165.0142
 4252.5696       8.4720     163.9185
 4252.4172       8.4698     162.9928
 4252.2648       8.4731     166.1914
 4252.1124       8.4752     145.3100
 4251.9600       8.4783     110.2657
 4251.8076       8.7793      68.6092
 4251.6552       9.0868      47.6073
 4251.5028       9.4282      47.2106
 4251.3504       9.1832      66.5181
 4251.1980       9.1241     104.2073
 4251.0456       9.3460     141.3676
 4250.8932       8.6397     162.5264
 4250.7408       8.3790     165.8325
 4250.5884       8.4370     164.8241
 4250.4360       8.4374     167.8657
 4250.2836       8.4403     167.4690
 4250.1312       8.4420     168.7418
 4249.9788       8.4420     170.3288
 4249.8264       8.4434     176.1474
 4249.6740       8.4436     176.1144
 4249.5216       8.4390     172.8083
 4249.3692       8.4453     171.3536
 4249.2168       8.4434     175.7507
 4249.0644       8.4351     175.5193
 4248.9120       8.4155     170.4941
 4248.7596       8.4186     159.7824
 4248.6072       8.4219     150.7568
 4248.4548       8.4434     155.6781
 4248.3024       8.4455     162.4886
 4248.1500       8.4420     167.1171
 4247.9976       8.4434     152.6743
 4247.8452       8.4453     138.4582
 4247.6928       8.4438     136.4746
 4247.5404       8.4535     145.5993
 4247.3880       8.4742     156.5755
 4247.2356       8.4613     153.4017
 4247.0832       8.4533     148.7732
 4246.9308       8.4438     149.0377
 4246.7784       8.4450     152.0792
 4246.6260       8.4436     152.1784
 4246.4736       8.4455     148.2111
 4246.3212       8.4484     152.8396
 4246.1688       8.4785     161.9975
 4246.0164       8.4717     170.7255
 4245.8640       8.4858     167.4194
 4245.7116       8.5324     169.6675
 4245.5592       8.5337     169.4031
 4245.4068       8.5292     165.0390
 4245.2544       8.5257     155.8647
 4245.1020       8.5068     146.2110
 4244.9496       8.5316     154.0133
 4244.7972       8.5377     161.2040
 4244.6448       8.5368     171.9157
 4244.4924       8.5368     173.3703
 4244.3400       8.5302     169.9320
 4244.1876       8.5375     162.7909
 4244.0352       8.5408     160.8073
 4243.8828       8.5375     166.0970
 4243.7304       8.5365     173.3869
 4243.5780       8.5360     180.6602
 4243.4256       8.5364     188.8687
 4243.2732       8.5363     185.9429
 4243.1208       8.5429     173.1153
 4242.9684       8.5405     143.0950
 4242.8160       8.5412     102.6287
 4242.6636       8.5606      62.5591
 4242.5112       8.5651      32.6639
 4242.3588       8.5860      23.8036
 4242.2064       8.5773      21.8200
 4242.0540       8.5858      21.4232
 4241.9016       8.6053      22.2167
 4241.7492       8.6035      23.4069
 4241.5968       8.6055      21.5555
 4241.4444       8.6086      20.9439
 4241.2920       8.6317      19.2247
 4241.1396       8.6089      22.0018
 4240.9872       8.5943      24.2003
 4240.8348       8.5608      22.8307
 4240.6824       8.5207      23.6241
 4240.5300       8.5174      21.5083
 4240.3776       8.5351      24.4648
 4240.2252       8.5327      22.3489
 4240.0728       8.5313      22.4812
 4239.9204       8.5299      21.8448
 4239.7680       8.5346      22.6193
 4239.6156       8.5330      22.0904
 4239.4632       8.5361      23.9170
 4239.3108       8.5365      23.4069
 4239.1584       8.5363      24.8616
 4239.0060       8.5313      23.2746
 4238.8536       8.5441      23.6714
 4238.7012       8.5695      22.7457
 4238.5488       8.5707      21.0265
 4238.3964       8.5739      20.7620
 4238.2440       8.5676      20.2331
 4238.0916       8.5511      21.9522
 4237.9392       8.5358      23.4069
 4237.7868       8.5247      23.4069
 4237.6344       8.5231      22.0845
 4237.4820       8.5250      21.6629
 4237.3296       8.4934      21.2662
 4237.1772       8.4707      22.4564
 4237.0248       8.4764      21.5177
 4236.8724       8.4775      23.7658
 4236.7200       8.4775      24.0303
 4236.5676       8.4775      23.8036
 4236.4152       8.4749      24.8616
 4236.2628       8.4304      25.6550
 4236.1104       8.3548      26.0517
 4235.9580       8.3409      24.4483
 4235.8056       8.3432      23.9382
 4235.6532       8.3676      26.0541
 4235.5008       8.3892      27.3931
 4235.3484       8.4231      24.9938
 4235.1960       8.4441      22.4812
 4235.0436       8.4332      20.3983
 4234.8912       8.4400      22.9110
 4234.7388       8.4398      23.0432
 4234.5864       8.4203      22.7457
 4234.4340       8.3703      24.7293
 4234.2816       8.3576      27.5064
 4234.1292       8.3447      28.4416
 4233.9768       8.3772      27.4249
 4233.8244       8.4121      25.9703
 4233.6720       8.4227      25.2996
 4233.5196       8.4210      24.7293
 4233.3672       8.4207      24.9938
 4233.2148       8.4226      25.7873
 4233.0624       8.4271      24.9938
 4232.9100       8.4698      23.4069
 4232.7576       8.4857      24.2003
 4232.6052       8.4747      24.9938
 4232.4528       8.4736      26.5807
 4232.3004       8.4726      27.7544
 4232.1480       8.4721      29.2090
 4231.9956       8.4726      29.8702
 4231.8432       8.4785      28.1676
 4231.6908       8.4746      25.0694
 4231.5384       8.4719      22.0278
 4231.3860       8.4732      20.3830
 4231.2336       8.4737      22.8200
