~VERSION INFORMATION
VERS.           2.0   :CWLS Log ASCII Standard - VERSION 2.0
WRAP.           NO    :One Line per depth step
PROD.  Schlumberger   :LAS Producer
PROG.  DLIS to ASCII 11C0-305                          :LAS Program name and version
CREA.        2003/11/03 06:15                          :LAS Creation date {YYYY/MM/DD hh:mm}
SOURCE.     AIT_mainPB1_064PUP.DLIS                    :DLIS File Name
FILE-ID.     AIT_mainPB1_064PUP                        :File Identification Number
#--------------------------------------------------
~WELL INFORMATION
#MNEM.UNIT      DATA             DESCRIPTION
#---- ------ --------------   -----------------------------
STRT .M      4280.0016       :START DEPTH     
STOP .M      3948.9888       :STOP DEPTH     
STEP .M        -0.1524       :STEP     
NULL .          -999.25      :NULL VALUE
COMP .        INPEX Browse, Ltd.                       :COMPANY
WELL .        ICHTHYS DEEP-1                           :WELL
FLD  .        WA-285-P                                 :FIELD
LOC  .        Datum: GDA94 Spheroid GRS80              :LOCATION
CNTY .        Ocean Bounty                             :COUNTY
STAT .        1:200                                    :STATE
CTRY .        Australia                                :COUNTRY
API  .                                                 :API NUMBER
UWI  .                                                 :UNIQUE WELL ID
DATE .        03-Nov-2003                              :LOG DATE {DD-MMM-YYYY}
SRVC .        Schlumberger                             :SERVICE COMPANY
LATI .DEG     13 51' 47.081" S                         :LATITUDE
LONG .DEG     123 13'  56.110" E                       :LONGITUDE
GDAT .                                                 :GeoDetic Datum
#-----------------------------------------------------------------------------
~PARAMETER INFORMATION
#MNEM.UNIT    VALUE                      DESCRIPTION
#---- -----   --------------------       ------------------------
RUN  .          Suite 2 Run 1            :RUN NUMBER
PDAT .        LAT                        :Permanent Datum
EPD  .M           0.000000               :Elevation of Permanent Datum above Mean Sea Level
EPD  .M           0.000000               :Elevation of tool zero above Mean Sea Level
LMF  .          Drill Floor              :Logging Measured From (Name of Logging Elevation Reference)
APD  .M          25.000000               :Elevation of Depth Reference (LMF) above Permanent Datum
#-----------------------------------------------------------------------------
~CURVE INFORMATION
#MNEM.UNIT   API CODE                                  DESCRIPTION
#---- -----  --------                                  -----------------------
DEPT .M                                                :DEPTH (BOREHOLE) {F10.4}
TENS .LBF                                              :Cable Tension {F13.4}
APLU .V/V                                              :APS Near/Array Uncorrected Limestone Porosity {F13.4}
RHOM .G/C3                                             :LDS Corrected Bulk Density {F13.4}
DRH  .G/C3                                             :LDS Bulk Density Correction {F13.4}
PEFL .                                                 :LDS Long-Spaced Corrected Photoelectric Effect {F13.4}
LCAL .IN                                               :LDS Caliper {F13.4}
HSGR .GAPI                                             :HNGS Standard Gamma Ray {F13.4}
CDF  .LBF                                              :Calibrated Downhole Force {F13.4}
APLC .V/V                                              :APS Near/Array Corrected Limestone Porosity {F13.4}
ATD2 .IN                                               :Array Induction Two Foot Outer Diameter of Invasion (D2) {F13.4}
ATD1 .IN                                               :Array Induction Two Foot Inner Diameter of Invasion(D1) {F13.4}
AOD2 .IN                                               :Array Induction One Foot Outer Diameter of Invasion (D2) {F13.4}
AOD1 .IN                                               :Array Induction One Foot Inner Diameter of Invasion (D1) {F13.4}
AT90 .OHMM                                             :Array Induction Two Foot Resistivity A90 {F13.4}
AT60 .OHMM                                             :Array Induction Two Foot Resistivity A60 {F13.4}
AT30 .OHMM                                             :Array Induction Two Foot Resistivity A30 {F13.4}
AT20 .OHMM                                             :Array Induction Two Foot Resistivity A20 {F13.4}
AT10 .OHMM                                             :Array Induction Two Foot Resistivity A10 {F13.4}
AO90 .OHMM                                             :Array Induction One Foot Resistivity A90 {F13.4}
AO60 .OHMM                                             :Array Induction One Foot Resistivity A60 {F13.4}
AO30 .OHMM                                             :Array Induction One Foot Resistivity A30 {F13.4}
AO20 .OHMM                                             :Array Induction One Foot Resistivity A20 {F13.4}
AO10 .OHMM                                             :Array Induction One Foot Resistivity A10 {F13.4}
SIGF .CU                                               :APS Formation Capture Cross-Section {F13.4}
ANEC .HZ                                               :APS Near Detector Count Rate {F13.4}
AFEC .HZ                                               :APS Far Detector Count Rate {F13.4}
A1EP .HZ                                               :APS Array-1 Detector Count Rate {F13.4}
A2EP .HZ                                               :APS Array-2 Detector Count Rate {F13.4}
AFTC .HZ                                               :APS Thermal Detector Count Rate {F13.4}
#-----------------------------------------------------------------------------
# 
#     DEPT        TENS         APLU         RHOM         DRH          PEFL         LCAL         HSGR         CDF          APLC         ATD2         ATD1         AOD2         AOD1         AT90         AT60         AT30         AT20         AT10         AO90         AO60         AO30         AO20         AO10         SIGF         ANEC         AFEC         A1EP         A2EP         AFTC
#
~A  
# ...
 4084.7772    5488.0000       0.0922       2.4146      -0.0154       2.1227       9.0784      22.3326    1279.8000       0.0817      21.8034      21.7999      21.0601      21.0572     183.9438     233.8336     183.0594     137.6355     430.0893     191.0338     226.6057     211.1887     120.7694     474.8455       9.7272    3312.0000    1610.0000    2941.0000    2938.0000    6780.2910
 4084.6248    5453.0000       0.0997       2.4184      -0.0143       2.1227       9.0797      22.5468    1280.8666       0.0891      21.2306      21.2281      21.4456      21.4438     184.5647     235.7564     181.7039     137.5178     402.8834     140.4560     136.5969     156.6290     131.1695     304.8072       9.4763    3294.0000    1526.0000    2825.0000    2826.0000    6437.0493
 4084.4724    5455.0000       0.1022       2.4353      -0.0123       2.1591       9.0787      21.0260    1290.4651       0.0925      21.2806      21.2789      22.3509      22.3460     182.0743     231.7209     185.6260     139.9379     388.7332     142.8850     192.8882     187.1209     126.9087     364.6538       9.6846    3305.0000    1553.0000    2902.0000    2745.0000    6639.4082
 4084.3200    5453.0000       0.0984       2.4464      -0.0129       2.1520       9.0780      20.4644    1298.6416       0.0888      21.8144      21.8134      23.3003      23.2859     182.2993     231.8812     191.2739     143.7579     386.6125     154.6808     146.3205     210.3338     133.7546     437.0999       9.8669    3289.0000    1592.0000    2947.0000    2842.0000    6995.4570
 4084.1676    5422.0000       0.0893       2.4642      -0.0165       2.2822       9.0797      20.1134    1315.3501       0.0795      21.7634      21.7628      22.8907      22.8635     180.8038     229.6705     192.2863     146.2560     372.6230     162.0336     194.8889     220.9407      99.4816     433.2070      10.1382    3371.0000    1659.0000    2998.0000    2937.0000    7354.0664
 4084.0152    5446.0000       0.0861       2.4696      -0.0182       2.2404       9.0797      25.5766    1312.1505       0.0767      21.4010      21.4006      21.4021      21.3646     170.2255     215.5995     179.3997     135.9903     331.6328     130.6755     157.2493     167.8711     108.3475     267.3844      10.1449    3433.0000    1693.0000    3118.0000    3037.0000    7533.3721
 4083.8628    5421.0000       0.0865       2.4690      -0.0193       2.2861       9.0787      28.9159    1311.4396       0.0767      21.5649      21.5646      20.0682      20.0283     155.6752     196.8472     170.6365     128.1929     303.8839     127.3186     148.9269     157.0509     128.2469     253.4595      10.1130    3367.0000    1691.0000    3066.0000    2969.0000    6121.9849
 4083.7104    5386.0000       0.0885       2.4420      -0.0245       2.1443       9.0780      29.4136    1317.8385       0.0783      22.1268      22.1264      20.0210      19.9949     158.5479     201.2537     178.8747     134.3398     308.0815     152.0648     184.5911     186.8783     124.3283     310.8416       9.9920    3389.0000    1655.0000    2998.0000    3011.0000    5763.3750
 4083.5580    5395.0000       0.0908       2.4177      -0.0252       2.1779       9.0646      24.8445    1325.3041       0.0799      22.4667      22.4659      20.3889      20.3385     156.8350     202.0526     187.5807     139.5734     320.2272     192.7679     222.0303     223.4167     127.6535     351.3458       9.7390    3383.0000    1643.0000    3017.0000    2940.0000    6262.8677
 4083.4056    5448.0000       0.0957       2.3966      -0.0255       2.1751       9.0225      21.5751    1326.0150       0.0841      21.3586      21.3568      20.6381      20.1979     163.1990     213.7850     192.0925     142.6573     334.4781     169.4767     210.9061     194.2594     126.3574     299.1942       8.9583    3273.0000    1506.0000    2848.0000    2843.0000    6759.7988
 4083.2532    5452.0000       0.1020       2.3984      -0.0236       2.2593       8.9910      19.8099    1320.3270       0.0913      19.8124      19.8098      21.9342      19.7194     177.6876     250.0256     197.5096     147.8947     356.3518     126.3748     164.9649     157.8604     140.1181     275.5700       9.3006    3217.0000    1491.0000    2865.0000    2869.0000    6641.9697
 4083.1008    5417.0000       0.1049       2.4073      -0.0249       2.2218       8.9909      20.3589    1314.6390       0.0943      19.7700      19.7677      24.9723      18.9278     184.0441     303.4265     213.7961     158.0195     417.3727     179.2855     227.7836     260.3203     149.2999     478.4237       9.5362    3323.0000    1524.0000    2844.0000    2783.0000    6490.8418
 4082.9484    5427.0000       0.1099       2.4226      -0.0193       2.1926       8.9905      19.2289    1314.6390       0.1003      20.3570      20.3551      27.7980      18.7153     204.0310     369.0610     269.6574     181.9338     534.5565     161.8979     221.2238     295.3167     189.1667     419.7288       9.2820    3343.0000    1575.0000    2768.0000    2782.0000    6826.3975
 4082.7960    5449.0000       0.1075       2.4329      -0.0199       2.0385       8.9860      20.0260    1317.8385       0.0982      20.4865      20.4848      27.5239      19.7572     201.2181     476.7382     284.3236     212.7704     687.1713     185.4082     344.7807     446.0284     197.9373     761.1990       9.0452    3363.0000    1653.0000    2936.0000    2780.0000    6946.7886
 4082.6436    5453.0000       0.0993       2.4308      -0.0194       1.9543       8.9913      19.4854    1321.3936       0.0905      21.1411      21.1391      24.7749      21.3140     204.3029     687.1555     433.7035     255.9406    1012.6116     180.9060     299.0194     504.1518     183.3343     937.7949       9.1564    3452.0000    1627.0000    2952.0000    3000.0000    6995.4570
 4082.4912    5443.0000       0.0959       2.4275      -0.0186       2.0029       8.9917      19.6889    1323.8821       0.0876      30.1525      29.2361      22.8187      21.9831     215.7111     871.9604     414.0512     268.7955    1548.6372     233.4010     450.9705     801.8334     159.6803    1477.9114       8.8573    3441.0000    1646.0000    2983.0000    2994.0000    7382.2432
 4082.3388    5454.0000       0.1015       2.4117      -0.0174       2.0702       8.9927      19.4382    1328.1481       0.0938      64.1531      58.6077      22.2802      22.1713     205.9947     982.1069     375.0285     234.6117    1184.2097     226.7770     524.1204     684.6471     150.3561    1755.3322       8.7065    3397.0000    1669.0000    3021.0000    2930.0000    7220.8682
 4082.1864    5403.0000       0.1055       2.3987      -0.0202       2.1801       8.9893      18.6488    1327.4370       0.0974     108.1157      91.7479      21.9523      21.8901     219.0521     909.1363     317.8967     188.3372     442.1285     177.6638     426.6360     643.3621     152.6206    1114.9775       9.0954    3409.0000    1543.0000    2902.0000    2781.0000    7269.5376
 4082.0340    5394.0000       0.1153       2.3915      -0.0195       2.1009       8.9924      18.3070    1328.1481       0.1076     124.5442     100.6435      20.9208      20.6689     210.0574     637.7813     230.6331     131.7339     217.0139     175.0515     409.3204     786.1370     156.4270     683.2543       9.5713    3357.0000    1521.0000    2875.0000    2723.0000    6816.1519
 4081.8816    5435.0000       0.1167       2.4065      -0.0190       2.1047       8.9933      18.1825    1318.5496       0.1085     100.7992      84.1110      20.7479      20.2443     177.9619     384.9157     158.1923      95.4267     127.3751     174.5168     242.4654    1190.3553     118.3989     382.2092      10.3458    3251.0000    1479.0000    2716.0000    2776.0000    7256.7295
 4081.7292    5490.0000       0.1104       2.4498      -0.0143       2.1280       8.9876      20.6592    1319.2605       0.1012      76.5828      70.5423      27.0367      26.3794     125.0922     220.0138     110.1501      71.9926      84.2750      76.3276     100.6647     255.3040      68.8893     190.9691      11.2295    3387.0000    1487.0000    2861.0000    2804.0000    7000.5801
