~VERSION INFORMATION
VERS.           2.0   :CWLS Log ASCII Standard - VERSION 2.0
WRAP.           NO    :One Line per depth step
PROD.  Schlumberger   :LAS Producer
PROG.  DLIS to ASCII 11C0-305                          :LAS Program name and version
CREA.        2003/11/16 09:47                          :LAS Creation date {YYYY/MM/DD hh:mm}
SOURCE.     AIT_MainPB1_027PUP.DLIS                    :DLIS File Name
FILE-ID.     AIT_MainPB1_027PUP                        :File Identification Number
#--------------------------------------------------
~WELL INFORMATION
#MNEM.UNIT      DATA             DESCRIPTION
#---- ------ --------------   -----------------------------
STRT .M      4869.0276       :START DEPTH     
STOP .M      3996.2328       :STOP DEPTH     
STEP .M        -0.1524       :STEP     
NULL .          -999.25      :NULL VALUE
COMP .        INPEX Browse, Ltd.                       :COMPANY
WELL .        ICHTHYS DEEP-1                           :WELL
FLD  .        WA-285-P                                 :FIELD
LOC  .        Datum: GDA94 Spheroid GRS80              :LOCATION
CNTY .        Ocean Bounty                             :COUNTY
STAT .        1:200                                    :STATE
CTRY .        Australia                                :COUNTRY
API  .                                                 :API NUMBER
UWI  .                                                 :UNIQUE WELL ID
DATE .        16-Nov-2003                              :LOG DATE {DD-MMM-YYYY}
SRVC .        Schlumberger                             :SERVICE COMPANY
LATI .DEG     13 51' 47.081" S                         :LATITUDE
LONG .DEG     123 13'  56.110" E                       :LONGITUDE
GDAT .                                                 :GeoDetic Datum
#-----------------------------------------------------------------------------
~PARAMETER INFORMATION
#MNEM.UNIT    VALUE                      DESCRIPTION
#---- -----   --------------------       ------------------------
RUN  .          Suite 3 Run 1            :RUN NUMBER
PDAT .        LAT                        :Permanent Datum
EPD  .M           0.000000               :Elevation of Permanent Datum above Mean Sea Level
EPD  .M           0.000000               :Elevation of tool zero above Mean Sea Level
LMF  .          Drill Floor              :Logging Measured From (Name of Logging Elevation Reference)
APD  .M          25.000000               :Elevation of Depth Reference (LMF) above Permanent Datum
#-----------------------------------------------------------------------------
~CURVE INFORMATION
#MNEM.UNIT   API CODE                                  DESCRIPTION
#---- -----  --------                                  -----------------------
DEPT .M                                                :DEPTH (BOREHOLE) {F10.4}
TENS .LBF                                              :Cable Tension {F13.4}
APLU .V/V                                              :APS Near/Array Uncorrected Limestone Porosity {F13.4}
RHOM .G/C3                                             :LDS Corrected Bulk Density {F13.4}
DRH  .G/C3                                             :LDS Bulk Density Correction {F13.4}
PEFL .                                                 :LDS Long-Spaced Corrected Photoelectric Effect {F13.4}
LCAL .IN                                               :LDS Caliper {F13.4}
HSGR .GAPI                                             :HNGS Standard Gamma Ray {F13.4}
CDF  .N                                                :Calibrated Downhole Force {F13.4}
APLC .V/V                                              :APS Near/Array Corrected Limestone Porosity {F13.4}
ATD2 .IN                                               :Array Induction Two Foot Outer Diameter of Invasion (D2) {F13.4}
ATD1 .IN                                               :Array Induction Two Foot Inner Diameter of Invasion(D1) {F13.4}
AOD2 .IN                                               :Array Induction One Foot Outer Diameter of Invasion (D2) {F13.4}
AOD1 .IN                                               :Array Induction One Foot Inner Diameter of Invasion (D1) {F13.4}
AT90 .OHMM                                             :Array Induction Two Foot Resistivity A90 {F13.4}
AT60 .OHMM                                             :Array Induction Two Foot Resistivity A60 {F13.4}
AT30 .OHMM                                             :Array Induction Two Foot Resistivity A30 {F13.4}
AT20 .OHMM                                             :Array Induction Two Foot Resistivity A20 {F13.4}
AT10 .OHMM                                             :Array Induction Two Foot Resistivity A10 {F13.4}
AO90 .OHMM                                             :Array Induction One Foot Resistivity A90 {F13.4}
AO60 .OHMM                                             :Array Induction One Foot Resistivity A60 {F13.4}
AO30 .OHMM                                             :Array Induction One Foot Resistivity A30 {F13.4}
AO20 .OHMM                                             :Array Induction One Foot Resistivity A20 {F13.4}
AO10 .OHMM                                             :Array Induction One Foot Resistivity A10 {F13.4}
SIGF .CU                                               :APS Formation Capture Cross-Section {F13.4}
ANEC .HZ                                               :APS Near Detector Count Rate {F13.4}
AFEC .HZ                                               :APS Far Detector Count Rate {F13.4}
A1EP .HZ                                               :APS Array-1 Detector Count Rate {F13.4}
A2EP .HZ                                               :APS Array-2 Detector Count Rate {F13.4}
AFTC .HZ                                               :APS Thermal Detector Count Rate {F13.4}
#-----------------------------------------------------------------------------
# 
#     DEPT        TENS         APLU         RHOM         DRH          PEFL         LCAL         HSGR         CDF          APLC         ATD2         ATD1         AOD2         AOD1         AT90         AT60         AT30         AT20         AT10         AO90         AO60         AO30         AO20         AO10         SIGF         ANEC         AFEC         A1EP         A2EP         AFTC
#
~A  
# ...
 4577.7912    5998.0000       0.2018       1.6607      -0.2920      -0.1766      10.0380      37.5883    5882.5957       0.1633      10.0292      10.0292      72.5650      71.7258       8.2446       8.7784       8.4714       8.2017       8.4075       9.5704      10.2021       8.3500       7.8977       8.2346      20.6306    2885.0000     841.0000    1987.0000    1922.0000    2753.6125
 4577.6388    6071.0000       0.1745       1.4025      -0.2917      -0.3198       9.2462      40.4903    5887.3394       0.1372       9.5769       9.5769      78.1810      77.6012       7.5250       8.0551       7.6916       7.3490       7.7440       7.9244       8.3873       7.9308       6.8001       8.4171      20.9923    2879.0000     795.0000    2158.0000    2116.0000    2727.9976
 4577.4864    6033.0000       0.1764       1.5328      -0.3036      -0.3001       9.0235      41.5483    5941.1050       0.1495       9.4557       9.4557      53.1665      52.9667       6.7940       7.1447       6.6325       6.2777       6.7860       6.2248       6.5560       6.7003       6.3596       6.9002      22.9672    2908.0000     879.0000    2268.0000    2255.0000    2579.4307
 4577.3340    6083.0000       0.1716       2.1865      -0.2080      -0.2388       8.9816      43.0760    5944.2681       0.1524       9.4437       9.4437      22.1845      22.1501       6.3021       6.7013       6.3112       6.0713       6.2784       6.7030       6.9859       6.8406       6.0239       6.3864      24.1838    2907.0000     797.0000    1990.0000    1971.0000    2182.3979
 4577.1816    6089.0000       0.1836       2.8139      -0.0079      -0.1147       8.9589      39.6400    5974.3135       0.1712       9.4591       9.4591      11.7969      11.6860       5.9406       6.1953       6.0146       5.8499       5.9747       5.9826       6.1468       6.0577       5.2455       5.8305      25.4921    2891.0000     682.0000    2100.0000    2218.0000    2251.5586
 4577.0292    6065.0000       0.1762       2.8139      -0.0079    -999.2500       8.9961      39.1987    6029.6606       0.1572      10.6331      10.6331      13.7848      12.4132       5.2390       5.4030       5.3592       5.2009       5.1551       4.7872       4.8513       4.8614       5.1900       4.6522      26.7235    2812.0000     797.0000    2082.0000    1990.0000    2223.3821
 4576.8768    6113.0000       0.2099       2.8139      -0.0079    -999.2500       9.1108      39.4006    5966.4063       0.1930      10.4312      10.4312      34.7258      28.1799       4.6793       4.7774       4.6871       4.6366       4.6497       4.1814       4.1857       4.4532       4.4861       4.4590      27.0291    2679.0000     721.0000    1980.0000    1984.0000    2018.4620
 4576.7244    6105.0000       0.2475       2.8139      -0.0079    -999.2500       9.1916      38.1916    5941.1050       0.2348      18.1654      17.9311      81.3423      65.8311       4.3441       4.4084       4.5374       4.4355       4.4802       4.0300       4.0228       4.4375       4.6570       4.4024      26.8962    2728.0000     646.0000    1725.0000    1815.0000    1611.1836
 4576.5720    5959.0000       0.2871       2.8139      -0.0079    -999.2500       9.1775      37.2292    5967.9883       0.2764      46.8685      46.1758     114.2323      94.9126       4.3100       4.3569       4.6176       4.6081       4.8028       4.2672       4.2344       4.7699       4.9498       4.7898      27.5964    2778.0000     549.0000    1724.0000    1604.0000    1577.8840
 4576.4196    6051.0000       0.2913       2.8139      -0.0079    -999.2500       9.2214      36.8606    5939.5239       0.2768      84.4337      83.4160      99.9683      88.9095       4.7117       4.7533       5.3756       5.4883       5.4347       4.8748       4.7984       5.2026       6.0194       5.2377      27.1679    2746.0000     557.0000    1704.0000    1699.0000    1524.0924
 4576.2672    6096.0000       0.2765       2.8139      -0.0079    -999.2500       9.1817      38.6229    5933.1982       0.2604      97.6293      96.8931      69.8403      66.3710       5.6538       5.6920       6.5205       6.8474       6.2984       6.8504       6.6160       6.5783       6.9571       6.2790      25.6035    2792.0000     617.0000    1870.0000    1667.0000    1693.1516
 4576.1148    6055.0000       0.2431       2.8139      -0.0079    -999.2500       8.9598      37.6079    5923.7100       0.2228      72.1140      71.7600      60.3018      59.7352       6.0383       6.0785       6.7142       7.2717       7.3468       6.5845       6.3521       7.0793       6.2238       7.4842      25.2444    2757.0000     660.0000    1812.0000    1825.0000    1851.9646
 4575.9624    6052.0000       0.2237       2.8139      -0.0079    -999.2500       8.9446      36.9025    5925.2920       0.1983      38.4101      38.2906      79.0037      78.8439       5.7790       5.8174       6.2200       6.4896       6.4198       5.7989       5.5830       6.1951       6.7606       6.4014      25.4006    2885.0000     588.0000    1924.0000    1896.0000    1944.1785
 4575.8100    6025.0000       0.2171       2.8139      -0.0079    -999.2500       8.9361      37.3602    5898.4087       0.1917      32.5986      32.4070     103.2460     102.9529       5.9690       5.9977       6.2498       6.4414       6.0546       4.9180       4.8089       5.4997       6.5158       5.8239      24.5484    2697.0000     696.0000    1907.0000    1863.0000    1808.4191
 4575.6576    5947.0000       0.2313       2.8139      -0.0079    -999.2500       8.9773      40.0915    5956.9185       0.2087      48.8488      48.3051      94.3671      94.0137       6.9146       6.9639       7.4566       8.1457       7.9926       6.6557       6.4939       6.8939       8.7652       7.5262      22.5326    2652.0000     673.0000    1831.0000    1831.0000    1846.8416
 4575.5052    5983.0000       0.2369       2.8139      -0.0079    -999.2500       9.1959      43.1825    6122.9595       0.2184      65.5699      62.7372      80.9172      80.2017       8.1282       8.2091       9.1999      10.7012      11.3363       8.5136       8.3475       9.8894      13.6093      12.0245      22.0379    2679.0000     683.0000    1790.0000    1803.0000    1759.7505
 4575.3528    5991.0000       0.2203       2.8139      -0.0079    -999.2500       9.4557      47.9486    6070.7749       0.1970      77.1742      59.6639      70.5884      67.2187       8.2376       8.3601       9.8966      10.8113      11.6446       6.9852       6.9844       9.0110      11.5155      11.2655      20.1532    2763.0000     678.0000    1815.0000    1806.0000    2220.8206
 4575.2004    5930.0000       0.2038       2.8139      -0.0079    -999.2500       9.4437      47.8317    6032.8228       0.1740     104.5472      49.1317      66.9933      57.1190       9.4674       9.6797      10.7754      11.4046      12.8797       9.9027       9.9925      11.4917      14.3105      13.4229      18.8677    2804.0000     777.0000    2007.0000    1979.0000    2546.1313
 4575.0480    5996.0000       0.2030       2.8139      -0.0079    -999.2500       9.4591      43.7845    6061.2871       0.1632     140.3272      34.2541      54.9823      39.6935       9.7337       9.9296      13.3690      13.6833      15.6836      17.2388      17.6573      19.5229      19.2356      22.8125      18.1261    2761.0000     805.0000    1985.0000    1921.0000    2720.3130
 4574.8956    6026.0000       0.2256       2.8139      -0.0079    -999.2500      10.6331      40.3323    5988.5454       0.1839     137.8427      25.1336      41.9568      30.5704      11.0735      11.4818      13.4542      14.4594      17.6662      13.7113      14.3714      13.8804      12.9830      18.3242      19.4673    2675.0000     856.0000    1840.0000    1772.0000    2886.8105
 4574.7432    6016.0000       0.2410       2.8139      -0.0079    -999.2500      10.4312      51.0452    5993.2896       0.1835     110.4844      14.3669      44.2537      39.8332      10.8013      11.2870      12.8056      12.8596      15.3300      13.4182      14.3193      10.7631      10.1030      11.9731      19.2123    2649.0000     787.0000    1827.0000    1769.0000    2940.6021
