~VERSION INFORMATION
VERS.           2.0   :CWLS Log ASCII Standard - VERSION 2.0
WRAP.           NO    :One Line per depth step
PROD.  Schlumberger   :LAS Producer
PROG.  DLIS to ASCII 11C0-305                          :LAS Program name and version
CREA.        2003/11/16 09:47                          :LAS Creation date {YYYY/MM/DD hh:mm}
SOURCE.     AIT_MainPB1_027PUP.DLIS                    :DLIS File Name
FILE-ID.     AIT_MainPB1_027PUP                        :File Identification Number
#--------------------------------------------------
~WELL INFORMATION
#MNEM.UNIT      DATA             DESCRIPTION
#---- ------ --------------   -----------------------------
STRT .M      4869.0276       :START DEPTH     
STOP .M      3996.2328       :STOP DEPTH     
STEP .M        -0.1524       :STEP     
NULL .          -999.25      :NULL VALUE
COMP .        INPEX Browse, Ltd.                       :COMPANY
WELL .        ICHTHYS DEEP-1                           :WELL
FLD  .        WA-285-P                                 :FIELD
LOC  .        Datum: GDA94 Spheroid GRS80              :LOCATION
CNTY .        Ocean Bounty                             :COUNTY
STAT .        1:200                                    :STATE
CTRY .        Australia                                :COUNTRY
API  .                                                 :API NUMBER
UWI  .                                                 :UNIQUE WELL ID
DATE .        16-Nov-2003                              :LOG DATE {DD-MMM-YYYY}
SRVC .        Schlumberger                             :SERVICE COMPANY
LATI .DEG     13 51' 47.081" S                         :LATITUDE
LONG .DEG     123 13'  56.110" E                       :LONGITUDE
GDAT .                                                 :GeoDetic Datum
#-----------------------------------------------------------------------------
~PARAMETER INFORMATION
#MNEM.UNIT    VALUE                      DESCRIPTION
#---- -----   --------------------       ------------------------
RUN  .          Suite 3 Run 1            :RUN NUMBER
PDAT .        LAT                        :Permanent Datum
EPD  .M           0.000000               :Elevation of Permanent Datum above Mean Sea Level
EPD  .M           0.000000               :Elevation of tool zero above Mean Sea Level
LMF  .          Drill Floor              :Logging Measured From (Name of Logging Elevation Reference)
APD  .M          25.000000               :Elevation of Depth Reference (LMF) above Permanent Datum
#-----------------------------------------------------------------------------
~CURVE INFORMATION
#MNEM.UNIT   API CODE                                  DESCRIPTION
#---- -----  --------                                  -----------------------
DEPT .M                                                :DEPTH (BOREHOLE) {F10.4}
TENS .LBF                                              :Cable Tension {F13.4}
APLU .V/V                                              :APS Near/Array Uncorrected Limestone Porosity {F13.4}
RHOM .G/C3                                             :LDS Corrected Bulk Density {F13.4}
DRH  .G/C3                                             :LDS Bulk Density Correction {F13.4}
PEFL .                                                 :LDS Long-Spaced Corrected Photoelectric Effect {F13.4}
LCAL .IN                                               :LDS Caliper {F13.4}
HSGR .GAPI                                             :HNGS Standard Gamma Ray {F13.4}
CDF  .N                                                :Calibrated Downhole Force {F13.4}
APLC .V/V                                              :APS Near/Array Corrected Limestone Porosity {F13.4}
ATD2 .IN                                               :Array Induction Two Foot Outer Diameter of Invasion (D2) {F13.4}
ATD1 .IN                                               :Array Induction Two Foot Inner Diameter of Invasion(D1) {F13.4}
AOD2 .IN                                               :Array Induction One Foot Outer Diameter of Invasion (D2) {F13.4}
AOD1 .IN                                               :Array Induction One Foot Inner Diameter of Invasion (D1) {F13.4}
AT90 .OHMM                                             :Array Induction Two Foot Resistivity A90 {F13.4}
AT60 .OHMM                                             :Array Induction Two Foot Resistivity A60 {F13.4}
AT30 .OHMM                                             :Array Induction Two Foot Resistivity A30 {F13.4}
AT20 .OHMM                                             :Array Induction Two Foot Resistivity A20 {F13.4}
AT10 .OHMM                                             :Array Induction Two Foot Resistivity A10 {F13.4}
AO90 .OHMM                                             :Array Induction One Foot Resistivity A90 {F13.4}
AO60 .OHMM                                             :Array Induction One Foot Resistivity A60 {F13.4}
AO30 .OHMM                                             :Array Induction One Foot Resistivity A30 {F13.4}
AO20 .OHMM                                             :Array Induction One Foot Resistivity A20 {F13.4}
AO10 .OHMM                                             :Array Induction One Foot Resistivity A10 {F13.4}
SIGF .CU                                               :APS Formation Capture Cross-Section {F13.4}
ANEC .HZ                                               :APS Near Detector Count Rate {F13.4}
AFEC .HZ                                               :APS Far Detector Count Rate {F13.4}
A1EP .HZ                                               :APS Array-1 Detector Count Rate {F13.4}
A2EP .HZ                                               :APS Array-2 Detector Count Rate {F13.4}
AFTC .HZ                                               :APS Thermal Detector Count Rate {F13.4}
#-----------------------------------------------------------------------------
# 
#     DEPT        TENS         APLU         RHOM         DRH          PEFL         LCAL         HSGR         CDF          APLC         ATD2         ATD1         AOD2         AOD1         AT90         AT60         AT30         AT20         AT10         AO90         AO60         AO30         AO20         AO10         SIGF         ANEC         AFEC         A1EP         A2EP         AFTC
#
~A  
# ...
 4056.1260    5398.0000       0.1136       2.8139      -0.0079    -999.2500       9.8931      99.2048    5765.5762       0.0534      34.5721      24.9447      29.4751      28.9688      16.7864      17.9495      17.3697      19.0885      23.5919      16.1967      16.8756      17.6896      12.1991      24.1674      15.8557    2780.0000    1202.0000    2416.0000    2368.0000    3076.3616
 4055.9736    5417.0000       0.1067       2.8139      -0.0079    -999.2500      10.0825     114.9884    5860.4565       0.0542      22.9179      15.5862      34.7001      33.7078      11.0842      11.8251      12.3784      12.4293      13.1562      10.7167      10.9926      11.6154       9.9986      12.1705      16.0129    2859.0000    1225.3334    2482.0000    2534.0000    3468.2712
 4055.8212    5401.0000       0.1197       2.8139      -0.0079    -999.2500       9.8597     134.3731    5855.7124       0.0699      13.6627      10.6324      47.9988      46.9823       9.1788       9.6171       9.7151       9.5339       9.5798       8.4172       8.5551       9.2367       9.8882       9.2841      16.9759    2837.0000    1238.0000    2355.0000    2282.0000    3288.9661
 4055.6688    5479.0000       0.1481       2.8139      -0.0079    -999.2500       9.8166     142.7827    5860.4565       0.1044      10.4320      10.2832      69.0596      68.5282       8.3849       8.7115       9.0995       9.1528       9.2491       7.5203       7.6111       8.2127       8.7942       8.7287      20.4722    2838.0000    1064.0000    2129.0000    2168.0000    2897.0566
 4055.5164    5493.0000       0.1627       2.8139      -0.0079    -999.2500       9.7678     139.4752    5869.9448       0.1168      10.0430      10.0430      87.8003      87.6371       9.5143       9.8993       9.9644      10.2026      10.6087       9.3999       9.5673      10.5961      11.4593      10.3529      22.2604    2819.0000     967.0000    2152.0000    2116.0000    2307.9116
 4055.3640    5491.0000       0.1651       2.8139      -0.0079    -999.2500      10.2590     126.1525    5844.6436       0.1139      10.1675      10.1675      76.6779      76.6464      11.4863      11.9745      12.7040      12.8759      12.9142      12.9048      13.3055      14.9349      15.2359      15.6116      23.5172    2846.0000     929.0000    2084.0000    2048.0000    2174.7136
 4055.2116    5431.0000       0.1685       2.8139      -0.0079    -999.2500      10.3167     113.0518    5854.1313       0.1131      10.2107      10.2107      42.9173      42.9135      13.2173      13.8650      14.8858      15.2330      15.3443      14.0185      14.4758      15.2659      14.6889      15.9937      22.6506    2712.0000     991.0000    2096.0000    2084.0000    2581.9922
 4055.0592    5450.0000       0.1647       2.8139      -0.0079    -999.2500      10.2899     113.8180    5862.0376       0.1076      10.2278      10.2278      17.5549      17.5544      14.2307      14.8764      15.1198      15.3523      15.1351      14.2200      14.5958      14.8541      15.3715      14.7504      22.5457    2777.0000     944.0000    1997.0000    2083.0000    2730.5591
 4054.9068    5465.0000       0.1688       2.8139      -0.0079    -999.2500      10.0947     121.6375    5898.4087       0.1041      10.1445      10.1445      11.3717      11.3716      15.2244      15.8903      15.6335      15.6242      15.4117      15.2902      15.5987      15.8314      16.2222      15.5326      22.0920    2722.0000     990.0000    2005.0000    2093.0000    2446.2324
 4054.7544    5461.0000       0.1852       2.8139      -0.0079    -999.2500       9.9852     129.3387    5912.6411       0.1113      10.0485      10.0485      10.1083      10.1078      17.4336      18.1126      17.4189      17.4666      16.7792      17.5393      18.0352      17.3210      18.2082      16.7459      22.8078    2676.0000     962.0000    1986.0000    1983.0000    2400.1255
 4054.6020    5478.0000       0.2052       2.8139      -0.0079    -999.2500       9.9247     127.3056    5918.9663       0.1434      10.0156      10.0156      10.1675      10.1675      19.3683      20.0715      20.4057      20.3521      18.5710      20.6409      20.7970      20.2289      21.1895      19.0392      25.3409    2720.0000     998.0000    1859.0000    1859.0000    2433.4250
 4054.4496    5508.0000       0.1987       2.8139      -0.0079    -999.2500       9.9469     124.0751    5836.7363       0.1196      10.1361      10.1361      10.2250      10.2180      23.1882      23.8101      24.0566      23.5709      22.5355      23.6153      23.1905      26.9662      23.2921      24.3496      24.9956    2691.0000     913.0000    1939.0000    1830.0000    2371.9490
 4054.2972    5419.0000       0.1811       2.8139      -0.0079    -999.2500      10.6802     121.4180    5814.5977       0.0951      10.3805      10.3805      10.5069      10.4967      19.3380      19.8804      21.8368      21.4522      21.0842      19.1933      19.0996      20.2924      18.4766      22.8485      21.0085    2841.0000     974.0000    2053.0000    1973.0000    2535.8850
 4054.1448    5464.0000       0.1914       2.8139      -0.0079    -999.2500      10.7132     121.5823    5760.8320       0.1045      10.5914      10.5914      10.7158      10.7086      16.4879      16.6448      17.1934      17.2401      17.2917      16.4050      16.4575      17.1049      16.0592      16.6168      20.0335    2652.0000    1034.0000    1950.0000    2082.0000    2581.9919
 4053.9924    5401.0000       0.2144       2.8139      -0.0079    -999.2500      10.6690     128.0492    5874.6885       0.1403      10.6639      10.6639      11.6029      11.5838      14.8872      14.9343      15.4117      15.6514      15.6620      15.2468      15.0271      15.6875      14.8339      14.9856      23.8686    2636.0000     924.0000    1749.0000    1814.0000    2541.0081
 4053.8400    5407.0000       0.2072       2.8139      -0.0079    -999.2500      10.6606     129.4240    5966.4063       0.1272      10.6331      10.6331      15.3116      15.2104      14.7843      14.8129      15.2021      15.3208      15.9319      15.9807      15.7686      16.1494      15.9345      16.1906      23.4315    2721.3333     818.0000    1789.3334    1965.3334    2420.6177
 4053.6876    5444.0000       0.1810       2.8139      -0.0079    -999.2500      10.5935     127.1662    5961.6626       0.0995      10.5324      10.5324      33.8130      33.5160      15.0312      15.0407      15.4948      15.4832      15.4106      13.5240      13.5537      14.3044      16.1225      14.2116      21.9902    2865.0000     840.0000    1977.0000    2140.0000    2595.6533
 4053.5352    5462.0000       0.1697       2.8139      -0.0079    -999.2500      10.2832     113.1341    5953.7559       0.0931      10.3636      10.3636      51.6482      51.2155      18.0136      17.8565      18.4622      19.0094      18.8669      15.8879      15.9664      16.4868      23.2193      17.8597      20.7990    2790.0000     878.0000    2015.0000    2060.0000    2530.7622
 4053.3828    5441.0000       0.1941       2.8139      -0.0079    -999.2500      10.0430      92.1015    5934.7798       0.1285      10.1824      10.1824      46.3123      46.0106      25.3700      25.1051      27.0816      27.3923      23.1959      25.8540      25.2154      25.7425      25.6494      26.2063      21.1554    2669.0000     988.0000    2047.0000    2018.0000    2428.3022
 4053.2304    5455.0000       0.1921       2.8139      -0.0079    -999.2500      10.1675      79.4953    5865.2007       0.1313       9.9862       9.9862      27.5682      27.4630      21.0258      20.9818      20.4894      22.0333      22.2695      22.3358      21.7609      21.1800      16.5410      22.7799      20.7566    2725.0000     918.4000    1799.0000    1938.0000    2646.0295
 4053.0780    5399.0000       0.1735       2.8139      -0.0079    -999.2500       9.6942      87.4671    5835.1553       0.1393       9.7450       9.7350      19.2389      19.1702      16.4274      16.4834      15.5399      16.1987      15.9978      13.9865      13.6379      14.1574      12.9413      13.5725      22.6798    2869.0000    1147.0000    2158.0000    2082.0000    3186.5061
