~VERSION INFORMATION
VERS.           2.0   :CWLS Log ASCII Standard - VERSION 2.0
WRAP.           NO    :One Line per depth step
PROD.  Schlumberger   :LAS Producer
PROG.  DLIS to ASCII 11C0-305                          :LAS Program name and version
CREA.        2003/11/19 08:49                          :LAS Creation date {YYYY/MM/DD hh:mm}
SOURCE.     AIT_LDL_APS_NGS_011PUP.DLIS                :DLIS File Name
FILE-ID.     AIT_LDL_APS_NGS_011PUP                    :File Identification Number
#--------------------------------------------------
~WELL INFORMATION
#MNEM.UNIT      DATA             DESCRIPTION
#---- ------ --------------   -----------------------------
STRT .M      4859.4264       :START DEPTH     
STOP .M      4018.3308       :STOP DEPTH     
STEP .M        -0.1524       :STEP     
NULL .          -999.25      :NULL VALUE
COMP .        INPEX Browse, Ltd.                       :COMPANY
WELL .        ICHTHYS DEEP-1                           :WELL
FLD  .        WA-285-P                                 :FIELD
LOC  .        Datum: GDA94 Spheroid GRS80              :LOCATION
CNTY .        Ocean Bounty                             :COUNTY
STAT .        1:200                                    :STATE
CTRY .        Australia                                :COUNTRY
API  .                                                 :API NUMBER
UWI  .                                                 :UNIQUE WELL ID
DATE .        16-Nov-2003                              :LOG DATE {DD-MMM-YYYY}
SRVC .        Schlumberger                             :SERVICE COMPANY
LATI .DEG     13 51' 47.081" S                         :LATITUDE
LONG .DEG     123 13'  56.110" E                       :LONGITUDE
GDAT .                                                 :GeoDetic Datum
#-----------------------------------------------------------------------------
~PARAMETER INFORMATION
#MNEM.UNIT    VALUE                      DESCRIPTION
#---- -----   --------------------       ------------------------
RUN  .          Suite 3 Run 1            :RUN NUMBER
PDAT .        LAT                        :Permanent Datum
EPD  .M           0.000000               :Elevation of Permanent Datum above Mean Sea Level
EPD  .M           0.000000               :Elevation of tool zero above Mean Sea Level
LMF  .          Drill Floor              :Logging Measured From (Name of Logging Elevation Reference)
APD  .M          25.000000               :Elevation of Depth Reference (LMF) above Permanent Datum
#-----------------------------------------------------------------------------
~CURVE INFORMATION
#MNEM.UNIT   API CODE                                  DESCRIPTION
#---- -----  --------                                  -----------------------
DEPT .M                                                :DEPTH (BOREHOLE) {F10.4}
RHOM .G/C3                                             :LDS Corrected Bulk Density {F13.4}
DRH  .G/C3                                             :LDS Bulk Density Correction {F13.4}
PEFL .                                                 :LDS Long-Spaced Corrected Photoelectric Effect {F13.4}
#-----------------------------------------------------------------------------
# 
#     DEPT        RHOM         DRH          PEFL
#
~A  
# ...
 4371.7464       2.6431       0.0446       4.6926
 4371.5940       2.6599       0.0836       4.9678
 4371.4416       2.6610       0.0831       5.4499
 4371.2892       2.6650       0.0888       5.0289
 4371.1368       2.6937       0.0920       4.8795
 4370.9844       2.7027       0.0914       4.5997
 4370.8320       2.7475       0.0903       4.5953
 4370.6796       2.7871       0.1104       4.8982
 4370.5272       2.7767       0.0978       5.0682
 4370.3748       2.7525       0.0916       5.1218
 4370.2224       2.7386       0.0845       4.4328
 4370.0700       2.7018       0.0492       3.9580
 4369.9176       2.6910       0.0349       3.7382
 4369.7652       2.6810       0.0322       3.9149
 4369.6128       2.7009       0.0368       3.9731
 4369.4604       2.7016       0.0364       4.0003
 4369.3080       2.7126       0.0433       3.9359
 4369.1556       2.7101       0.0412       4.1898
 4369.0032       2.7164       0.0340       4.6664
 4368.8508       2.7329       0.0363       4.5593
 4368.6984       2.7260       0.0296       4.2908
 4368.5460       2.7389       0.0320       4.3431
 4368.3936       2.7298       0.0290       4.4065
 4368.2412       2.7275       0.0328       4.5271
 4368.0888       2.7062       0.0295       3.7783
 4367.9364       2.7050       0.0372       3.6937
 4367.7840       2.7170       0.0406       3.5999
 4367.6316       2.7212       0.0458       3.6805
 4367.4792       2.7250       0.0492       3.5442
 4367.3268       2.7010       0.0430       3.5632
 4367.1744       2.6921       0.0340       3.5613
 4367.0220       2.6878       0.0312       3.5994
 4366.8696       2.6876       0.0300       3.4616
 4366.7172       2.6703       0.0218       3.6853
 4366.5648       2.6709       0.0234       3.6793
 4366.4124       2.6842       0.0322       3.7204
 4366.2600       2.6947       0.0252       3.6293
 4366.1076       2.7392       0.0413       3.7242
 4365.9552       2.7602       0.0508       3.8603
 4365.8028       2.7446       0.0485       4.1204
 4365.6504       2.7153       0.0440       4.1495
 4365.4980       2.7168       0.0519       4.2517
 4365.3456       2.7230       0.0492       4.1259
 4365.1932       2.7139       0.0474       4.0205
 4365.0408       2.7107       0.0387       3.8772
 4364.8884       2.7208       0.0349       4.0338
 4364.7360       2.7495       0.0406       4.4069
 4364.5836       2.7381       0.0398       4.6633
 4364.4312       2.7165       0.0362       4.5323
 4364.2788       2.7152       0.0435       4.3443
 4364.1264       2.7217       0.0475       4.3341
 4363.9740       2.7225       0.0547       4.2505
 4363.8216       2.6979       0.0457       4.0345
 4363.6692       2.6877       0.0394       3.8744
 4363.5168       2.6740       0.0331       3.7145
 4363.3644       2.6794       0.0337       3.7521
 4363.2120       2.6788       0.0282       3.9057
 4363.0596       2.7143       0.0393       4.0005
 4362.9072       2.7321       0.0421       4.0918
 4362.7548       2.7183       0.0369       4.0597
 4362.6024       2.6971       0.0306       4.3339
 4362.4500       2.6813       0.0246       4.5519
 4362.2976       2.6841       0.0218       4.5963
 4362.1452       2.6797       0.0199       4.5790
 4361.9928       2.6932       0.0270       4.6897
 4361.8404       2.6966       0.0264       4.7397
 4361.6880       2.6955       0.0199       4.3689
 4361.5356       2.6943       0.0195       4.1352
 4361.3832       2.7043       0.0243       4.1556
 4361.2308       2.7051       0.0235       4.3663
 4361.0784       2.6893       0.0196       4.4133
 4360.9260       2.6937       0.0257       4.3442
 4360.7736       2.6848       0.0206       4.1634
 4360.6212       2.6919       0.0208       4.1742
 4360.4688       2.6776       0.0141       4.0138
 4360.3164       2.6797       0.0131       4.1790
 4360.1640       2.6812       0.0180       4.0160
 4360.0116       2.7047       0.0338       4.4297
 4359.8592       2.7067       0.0339       4.4036
 4359.7068       2.7131       0.0423       4.1791
 4359.5544       2.7198       0.0528       3.9589
 4359.4020       2.7120       0.0450       4.0153
 4359.2496       2.7032       0.0364       4.1516
 4359.0972       2.6927       0.0344       4.1768
 4358.9448       2.6900       0.0332       4.0036
 4358.7924       2.6853       0.0286       4.1861
 4358.6400       2.6985       0.0379       4.1600
 4358.4876       2.6838       0.0328       4.3199
 4358.3352       2.6858       0.0336       4.6669
 4358.1828       2.6810       0.0308       4.6387
 4358.0304       2.6864       0.0353       4.7004
 4357.8780       2.6688       0.0261       4.5397
 4357.7256       2.6794       0.0347       4.8013
 4357.5732       2.6921       0.0430       4.5447
 4357.4208       2.6873       0.0419       4.3944
 4357.2684       2.6778       0.0352       4.5020
 4357.1160       2.6846       0.0414       4.7591
 4356.9636       2.6950       0.0355       4.9985
 4356.8112       2.6907       0.0278       4.6697
 4356.6588       2.7001       0.0323       5.2425
 4356.5064       2.7013       0.0344       5.2197
 4356.3540       2.7111       0.0398       5.2796
 4356.2016       2.7115       0.0445       5.1656
 4356.0492       2.7074       0.0439       5.1192
 4355.8968       2.6963       0.0411       5.2227
 4355.7444       2.6868       0.0393       4.8523
 4355.5920       2.6787       0.0305       4.5833
 4355.4396       2.6723       0.0203       4.4102
 4355.2872       2.6927       0.0299       4.3732
 4355.1348       2.6964       0.0312       4.4332
 4354.9824       2.7080       0.0272       4.5294
 4354.8300       2.7126       0.0275       4.1322
 4354.6776       2.7212       0.0331       4.1481
 4354.5252       2.7006       0.0178       4.0723
 4354.3728       2.6940       0.0124       4.3562
 4354.2204       2.7018       0.0168       4.5735
 4354.0680       2.6882       0.0147       4.7057
 4353.9156       2.6837       0.0147       4.8265
 4353.7632       2.6771       0.0226       4.4945
 4353.6108       2.6826       0.0290       4.3451
 4353.4584       2.6722       0.0236       4.5587
 4353.3060       2.6924       0.0312       4.8248
 4353.1536       2.6975       0.0379       4.8287
 4353.0012       2.6965       0.0311       4.6172
 4352.8488       2.6864       0.0258       4.4311
 4352.6964       2.7036       0.0344       4.7397
 4352.5440       2.7029       0.0330       4.9203
 4352.3916       2.7047       0.0340       4.8531
 4352.2392       2.6965       0.0312       4.3927
 4352.0868       2.6943       0.0339       3.9925
 4351.9344       2.6921       0.0356       3.7902
 4351.7820       2.7025       0.0387       4.1480
 4351.6296       2.7027       0.0332       4.2176
 4351.4772       2.7081       0.0347       4.4919
 4351.3248       2.6988       0.0329       4.2814
 4351.1724       2.6961       0.0282       4.6553
 4351.0200       2.6968       0.0276       4.9218
 4350.8676       2.6973       0.0285       4.9677
 4350.7152       2.7030       0.0378       4.8709
 4350.5628       2.7040       0.0406       4.6542
 4350.4104       2.7095       0.0436       4.4915
 4350.2580       2.7140       0.0446       4.3595
 4350.1056       2.7235       0.0441       4.5872
 4349.9532       2.7289       0.0424       4.3264
 4349.8008       2.7295       0.0416       4.2276
 4349.6484       2.7117       0.0312       4.0719
 4349.4960       2.7005       0.0245       4.5447
 4349.3436       2.6860       0.0208       4.5655
 4349.1912       2.6720       0.0131       4.6617
 4349.0388       2.6677       0.0123       4.5277
 4348.8864       2.6712       0.0173       4.5316
 4348.7340       2.6625       0.0167       4.4553
 4348.5816       2.6598       0.0189       4.5375
 4348.4292       2.6604       0.0292       4.5578
 4348.2768       2.6755       0.0334       4.7258
 4348.1244       2.6818       0.0314       4.6768
 4347.9720       2.7017       0.0361       4.5599
 4347.8196       2.7088       0.0367       4.5825
 4347.6672       2.7036       0.0327       4.6317
 4347.5148       2.7069       0.0314       5.1412
